[
  [
    {
      "place_name": "Otllak",
      "postal_code": "5010",
      "country_code": "AL",
      "latitude": 40.7439,
      "longitude": 19.9353,
      "admin_name1": "Qarku i Beratit"
    },
    {
      "place_name": "Vertop 1",
      "postal_code": "5017",
      "country_code": "AL",
      "latitude": 40.6767,
      "longitude": 19.9511,
      "admin_name1": "Qarku i Beratit"
    },
    {
      "place_name": "Lapardha",
      "postal_code": "5020",
      "country_code": "AL",
      "latitude": 40.7547,
      "longitude": 19.9481,
      "admin_name1": "Qarku i Beratit"
    },
    {
      "place_name": "Perondi",
      "postal_code": "5306",
      "country_code": "AL",
      "latitude": 40.7789,
      "longitude": 19.9231,
      "admin_name1": "Qarku i Beratit"
    },
    {
      "place_name": "Peshkopi",
      "postal_code": "8301",
      "country_code": "AL",
      "latitude": 41.685,
      "longitude": 20.4289,
      "admin_name1": "Qarku i Dibrës"
    },
    {
      "place_name": "Shkozet",
      "postal_code": "2007",
      "country_code": "AL",
      "latitude": 41.3239,
      "longitude": 19.467,
      "admin_name1": "Qarku i Durrësit"
    },
    {
      "place_name": "Fushe Kruje",
      "postal_code": "1502",
      "country_code": "AL",
      "latitude": 41.5047,
      "longitude": 19.7234,
      "admin_name1": "Qarku i Durrësit"
    },
    {
      "place_name": "Elbasan 2",
      "postal_code": "3002",
      "country_code": "AL",
      "latitude": 41.0433,
      "longitude": 19.9515,
      "admin_name1": "Qarku i Elbasanit"
    },
    {
      "place_name": "Lunik",
      "postal_code": "3410",
      "country_code": "AL",
      "latitude": 41.2892,
      "longitude": 20.3236,
      "admin_name1": "Qarku i Elbasanit"
    },
    {
      "place_name": "Dukas",
      "postal_code": "9333",
      "country_code": "AL",
      "latitude": 40.6075,
      "longitude": 19.7278,
      "admin_name1": "Qarku i Fierit"
    },
    {
      "place_name": "Golem",
      "postal_code": "9012",
      "country_code": "AL",
      "latitude": 40.9678,
      "longitude": 19.6853,
      "admin_name1": "Qarku i Fierit"
    },
    {
      "place_name": "Lekas",
      "postal_code": "7022",
      "country_code": "AL",
      "latitude": 40.6022,
      "longitude": 20.5125,
      "admin_name1": "Qarku i Korçës"
    },
    {
      "place_name": "Qender Pogradec",
      "postal_code": "7301",
      "country_code": "AL",
      "latitude": 40.9086,
      "longitude": 20.6264,
      "admin_name1": "Qarku i Korçës"
    },
    {
      "place_name": "Surroj",
      "postal_code": "8510",
      "country_code": "AL",
      "latitude": 41.9922,
      "longitude": 20.3442,
      "admin_name1": "Qarku i Kukësit"
    },
    {
      "place_name": "Kthelle",
      "postal_code": "4606",
      "country_code": "AL",
      "latitude": 41.8172,
      "longitude": 19.9109,
      "admin_name1": "Qarku i Lezhës"
    },
    {
      "place_name": "Dukagjin",
      "postal_code": "4009",
      "country_code": "AL",
      "latitude": 42.1113,
      "longitude": 19.5309,
      "admin_name1": "Qarku i Shkodrës"
    },
    {
      "place_name": "Tirana 14 (22)",
      "postal_code": "1005",
      "country_code": "AL",
      "latitude": 41.3247,
      "longitude": 19.7974,
      "admin_name1": "Tirana"
    },
    {
      "place_name": "Tirana Marikaj",
      "postal_code": "1033",
      "country_code": "AL",
      "latitude": 41.3722,
      "longitude": 19.6322,
      "admin_name1": "Tirana"
    },
    {
      "place_name": "Berati 4",
      "postal_code": "5004",
      "country_code": "AL",
      "latitude": 40.7665,
      "longitude": 19.887,
      "admin_name1": "Qarku i Beratit"
    },
    {
      "place_name": "Durresi 3",
      "postal_code": "2004",
      "country_code": "AL",
      "latitude": 41.3239,
      "longitude": 19.467,
      "admin_name1": "Qarku i Durrësit"
    },
    {
      "place_name": "Spitalle",
      "postal_code": "2009",
      "country_code": "AL",
      "latitude": 41.3411,
      "longitude": 19.4439,
      "admin_name1": "Qarku i Durrësit"
    },
    {
      "place_name": "Nikel",
      "postal_code": "1504",
      "country_code": "AL",
      "latitude": 41.4442,
      "longitude": 19.7483,
      "admin_name1": "Qarku i Durrësit"
    },
    {
      "place_name": "Bradashesh",
      "postal_code": "3009",
      "country_code": "AL",
      "latitude": 41.105,
      "longitude": 20.0225,
      "admin_name1": "Qarku i Elbasanit"
    },
    {
      "place_name": "Grekan",
      "postal_code": "3021",
      "country_code": "AL",
      "latitude": 40.9333,
      "longitude": 19.95,
      "admin_name1": "Qarku i Elbasanit"
    },
    {
      "place_name": "Fratar",
      "postal_code": "9328",
      "country_code": "AL",
      "latitude": 40.5,
      "longitude": 19.8167,
      "admin_name1": "Qarku i Fierit"
    },
    {
      "place_name": "Voskopoje",
      "postal_code": "7029",
      "country_code": "AL",
      "latitude": 40.6331,
      "longitude": 20.5889,
      "admin_name1": "Qarku i Korçës"
    },
    {
      "place_name": "Kolsh",
      "postal_code": "8511",
      "country_code": "AL",
      "latitude": 42.0781,
      "longitude": 20.3419,
      "admin_name1": "Qarku i Kukësit"
    },
    {
      "place_name": "Bajram Curri",
      "postal_code": "8702",
      "country_code": "AL",
      "latitude": 42.3573,
      "longitude": 20.0768,
      "admin_name1": "Qarku i Kukësit"
    },
    {
      "place_name": "Qender Lac 2",
      "postal_code": "4702",
      "country_code": "AL",
      "latitude": 41.6276,
      "longitude": 19.708,
      "admin_name1": "Qarku i Lezhës"
    },
    {
      "place_name": "Guri i ZI",
      "postal_code": "4016",
      "country_code": "AL",
      "latitude": 42.045,
      "longitude": 19.5747,
      "admin_name1": "Qarku i Shkodrës"
    },
    {
      "place_name": "Rranza (agjent postar)",
      "postal_code": "4025",
      "country_code": "AL",
      "latitude": 41.9503,
      "longitude": 19.5545,
      "admin_name1": "Qarku i Shkodrës"
    },
    {
      "place_name": "Dhermi",
      "postal_code": "9422",
      "country_code": "AL",
      "latitude": 40.1514,
      "longitude": 19.6389,
      "admin_name1": "Qarku i Vlorës"
    },
    {
      "place_name": "Velush",
      "postal_code": "5412",
      "country_code": "AL",
      "latitude": 40.6031,
      "longitude": 20.2462,
      "admin_name1": "Qarku i Beratit"
    },
    {
      "place_name": "Qender Bulqize",
      "postal_code": "8401",
      "country_code": "AL",
      "latitude": 41.4904,
      "longitude": 20.3628,
      "admin_name1": "Qarku i Dibrës"
    },
    {
      "place_name": "Shupenze",
      "postal_code": "8404",
      "country_code": "AL",
      "latitude": 41.53,
      "longitude": 20.4236,
      "admin_name1": "Qarku i Dibrës"
    },
    {
      "place_name": "Rrashbull",
      "postal_code": "2021",
      "country_code": "AL",
      "latitude": 41.3228,
      "longitude": 19.5103,
      "admin_name1": "Qarku i Durrësit"
    },
    {
      "place_name": "Stravaj",
      "postal_code": "3406",
      "country_code": "AL",
      "latitude": 41.0053,
      "longitude": 20.4231,
      "admin_name1": "Qarku i Elbasanit"
    },
    {
      "place_name": "Levan",
      "postal_code": "9314",
      "country_code": "AL",
      "latitude": 40.6761,
      "longitude": 19.4897,
      "admin_name1": "Qarku i Fierit"
    },
    {
      "place_name": "Verri",
      "postal_code": "9327",
      "country_code": "AL",
      "latitude": 40.7881,
      "longitude": 19.6242,
      "admin_name1": "Qarku i Fierit"
    },
    {
      "place_name": "Krutje",
      "postal_code": "9006",
      "country_code": "AL",
      "latitude": 40.8982,
      "longitude": 19.6865,
      "admin_name1": "Qarku i Fierit"
    },
    {
      "place_name": "Gorre",
      "postal_code": "9019",
      "country_code": "AL",
      "latitude": 40.8589,
      "longitude": 19.6347,
      "admin_name1": "Qarku i Fierit"
    },
    {
      "place_name": "Divjake",
      "postal_code": "9022",
      "country_code": "AL",
      "latitude": 40.9967,
      "longitude": 19.5294,
      "admin_name1": "Qarku i Fierit"
    },
    {
      "place_name": "Drenove",
      "postal_code": "7023",
      "country_code": "AL",
      "latitude": 40.5833,
      "longitude": 20.7922,
      "admin_name1": "Qarku i Korçës"
    },
    {
      "place_name": "Proptisht",
      "postal_code": "7308",
      "country_code": "AL",
      "latitude": 40.9861,
      "longitude": 20.5025,
      "admin_name1": "Qarku i Korçës"
    },
    {
      "place_name": "Bardhoc",
      "postal_code": "8514",
      "country_code": "AL",
      "latitude": 42.1064,
      "longitude": 20.5053,
      "admin_name1": "Qarku i Kukësit"
    },
    {
      "place_name": "Bujan",
      "postal_code": "8706",
      "country_code": "AL",
      "latitude": 42.3264,
      "longitude": 20.0764,
      "admin_name1": "Qarku i Kukësit"
    },
    {
      "place_name": "Qafe Mali",
      "postal_code": "4406",
      "country_code": "AL",
      "latitude": 42.0933,
      "longitude": 20.0906,
      "admin_name1": "Qarku i Shkodrës"
    },
    {
      "place_name": "Rrogozhine",
      "postal_code": "2503",
      "country_code": "AL",
      "latitude": 41.0764,
      "longitude": 19.6653,
      "admin_name1": "Tirana"
    },
    {
      "place_name": "Tirana 32",
      "postal_code": "1015",
      "country_code": "AL",
      "latitude": 41.3247,
      "longitude": 19.7974,
      "admin_name1": "Tirana"
    },
    {
      "place_name": "Zall-Herr",
      "postal_code": "1048",
      "country_code": "AL",
      "latitude": 41.3894,
      "longitude": 19.8275,
      "admin_name1": "Tirana"
    },
    {
      "place_name": "Stjar",
      "postal_code": "9719",
      "country_code": "AL",
      "latitude": 39.9322,
      "longitude": 20.0578,
      "admin_name1": "Qarku i Vlorës"
    },
    {
      "place_name": "Terbac (Vranisht)",
      "postal_code": "9413",
      "country_code": "AL",
      "latitude": 40.2461,
      "longitude": 19.6456,
      "admin_name1": "Qarku i Vlorës"
    },
    {
      "place_name": "Himare",
      "postal_code": "9425",
      "country_code": "AL",
      "latitude": 40.1017,
      "longitude": 19.7447,
      "admin_name1": "Qarku i Vlorës"
    },
    {
      "place_name": "Kala e Dodes",
      "postal_code": "8308",
      "country_code": "AL",
      "latitude": 41.8319,
      "longitude": 20.4603,
      "admin_name1": "Qarku i Dibrës"
    },
    {
      "place_name": "Muhur",
      "postal_code": "8315",
      "country_code": "AL",
      "latitude": 41.6797,
      "longitude": 20.3314,
      "admin_name1": "Qarku i Dibrës"
    },
    {
      "place_name": "Kruja",
      "postal_code": "1501",
      "country_code": "AL",
      "latitude": 41.5092,
      "longitude": 19.7928,
      "admin_name1": "Qarku i Durrësit"
    },
    {
      "place_name": "Kreshpan",
      "postal_code": "9324",
      "country_code": "AL",
      "latitude": 40.6294,
      "longitude": 19.5843,
      "admin_name1": "Qarku i Fierit"
    },
    {
      "place_name": "Gradishte",
      "postal_code": "9014",
      "country_code": "AL",
      "latitude": 40.8881,
      "longitude": 19.5858,
      "admin_name1": "Qarku i Fierit"
    },
    {
      "place_name": "Qender",
      "postal_code": "6001",
      "country_code": "AL",
      "latitude": 40.2094,
      "longitude": 20.4183,
      "admin_name1": "Qarku i Gjirokastrës"
    },
    {
      "place_name": "Dedaj",
      "postal_code": "4305",
      "country_code": "AL",
      "latitude": 42.2947,
      "longitude": 19.5411,
      "admin_name1": "Qarku i Shkodrës"
    },
    {
      "place_name": "Shkoder 5",
      "postal_code": "4006",
      "country_code": "AL",
      "latitude": 42.1113,
      "longitude": 19.5309,
      "admin_name1": "Qarku i Shkodrës"
    },
    {
      "place_name": "Tirana 7, 23",
      "postal_code": "1025",
      "country_code": "AL",
      "latitude": 41.3247,
      "longitude": 19.7974,
      "admin_name1": "Tirana"
    },
    {
      "place_name": "Berzhite",
      "postal_code": "1037",
      "country_code": "AL",
      "latitude": 41.2453,
      "longitude": 19.9011,
      "admin_name1": "Tirana"
    },
    {
      "place_name": "Zall-Bastar",
      "postal_code": "1042",
      "country_code": "AL",
      "latitude": 41.4297,
      "longitude": 19.9303,
      "admin_name1": "Tirana"
    },
    {
      "place_name": "Finiq",
      "postal_code": "9716",
      "country_code": "AL",
      "latitude": 39.9064,
      "longitude": 20.0583,
      "admin_name1": "Qarku i Vlorës"
    },
    {
      "place_name": "Çorovode 2",
      "postal_code": "5402",
      "country_code": "AL",
      "latitude": 40.5337,
      "longitude": 20.1974,
      "admin_name1": "Qarku i Beratit"
    },
    {
      "place_name": "Verzhezh",
      "postal_code": "5411",
      "country_code": "AL",
      "latitude": 40.6031,
      "longitude": 20.2462,
      "admin_name1": "Qarku i Beratit"
    },
    {
      "place_name": "Fushe-Cidhen",
      "postal_code": "8306",
      "country_code": "AL",
      "latitude": 41.7606,
      "longitude": 20.3411,
      "admin_name1": "Qarku i Dibrës"
    },
    {
      "place_name": "Gurre",
      "postal_code": "8006",
      "country_code": "AL",
      "latitude": 41.57,
      "longitude": 20.0246,
      "admin_name1": "Qarku i Dibrës"
    },
    {
      "place_name": "Kute",
      "postal_code": "9329",
      "country_code": "AL",
      "latitude": 40.4733,
      "longitude": 19.7664,
      "admin_name1": "Qarku i Fierit"
    },
    {
      "place_name": "Sofratike",
      "postal_code": "6005",
      "country_code": "AL",
      "latitude": 39.9922,
      "longitude": 20.2133,
      "admin_name1": "Qarku i Gjirokastrës"
    },
    {
      "place_name": "Picar",
      "postal_code": "6019",
      "country_code": "AL",
      "latitude": 40.1667,
      "longitude": 20.0483,
      "admin_name1": "Qarku i Gjirokastrës"
    },
    {
      "place_name": "Qender Bilisht",
      "postal_code": "7006",
      "country_code": "AL",
      "latitude": 40.5884,
      "longitude": 20.942,
      "admin_name1": "Qarku i Korçës"
    },
    {
      "place_name": "Zejmen",
      "postal_code": "4510",
      "country_code": "AL",
      "latitude": 41.7078,
      "longitude": 19.6892,
      "admin_name1": "Qarku i Lezhës"
    },
    {
      "place_name": "Orosh",
      "postal_code": "4605",
      "country_code": "AL",
      "latitude": 41.8333,
      "longitude": 20.0833,
      "admin_name1": "Qarku i Lezhës"
    },
    {
      "place_name": "Kace (agjent postar)",
      "postal_code": "4027",
      "country_code": "AL",
      "latitude": 41.9503,
      "longitude": 19.5545,
      "admin_name1": "Qarku i Shkodrës"
    },
    {
      "place_name": "Luz i Vogel",
      "postal_code": "2509",
      "country_code": "AL",
      "latitude": 41.1275,
      "longitude": 19.5739,
      "admin_name1": "Tirana"
    },
    {
      "place_name": "Tirana 13",
      "postal_code": "1003",
      "country_code": "AL",
      "latitude": 41.3247,
      "longitude": 19.7974,
      "admin_name1": "Tirana"
    },
    {
      "place_name": "Tirana 31",
      "postal_code": "1018",
      "country_code": "AL",
      "latitude": 41.3247,
      "longitude": 19.7974,
      "admin_name1": "Tirana"
    },
    {
      "place_name": "Tirana 9, 21",
      "postal_code": "1023",
      "country_code": "AL",
      "latitude": 41.3247,
      "longitude": 19.7974,
      "admin_name1": "Tirana"
    },
    {
      "place_name": "Tirana 28",
      "postal_code": "1028",
      "country_code": "AL",
      "latitude": 41.3247,
      "longitude": 19.7974,
      "admin_name1": "Tirana"
    },
    {
      "place_name": "Baldushk",
      "postal_code": "1035",
      "country_code": "AL",
      "latitude": 41.2139,
      "longitude": 19.7969,
      "admin_name1": "Tirana"
    },
    {
      "place_name": "Sauk",
      "postal_code": "1044",
      "country_code": "AL",
      "latitude": 41.3,
      "longitude": 19.8333,
      "admin_name1": "Tirana"
    },
    {
      "place_name": "Memoraq",
      "postal_code": "9711",
      "country_code": "AL",
      "latitude": 39.8483,
      "longitude": 20.1422,
      "admin_name1": "Qarku i Vlorës"
    },
    {
      "place_name": "Kuc",
      "postal_code": "9418",
      "country_code": "AL",
      "latitude": 40.1751,
      "longitude": 19.8394,
      "admin_name1": "Qarku i Vlorës"
    },
    {
      "place_name": "Mesaplik",
      "postal_code": "9424",
      "country_code": "AL",
      "latitude": 40.2561,
      "longitude": 19.7111,
      "admin_name1": "Qarku i Vlorës"
    },
    {
      "place_name": "Klos",
      "postal_code": "3020",
      "country_code": "AL",
      "latitude": 40.9461,
      "longitude": 20.0097,
      "admin_name1": "Qarku i Elbasanit"
    },
    {
      "place_name": "Prrenjas 2",
      "postal_code": "3404",
      "country_code": "AL",
      "latitude": 41.0958,
      "longitude": 20.4206,
      "admin_name1": "Qarku i Elbasanit"
    },
    {
      "place_name": "Prrenjas",
      "postal_code": "3413",
      "country_code": "AL",
      "latitude": 41.0731,
      "longitude": 20.5489,
      "admin_name1": "Qarku i Elbasanit"
    },
    {
      "place_name": "Kuman",
      "postal_code": "9315",
      "country_code": "AL",
      "latitude": 40.7267,
      "longitude": 19.6867,
      "admin_name1": "Qarku i Fierit"
    },
    {
      "place_name": "Kurjan",
      "postal_code": "9316",
      "country_code": "AL",
      "latitude": 40.7175,
      "longitude": 19.7456,
      "admin_name1": "Qarku i Fierit"
    },
    {
      "place_name": "Ngracan",
      "postal_code": "9334",
      "country_code": "AL",
      "latitude": 40.6444,
      "longitude": 19.7925,
      "admin_name1": "Qarku i Fierit"
    },
    {
      "place_name": "Miras",
      "postal_code": "7007",
      "country_code": "AL",
      "latitude": 40.5092,
      "longitude": 20.9283,
      "admin_name1": "Qarku i Korçës"
    },
    {
      "place_name": "Trebinje",
      "postal_code": "7307",
      "country_code": "AL",
      "latitude": 40.9133,
      "longitude": 20.5531,
      "admin_name1": "Qarku i Korçës"
    },
    {
      "place_name": "Rrape (agjent postar)",
      "postal_code": "4407",
      "country_code": "AL",
      "latitude": 42.0749,
      "longitude": 19.9939,
      "admin_name1": "Qarku i Shkodrës"
    },
    {
      "place_name": "Ashte (agjent postar)",
      "postal_code": "4023",
      "country_code": "AL",
      "latitude": 41.9503,
      "longitude": 19.5545,
      "admin_name1": "Qarku i Shkodrës"
    },
    {
      "place_name": "Tirane 11",
      "postal_code": "1031",
      "country_code": "AL",
      "latitude": 41.3073,
      "longitude": 19.7359,
      "admin_name1": "Tirana"
    },
    {
      "place_name": "Tirana 18",
      "postal_code": "1004",
      "country_code": "AL",
      "latitude": 41.3247,
      "longitude": 19.7974,
      "admin_name1": "Tirana"
    },
    {
      "place_name": "Tirana 23",
      "postal_code": "1026",
      "country_code": "AL",
      "latitude": 41.3247,
      "longitude": 19.7974,
      "admin_name1": "Tirana"
    },
    {
      "place_name": "Berati 6",
      "postal_code": "5006",
      "country_code": "AL",
      "latitude": 40.7665,
      "longitude": 19.887,
      "admin_name1": "Qarku i Beratit"
    },
    {
      "place_name": "Kozare",
      "postal_code": "5305",
      "country_code": "AL",
      "latitude": 40.8308,
      "longitude": 19.9006,
      "admin_name1": "Qarku i Beratit"
    },
    {
      "place_name": "Gjerbes",
      "postal_code": "5408",
      "country_code": "AL",
      "latitude": 40.6292,
      "longitude": 20.2511,
      "admin_name1": "Qarku i Beratit"
    },
    {
      "place_name": "Derjan",
      "postal_code": "8010",
      "country_code": "AL",
      "latitude": 41.6736,
      "longitude": 20.0583,
      "admin_name1": "Qarku i Dibrës"
    },
    {
      "place_name": "Kulle",
      "postal_code": "2012",
      "country_code": "AL",
      "latitude": 41.4289,
      "longitude": 19.5608,
      "admin_name1": "Qarku i Durrësit"
    },
    {
      "place_name": "Gjepalaj",
      "postal_code": "2022",
      "country_code": "AL",
      "latitude": 41.3331,
      "longitude": 19.5781,
      "admin_name1": "Qarku i Durrësit"
    },
    {
      "place_name": "Shirgjan",
      "postal_code": "3011",
      "country_code": "AL",
      "latitude": 41.0519,
      "longitude": 20.0533,
      "admin_name1": "Qarku i Elbasanit"
    },
    {
      "place_name": "Mollas",
      "postal_code": "3019",
      "country_code": "AL",
      "latitude": 40.9269,
      "longitude": 20.0036,
      "admin_name1": "Qarku i Elbasanit"
    },
    {
      "place_name": "Tregan",
      "postal_code": "3026",
      "country_code": "AL",
      "latitude": 41.0247,
      "longitude": 20.0783,
      "admin_name1": "Qarku i Elbasanit"
    },
    {
      "place_name": "Ruzhdie",
      "postal_code": "9312",
      "country_code": "AL",
      "latitude": 40.6708,
      "longitude": 19.6983,
      "admin_name1": "Qarku i Fierit"
    },
    {
      "place_name": "Palokaster",
      "postal_code": "6009",
      "country_code": "AL",
      "latitude": 40.1586,
      "longitude": 20.1014,
      "admin_name1": "Qarku i Gjirokastrës"
    },
    {
      "place_name": "Dervican",
      "postal_code": "6010",
      "country_code": "AL",
      "latitude": 40.0325,
      "longitude": 20.1733,
      "admin_name1": "Qarku i Gjirokastrës"
    },
    {
      "place_name": "Pirg",
      "postal_code": "7016",
      "country_code": "AL",
      "latitude": 40.785,
      "longitude": 20.7061,
      "admin_name1": "Qarku i Korçës"
    },
    {
      "place_name": "Liqenas",
      "postal_code": "7020",
      "country_code": "AL",
      "latitude": 40.7867,
      "longitude": 20.9022,
      "admin_name1": "Qarku i Korçës"
    },
    {
      "place_name": "Gryk-Caje",
      "postal_code": "8507",
      "country_code": "AL",
      "latitude": 41.94,
      "longitude": 20.3903,
      "admin_name1": "Qarku i Kukësit"
    },
    {
      "place_name": "Arren",
      "postal_code": "8509",
      "country_code": "AL",
      "latitude": 41.9131,
      "longitude": 20.2883,
      "admin_name1": "Qarku i Kukësit"
    },
    {
      "place_name": "Helmas",
      "postal_code": "2506",
      "country_code": "AL",
      "latitude": 41.1803,
      "longitude": 19.6069,
      "admin_name1": "Tirana"
    },
    {
      "place_name": "Tirana 1, 29",
      "postal_code": "1010",
      "country_code": "AL",
      "latitude": 41.3247,
      "longitude": 19.7974,
      "admin_name1": "Tirana"
    },
    {
      "place_name": "Livadhja",
      "postal_code": "9721",
      "country_code": "AL",
      "latitude": 39.7892,
      "longitude": 20.1219,
      "admin_name1": "Qarku i Vlorës"
    },
    {
      "place_name": "Shushice",
      "postal_code": "9406",
      "country_code": "AL",
      "latitude": 40.4192,
      "longitude": 19.596,
      "admin_name1": "Qarku i Vlorës"
    },
    {
      "place_name": "Vuno",
      "postal_code": "9417",
      "country_code": "AL",
      "latitude": 40.1397,
      "longitude": 19.6936,
      "admin_name1": "Qarku i Vlorës"
    },
    {
      "place_name": "Syzez",
      "postal_code": "5022",
      "country_code": "AL",
      "latitude": 40.8233,
      "longitude": 19.8199,
      "admin_name1": "Qarku i Beratit"
    },
    {
      "place_name": "Potom",
      "postal_code": "5407",
      "country_code": "AL",
      "latitude": 40.4883,
      "longitude": 20.3733,
      "admin_name1": "Qarku i Beratit"
    },
    {
      "place_name": "Kastriot",
      "postal_code": "8305",
      "country_code": "AL",
      "latitude": 41.7294,
      "longitude": 20.3772,
      "admin_name1": "Qarku i Dibrës"
    },
    {
      "place_name": "Plazh",
      "postal_code": "2008",
      "country_code": "AL",
      "latitude": 41.3066,
      "longitude": 19.4902,
      "admin_name1": "Qarku i Durrësit"
    },
    {
      "place_name": "Cerrik",
      "postal_code": "3007",
      "country_code": "AL",
      "latitude": 41.05,
      "longitude": 19.95,
      "admin_name1": "Qarku i Elbasanit"
    },
    {
      "place_name": "Librazhd 2",
      "postal_code": "3402",
      "country_code": "AL",
      "latitude": 41.0958,
      "longitude": 20.4206,
      "admin_name1": "Qarku i Elbasanit"
    },
    {
      "place_name": "Karbunare e Vogel",
      "postal_code": "9002",
      "country_code": "AL",
      "latitude": 40.9219,
      "longitude": 19.7178,
      "admin_name1": "Qarku i Fierit"
    },
    {
      "place_name": "Grabijan",
      "postal_code": "9011",
      "country_code": "AL",
      "latitude": 40.9531,
      "longitude": 19.5808,
      "admin_name1": "Qarku i Fierit"
    },
    {
      "place_name": "Borje",
      "postal_code": "8519",
      "country_code": "AL",
      "latitude": 42.0153,
      "longitude": 20.5864,
      "admin_name1": "Qarku i Kukësit"
    },
    {
      "place_name": "Shkoder 1",
      "postal_code": "4002",
      "country_code": "AL",
      "latitude": 42.1113,
      "longitude": 19.5309,
      "admin_name1": "Qarku i Shkodrës"
    },
    {
      "place_name": "Shkoder 2",
      "postal_code": "4003",
      "country_code": "AL",
      "latitude": 42.1113,
      "longitude": 19.5309,
      "admin_name1": "Qarku i Shkodrës"
    },
    {
      "place_name": "Selenice",
      "postal_code": "9427",
      "country_code": "AL",
      "latitude": 40.5306,
      "longitude": 19.6358,
      "admin_name1": "Qarku i Vlorës"
    },
    {
      "place_name": "Kucove Qender",
      "postal_code": "5301",
      "country_code": "AL",
      "latitude": 40.8101,
      "longitude": 19.9075,
      "admin_name1": "Qarku i Beratit"
    },
    {
      "place_name": "Polican 2",
      "postal_code": "5404",
      "country_code": "AL",
      "latitude": 40.5337,
      "longitude": 20.1974,
      "admin_name1": "Qarku i Beratit"
    },
    {
      "place_name": "Martanesh/Kraste",
      "postal_code": "8403",
      "country_code": "AL",
      "latitude": 41.4228,
      "longitude": 20.205,
      "admin_name1": "Qarku i Dibrës"
    },
    {
      "place_name": "Suç",
      "postal_code": "8007",
      "country_code": "AL",
      "latitude": 41.5769,
      "longitude": 20.0514,
      "admin_name1": "Qarku i Dibrës"
    },
    {
      "place_name": "Durresi 2",
      "postal_code": "2003",
      "country_code": "AL",
      "latitude": 41.3239,
      "longitude": 19.467,
      "admin_name1": "Qarku i Durrësit"
    },
    {
      "place_name": "Durresi 5",
      "postal_code": "2006",
      "country_code": "AL",
      "latitude": 41.3239,
      "longitude": 19.467,
      "admin_name1": "Qarku i Durrësit"
    },
    {
      "place_name": "Elbasan 1",
      "postal_code": "3001",
      "country_code": "AL",
      "latitude": 41.0433,
      "longitude": 19.9515,
      "admin_name1": "Qarku i Elbasanit"
    },
    {
      "place_name": "Stebleve",
      "postal_code": "3412",
      "country_code": "AL",
      "latitude": 41.1811,
      "longitude": 20.4363,
      "admin_name1": "Qarku i Elbasanit"
    },
    {
      "place_name": "Fier 1",
      "postal_code": "9302",
      "country_code": "AL",
      "latitude": 40.7334,
      "longitude": 19.5954,
      "admin_name1": "Qarku i Fierit"
    },
    {
      "place_name": "Fiershegan",
      "postal_code": "9013",
      "country_code": "AL",
      "latitude": 40.9002,
      "longitude": 19.6344,
      "admin_name1": "Qarku i Fierit"
    },
    {
      "place_name": "Bubullime",
      "postal_code": "9016",
      "country_code": "AL",
      "latitude": 40.8181,
      "longitude": 19.6408,
      "admin_name1": "Qarku i Fierit"
    },
    {
      "place_name": "Ballagat",
      "postal_code": "9017",
      "country_code": "AL",
      "latitude": 40.9953,
      "longitude": 19.7653,
      "admin_name1": "Qarku i Fierit"
    },
    {
      "place_name": "Barmash",
      "postal_code": "7404",
      "country_code": "AL",
      "latitude": 40.2778,
      "longitude": 20.6183,
      "admin_name1": "Qarku i Korçës"
    },
    {
      "place_name": "Tirana 4",
      "postal_code": "1016",
      "country_code": "AL",
      "latitude": 41.3247,
      "longitude": 19.7974,
      "admin_name1": "Tirana"
    },
    {
      "place_name": "Shengjergj",
      "postal_code": "1043",
      "country_code": "AL",
      "latitude": 41.3361,
      "longitude": 20.1139,
      "admin_name1": "Tirana"
    },
    {
      "place_name": "Preze",
      "postal_code": "1039",
      "country_code": "AL",
      "latitude": 41.4272,
      "longitude": 19.6728,
      "admin_name1": "Tirana"
    },
    {
      "place_name": "Saranda Gjashte",
      "postal_code": "9703",
      "country_code": "AL",
      "latitude": 39.7592,
      "longitude": 20.1144,
      "admin_name1": "Qarku i Vlorës"
    },
    {
      "place_name": "Roshnik",
      "postal_code": "5014",
      "country_code": "AL",
      "latitude": 40.7328,
      "longitude": 20.0394,
      "admin_name1": "Qarku i Beratit"
    },
    {
      "place_name": "Mbrakull",
      "postal_code": "5016",
      "country_code": "AL",
      "latitude": 40.6292,
      "longitude": 20.0667,
      "admin_name1": "Qarku i Beratit"
    },
    {
      "place_name": "Cepan",
      "postal_code": "5406",
      "country_code": "AL",
      "latitude": 40.4206,
      "longitude": 20.2606,
      "admin_name1": "Qarku i Beratit"
    },
    {
      "place_name": "Rukaj/Bruç",
      "postal_code": "8012",
      "country_code": "AL",
      "latitude": 41.6922,
      "longitude": 20.0053,
      "admin_name1": "Qarku i Dibrës"
    },
    {
      "place_name": "Durres Qender",
      "postal_code": "2001",
      "country_code": "AL",
      "latitude": 41.3239,
      "longitude": 19.467,
      "admin_name1": "Qarku i Durrësit"
    },
    {
      "place_name": "Xhafzotaj",
      "postal_code": "2019",
      "country_code": "AL",
      "latitude": 41.3444,
      "longitude": 19.5475,
      "admin_name1": "Qarku i Durrësit"
    },
    {
      "place_name": "Erind",
      "postal_code": "6008",
      "country_code": "AL",
      "latitude": 40.1569,
      "longitude": 20.1636,
      "admin_name1": "Qarku i Gjirokastrës"
    },
    {
      "place_name": "Korca 3",
      "postal_code": "7004",
      "country_code": "AL",
      "latitude": 40.5884,
      "longitude": 20.942,
      "admin_name1": "Qarku i Korçës"
    },
    {
      "place_name": "Qender Maliq",
      "postal_code": "7005",
      "country_code": "AL",
      "latitude": 40.5884,
      "longitude": 20.942,
      "admin_name1": "Qarku i Korçës"
    },
    {
      "place_name": "Bitincke",
      "postal_code": "7008",
      "country_code": "AL",
      "latitude": 40.6478,
      "longitude": 20.9836,
      "admin_name1": "Qarku i Korçës"
    },
    {
      "place_name": "Hocisht",
      "postal_code": "7009",
      "country_code": "AL",
      "latitude": 40.6083,
      "longitude": 20.9142,
      "admin_name1": "Qarku i Korçës"
    },
    {
      "place_name": "Bushtrice",
      "postal_code": "8506",
      "country_code": "AL",
      "latitude": 41.8786,
      "longitude": 20.4219,
      "admin_name1": "Qarku i Kukësit"
    },
    {
      "place_name": "Topojan",
      "postal_code": "8516",
      "country_code": "AL",
      "latitude": 41.9847,
      "longitude": 20.5222,
      "admin_name1": "Qarku i Kukësit"
    },
    {
      "place_name": "Llugaj",
      "postal_code": "8706",
      "country_code": "AL",
      "latitude": 42.3414,
      "longitude": 20.1086,
      "admin_name1": "Qarku i Kukësit"
    },
    {
      "place_name": "Qender Lac",
      "postal_code": "4701",
      "country_code": "AL",
      "latitude": 41.6276,
      "longitude": 19.708,
      "admin_name1": "Qarku i Lezhës"
    },
    {
      "place_name": "Qendre Lezhe",
      "postal_code": "4501",
      "country_code": "AL",
      "latitude": 41.8372,
      "longitude": 19.6563,
      "admin_name1": "Qarku i Lezhës"
    },
    {
      "place_name": "Balldre",
      "postal_code": "4504",
      "country_code": "AL",
      "latitude": 41.8094,
      "longitude": 19.6347,
      "admin_name1": "Qarku i Lezhës"
    },
    {
      "place_name": "Koplik",
      "postal_code": "4301",
      "country_code": "AL",
      "latitude": 42.2283,
      "longitude": 19.4667,
      "admin_name1": "Qarku i Shkodrës"
    },
    {
      "place_name": "Tamare",
      "postal_code": "4304",
      "country_code": "AL",
      "latitude": 42.4631,
      "longitude": 19.5622,
      "admin_name1": "Qarku i Shkodrës"
    },
    {
      "place_name": "Blerim",
      "postal_code": "4404",
      "country_code": "AL",
      "latitude": 42.1606,
      "longitude": 20.1919,
      "admin_name1": "Qarku i Shkodrës"
    },
    {
      "place_name": "Shkoder 3",
      "postal_code": "4004",
      "country_code": "AL",
      "latitude": 42.1113,
      "longitude": 19.5309,
      "admin_name1": "Qarku i Shkodrës"
    },
    {
      "place_name": "Shkoder 4",
      "postal_code": "4005",
      "country_code": "AL",
      "latitude": 42.1113,
      "longitude": 19.5309,
      "admin_name1": "Qarku i Shkodrës"
    },
    {
      "place_name": "Vlora Qender",
      "postal_code": "9401",
      "country_code": "AL",
      "latitude": 40.4833,
      "longitude": 19.5167,
      "admin_name1": "Qarku i Vlorës"
    },
    {
      "place_name": "Cukalat 1",
      "postal_code": "5019",
      "country_code": "AL",
      "latitude": 40.6767,
      "longitude": 19.9511,
      "admin_name1": "Qarku i Beratit"
    },
    {
      "place_name": "Kucove 2",
      "postal_code": "5302",
      "country_code": "AL",
      "latitude": 40.8101,
      "longitude": 19.9075,
      "admin_name1": "Qarku i Beratit"
    },
    {
      "place_name": "Draç",
      "postal_code": "2016",
      "country_code": "AL",
      "latitude": 41.3235,
      "longitude": 19.4547,
      "admin_name1": "Qarku i Durrësit"
    },
    {
      "place_name": "Gjinar",
      "postal_code": "3014",
      "country_code": "AL",
      "latitude": 41.0225,
      "longitude": 20.1889,
      "admin_name1": "Qarku i Elbasanit"
    },
    {
      "place_name": "Roskovec",
      "postal_code": "9306",
      "country_code": "AL",
      "latitude": 40.7375,
      "longitude": 19.7022,
      "admin_name1": "Qarku i Fierit"
    },
    {
      "place_name": "Kolonje",
      "postal_code": "9007",
      "country_code": "AL",
      "latitude": 40.8242,
      "longitude": 19.6039,
      "admin_name1": "Qarku i Fierit"
    },
    {
      "place_name": "Suhe",
      "postal_code": "6016",
      "country_code": "AL",
      "latitude": 40.0722,
      "longitude": 20.2558,
      "admin_name1": "Qarku i Gjirokastrës"
    },
    {
      "place_name": "Qender Leskovik",
      "postal_code": "7402",
      "country_code": "AL",
      "latitude": 40.364,
      "longitude": 20.6085,
      "admin_name1": "Qarku i Korçës"
    },
    {
      "place_name": "Mamuras",
      "postal_code": "4704",
      "country_code": "AL",
      "latitude": 41.5775,
      "longitude": 19.6922,
      "admin_name1": "Qarku i Lezhës"
    },
    {
      "place_name": "Velipoje",
      "postal_code": "4020",
      "country_code": "AL",
      "latitude": 41.8783,
      "longitude": 19.4056,
      "admin_name1": "Qarku i Shkodrës"
    },
    {
      "place_name": "Bushat",
      "postal_code": "4021",
      "country_code": "AL",
      "latitude": 41.9597,
      "longitude": 19.5342,
      "admin_name1": "Qarku i Shkodrës"
    },
    {
      "place_name": "Narte",
      "postal_code": "9414",
      "country_code": "AL",
      "latitude": 40.4979,
      "longitude": 19.4562,
      "admin_name1": "Qarku i Vlorës"
    },
    {
      "place_name": "Bestrove",
      "postal_code": "9419",
      "country_code": "AL",
      "latitude": 40.5177,
      "longitude": 19.4848,
      "admin_name1": "Qarku i Vlorës"
    },
    {
      "place_name": "Cukalat",
      "postal_code": "5018",
      "country_code": "AL",
      "latitude": 40.7303,
      "longitude": 19.7906,
      "admin_name1": "Qarku i Beratit"
    },
    {
      "place_name": "Vendresh",
      "postal_code": "5409",
      "country_code": "AL",
      "latitude": 40.5337,
      "longitude": 20.1974,
      "admin_name1": "Qarku i Beratit"
    },
    {
      "place_name": "Thumane",
      "postal_code": "1503",
      "country_code": "AL",
      "latitude": 41.5475,
      "longitude": 19.6778,
      "admin_name1": "Qarku i Durrësit"
    },
    {
      "place_name": "Fier 2",
      "postal_code": "9303",
      "country_code": "AL",
      "latitude": 40.9017,
      "longitude": 19.4267,
      "admin_name1": "Qarku i Fierit"
    },
    {
      "place_name": "Lushnje Qender",
      "postal_code": "9001",
      "country_code": "AL",
      "latitude": 40.8982,
      "longitude": 19.6865,
      "admin_name1": "Qarku i Fierit"
    },
    {
      "place_name": "Tropoje",
      "postal_code": "8703",
      "country_code": "AL",
      "latitude": 42.3597,
      "longitude": 20.0698,
      "admin_name1": "Qarku i Kukësit"
    },
    {
      "place_name": "Tirana 24",
      "postal_code": "1013",
      "country_code": "AL",
      "latitude": 41.3247,
      "longitude": 19.7974,
      "admin_name1": "Tirana"
    },
    {
      "place_name": "Peze",
      "postal_code": "1038",
      "country_code": "AL",
      "latitude": 41.2175,
      "longitude": 19.6961,
      "admin_name1": "Tirana"
    },
    {
      "place_name": "Mezez",
      "postal_code": "1050",
      "country_code": "AL",
      "latitude": 41.3344,
      "longitude": 19.7636,
      "admin_name1": "Tirana"
    },
    {
      "place_name": "Kashar",
      "postal_code": "1051",
      "country_code": "AL",
      "latitude": 41.3497,
      "longitude": 19.7103,
      "admin_name1": "Tirana"
    },
    {
      "place_name": "Çorovode Qender",
      "postal_code": "5401",
      "country_code": "AL",
      "latitude": 40.5337,
      "longitude": 20.1974,
      "admin_name1": "Qarku i Beratit"
    },
    {
      "place_name": "Bogove",
      "postal_code": "5405",
      "country_code": "AL",
      "latitude": 40.5711,
      "longitude": 20.15,
      "admin_name1": "Qarku i Beratit"
    },
    {
      "place_name": "Radesh",
      "postal_code": "5413",
      "country_code": "AL",
      "latitude": 40.5364,
      "longitude": 20.2533,
      "admin_name1": "Qarku i Beratit"
    },
    {
      "place_name": "Maqellare",
      "postal_code": "8302",
      "country_code": "AL",
      "latitude": 41.5889,
      "longitude": 20.4831,
      "admin_name1": "Qarku i Dibrës"
    },
    {
      "place_name": "Maminas",
      "postal_code": "2020",
      "country_code": "AL",
      "latitude": 41.3792,
      "longitude": 19.6075,
      "admin_name1": "Qarku i Durrësit"
    },
    {
      "place_name": "Bubq",
      "postal_code": "1505",
      "country_code": "AL",
      "latitude": 41.4742,
      "longitude": 19.6517,
      "admin_name1": "Qarku i Durrësit"
    },
    {
      "place_name": "Sukth",
      "postal_code": "1507",
      "country_code": "AL",
      "latitude": 41.5264,
      "longitude": 19.6231,
      "admin_name1": "Qarku i Durrësit"
    },
    {
      "place_name": "Zavaline",
      "postal_code": "3015",
      "country_code": "AL",
      "latitude": 40.9808,
      "longitude": 20.2808,
      "admin_name1": "Qarku i Elbasanit"
    },
    {
      "place_name": "Gjergjan",
      "postal_code": "3027",
      "country_code": "AL",
      "latitude": 41.0431,
      "longitude": 20.0297,
      "admin_name1": "Qarku i Elbasanit"
    },
    {
      "place_name": "Prrenjas 1",
      "postal_code": "3403",
      "country_code": "AL",
      "latitude": 41.0958,
      "longitude": 20.4206,
      "admin_name1": "Qarku i Elbasanit"
    },
    {
      "place_name": "Polis",
      "postal_code": "3409",
      "country_code": "AL",
      "latitude": 41.1333,
      "longitude": 20.2583,
      "admin_name1": "Qarku i Elbasanit"
    },
    {
      "place_name": "Ballsh",
      "postal_code": "9308",
      "country_code": "AL",
      "latitude": 40.5989,
      "longitude": 19.7347,
      "admin_name1": "Qarku i Fierit"
    },
    {
      "place_name": "Fier-Ferme",
      "postal_code": "9322",
      "country_code": "AL",
      "latitude": 40.6457,
      "longitude": 19.6338,
      "admin_name1": "Qarku i Fierit"
    },
    {
      "place_name": "Pogradec 2",
      "postal_code": "7303",
      "country_code": "AL",
      "latitude": 40.9086,
      "longitude": 20.6264,
      "admin_name1": "Qarku i Korçës"
    },
    {
      "place_name": "Shengjin",
      "postal_code": "4503",
      "country_code": "AL",
      "latitude": 41.8136,
      "longitude": 19.5939,
      "admin_name1": "Qarku i Lezhës"
    },
    {
      "place_name": "Rrile",
      "postal_code": "4509",
      "country_code": "AL",
      "latitude": 41.7156,
      "longitude": 19.6422,
      "admin_name1": "Qarku i Lezhës"
    },
    {
      "place_name": "Iballe",
      "postal_code": "4403",
      "country_code": "AL",
      "latitude": 42.1875,
      "longitude": 20.0025,
      "admin_name1": "Qarku i Shkodrës"
    },
    {
      "place_name": "Qelez",
      "postal_code": "4405",
      "country_code": "AL",
      "latitude": 42.0897,
      "longitude": 19.895,
      "admin_name1": "Qarku i Shkodrës"
    },
    {
      "place_name": "Luf",
      "postal_code": "4409",
      "country_code": "AL",
      "latitude": 42.0236,
      "longitude": 19.8436,
      "admin_name1": "Qarku i Shkodrës"
    },
    {
      "place_name": "Tirana 8/1, 8/2, 33",
      "postal_code": "1020",
      "country_code": "AL",
      "latitude": 41.3247,
      "longitude": 19.7974,
      "admin_name1": "Tirana"
    },
    {
      "place_name": "Xarre",
      "postal_code": "9707",
      "country_code": "AL",
      "latitude": 39.7283,
      "longitude": 20.0544,
      "admin_name1": "Qarku i Vlorës"
    },
    {
      "place_name": "Uji Ftohte",
      "postal_code": "9405",
      "country_code": "AL",
      "latitude": 40.4192,
      "longitude": 19.596,
      "admin_name1": "Qarku i Vlorës"
    },
    {
      "place_name": "Tomin",
      "postal_code": "8304",
      "country_code": "AL",
      "latitude": 41.6908,
      "longitude": 20.4217,
      "admin_name1": "Qarku i Dibrës"
    },
    {
      "place_name": "Libofshe",
      "postal_code": "9310",
      "country_code": "AL",
      "latitude": 40.8344,
      "longitude": 19.5522,
      "admin_name1": "Qarku i Fierit"
    },
    {
      "place_name": "Zharez",
      "postal_code": "9317",
      "country_code": "AL",
      "latitude": 40.7099,
      "longitude": 19.6388,
      "admin_name1": "Qarku i Fierit"
    },
    {
      "place_name": "Korca 2",
      "postal_code": "7003",
      "country_code": "AL",
      "latitude": 40.5884,
      "longitude": 20.942,
      "admin_name1": "Qarku i Korçës"
    },
    {
      "place_name": "Udenisht",
      "postal_code": "7305",
      "country_code": "AL",
      "latitude": 40.9633,
      "longitude": 20.6392,
      "admin_name1": "Qarku i Korçës"
    },
    {
      "place_name": "Zapod",
      "postal_code": "8515",
      "country_code": "AL",
      "latitude": 42.0506,
      "longitude": 20.5525,
      "admin_name1": "Qarku i Kukësit"
    },
    {
      "place_name": "Shkoder 6",
      "postal_code": "4007",
      "country_code": "AL",
      "latitude": 42.1113,
      "longitude": 19.5309,
      "admin_name1": "Qarku i Shkodrës"
    },
    {
      "place_name": "Stajke",
      "postal_code": "4024",
      "country_code": "AL",
      "latitude": 41.9872,
      "longitude": 19.5872,
      "admin_name1": "Qarku i Shkodrës"
    },
    {
      "place_name": "Synej",
      "postal_code": "2505",
      "country_code": "AL",
      "latitude": 41.18,
      "longitude": 19.5425,
      "admin_name1": "Tirana"
    },
    {
      "place_name": "Kryevidh",
      "postal_code": "2510",
      "country_code": "AL",
      "latitude": 41.1006,
      "longitude": 19.5275,
      "admin_name1": "Tirana"
    },
    {
      "place_name": "Tirana 46",
      "postal_code": "1009",
      "country_code": "AL",
      "latitude": 41.3247,
      "longitude": 19.7974,
      "admin_name1": "Tirana"
    },
    {
      "place_name": "Tirana 19",
      "postal_code": "1012",
      "country_code": "AL",
      "latitude": 41.3247,
      "longitude": 19.7974,
      "admin_name1": "Tirana"
    },
    {
      "place_name": "Tirana 21",
      "postal_code": "1024",
      "country_code": "AL",
      "latitude": 41.3247,
      "longitude": 19.7974,
      "admin_name1": "Tirana"
    },
    {
      "place_name": "Priske (Dajt)",
      "postal_code": "1040",
      "country_code": "AL",
      "latitude": 41.3192,
      "longitude": 19.9292,
      "admin_name1": "Tirana"
    },
    {
      "place_name": "Shales",
      "postal_code": "9709",
      "country_code": "AL",
      "latitude": 39.715,
      "longitude": 20.1578,
      "admin_name1": "Qarku i Vlorës"
    },
    {
      "place_name": "Ura e Kucit",
      "postal_code": "5021",
      "country_code": "AL",
      "latitude": 40.789,
      "longitude": 19.884,
      "admin_name1": "Qarku i Beratit"
    },
    {
      "place_name": "Gege",
      "postal_code": "5307",
      "country_code": "AL",
      "latitude": 40.8369,
      "longitude": 19.9261,
      "admin_name1": "Qarku i Beratit"
    },
    {
      "place_name": "Elbasan 5",
      "postal_code": "3005",
      "country_code": "AL",
      "latitude": 41.0433,
      "longitude": 19.9515,
      "admin_name1": "Qarku i Elbasanit"
    },
    {
      "place_name": "Elbasan 6",
      "postal_code": "3006",
      "country_code": "AL",
      "latitude": 41.0433,
      "longitude": 19.9515,
      "admin_name1": "Qarku i Elbasanit"
    },
    {
      "place_name": "Pluk",
      "postal_code": "9018",
      "country_code": "AL",
      "latitude": 40.6806,
      "longitude": 19.5683,
      "admin_name1": "Qarku i Fierit"
    },
    {
      "place_name": "Kashte Bardhe",
      "postal_code": "9020",
      "country_code": "AL",
      "latitude": 40.9446,
      "longitude": 19.5814,
      "admin_name1": "Qarku i Fierit"
    },
    {
      "place_name": "Vrisera",
      "postal_code": "6006",
      "country_code": "AL",
      "latitude": 39.8958,
      "longitude": 20.3456,
      "admin_name1": "Qarku i Gjirokastrës"
    },
    {
      "place_name": "Nivan",
      "postal_code": "6012",
      "country_code": "AL",
      "latitude": 40.1797,
      "longitude": 20.2903,
      "admin_name1": "Qarku i Gjirokastrës"
    },
    {
      "place_name": "Pojan",
      "postal_code": "7014",
      "country_code": "AL",
      "latitude": 40.7258,
      "longitude": 20.8375,
      "admin_name1": "Qarku i Korçës"
    },
    {
      "place_name": "Plase",
      "postal_code": "7015",
      "country_code": "AL",
      "latitude": 40.6856,
      "longitude": 20.8442,
      "admin_name1": "Qarku i Korçës"
    },
    {
      "place_name": "Shemri",
      "postal_code": "8512",
      "country_code": "AL",
      "latitude": 42.1042,
      "longitude": 20.2383,
      "admin_name1": "Qarku i Kukësit"
    },
    {
      "place_name": "Margegaj",
      "postal_code": "8706",
      "country_code": "AL",
      "latitude": 42.3208,
      "longitude": 20.0389,
      "admin_name1": "Qarku i Kukësit"
    },
    {
      "place_name": "Dogan MorineTropoje",
      "postal_code": "8707",
      "country_code": "AL",
      "latitude": 42.324,
      "longitude": 20.0777,
      "admin_name1": "Qarku i Kukësit"
    },
    {
      "place_name": "Oblike",
      "postal_code": "4017",
      "country_code": "AL",
      "latitude": 42.0289,
      "longitude": 19.4492,
      "admin_name1": "Qarku i Shkodrës"
    },
    {
      "place_name": "Tirana 29",
      "postal_code": "1011",
      "country_code": "AL",
      "latitude": 41.3247,
      "longitude": 19.7974,
      "admin_name1": "Tirana"
    },
    {
      "place_name": "Tirana 27",
      "postal_code": "1014",
      "country_code": "AL",
      "latitude": 41.3247,
      "longitude": 19.7974,
      "admin_name1": "Tirana"
    },
    {
      "place_name": "Tirana 6, 29",
      "postal_code": "1027",
      "country_code": "AL",
      "latitude": 41.3247,
      "longitude": 19.7974,
      "admin_name1": "Tirana"
    },
    {
      "place_name": "Vore",
      "postal_code": "1032",
      "country_code": "AL",
      "latitude": 41.3908,
      "longitude": 19.655,
      "admin_name1": "Tirana"
    },
    {
      "place_name": "Borsh",
      "postal_code": "9714",
      "country_code": "AL",
      "latitude": 40.0617,
      "longitude": 19.8575,
      "admin_name1": "Qarku i Vlorës"
    },
    {
      "place_name": "Lumas",
      "postal_code": "5013",
      "country_code": "AL",
      "latitude": 40.6767,
      "longitude": 19.9511,
      "admin_name1": "Qarku i Beratit"
    },
    {
      "place_name": "Bulqiza 1",
      "postal_code": "8402",
      "country_code": "AL",
      "latitude": 41.4904,
      "longitude": 20.3628,
      "admin_name1": "Qarku i Dibrës"
    },
    {
      "place_name": "Zerqan",
      "postal_code": "8406",
      "country_code": "AL",
      "latitude": 41.5022,
      "longitude": 20.3606,
      "admin_name1": "Qarku i Dibrës"
    },
    {
      "place_name": "Ulez (qytet)",
      "postal_code": "8003",
      "country_code": "AL",
      "latitude": 41.57,
      "longitude": 20.0246,
      "admin_name1": "Qarku i Dibrës"
    },
    {
      "place_name": "Durresi 1",
      "postal_code": "2002",
      "country_code": "AL",
      "latitude": 41.3239,
      "longitude": 19.467,
      "admin_name1": "Qarku i Durrësit"
    },
    {
      "place_name": "Manze 1",
      "postal_code": "2011",
      "country_code": "AL",
      "latitude": 41.3959,
      "longitude": 19.5409,
      "admin_name1": "Qarku i Durrësit"
    },
    {
      "place_name": "Shijak/1",
      "postal_code": "2014",
      "country_code": "AL",
      "latitude": 41.3959,
      "longitude": 19.5409,
      "admin_name1": "Qarku i Durrësit"
    },
    {
      "place_name": "Greshice",
      "postal_code": "9331",
      "country_code": "AL",
      "latitude": 40.5519,
      "longitude": 19.7783,
      "admin_name1": "Qarku i Fierit"
    },
    {
      "place_name": "Hekal",
      "postal_code": "9332",
      "country_code": "AL",
      "latitude": 40.5619,
      "longitude": 19.7358,
      "admin_name1": "Qarku i Fierit"
    },
    {
      "place_name": "Antigone",
      "postal_code": "6017",
      "country_code": "AL",
      "latitude": 40.0905,
      "longitude": 20.1925,
      "admin_name1": "Qarku i Gjirokastrës"
    },
    {
      "place_name": "Ujmisht",
      "postal_code": "8505",
      "country_code": "AL",
      "latitude": 41.9083,
      "longitude": 20.3469,
      "admin_name1": "Qarku i Kukësit"
    },
    {
      "place_name": "Shtiqen",
      "postal_code": "8513",
      "country_code": "AL",
      "latitude": 42.0406,
      "longitude": 20.4342,
      "admin_name1": "Qarku i Kukësit"
    },
    {
      "place_name": "Kallmet",
      "postal_code": "4507",
      "country_code": "AL",
      "latitude": 41.8489,
      "longitude": 19.6869,
      "admin_name1": "Qarku i Lezhës"
    },
    {
      "place_name": "Rreshen 1",
      "postal_code": "4602",
      "country_code": "AL",
      "latitude": 41.8172,
      "longitude": 19.9109,
      "admin_name1": "Qarku i Lezhës"
    },
    {
      "place_name": "Koman (agjent postar)",
      "postal_code": "4013",
      "country_code": "AL",
      "latitude": 42.0447,
      "longitude": 19.5028,
      "admin_name1": "Qarku i Shkodrës"
    },
    {
      "place_name": "Tirana 10",
      "postal_code": "1007",
      "country_code": "AL",
      "latitude": 41.3247,
      "longitude": 19.7974,
      "admin_name1": "Tirana"
    },
    {
      "place_name": "Tirana 3, 31",
      "postal_code": "1017",
      "country_code": "AL",
      "latitude": 41.3247,
      "longitude": 19.7974,
      "admin_name1": "Tirana"
    },
    {
      "place_name": "Tirana 33",
      "postal_code": "1022",
      "country_code": "AL",
      "latitude": 41.3247,
      "longitude": 19.7974,
      "admin_name1": "Tirana"
    },
    {
      "place_name": "Yzberisht",
      "postal_code": "1052",
      "country_code": "AL",
      "latitude": 41.3244,
      "longitude": 19.7703,
      "admin_name1": "Tirana"
    },
    {
      "place_name": "Piqeras",
      "postal_code": "9715",
      "country_code": "AL",
      "latitude": 40.0144,
      "longitude": 19.8911,
      "admin_name1": "Qarku i Vlorës"
    },
    {
      "place_name": "Armen",
      "postal_code": "9409",
      "country_code": "AL",
      "latitude": 40.5364,
      "longitude": 19.5961,
      "admin_name1": "Qarku i Vlorës"
    },
    {
      "place_name": "Sevaster",
      "postal_code": "9410",
      "country_code": "AL",
      "latitude": 40.3964,
      "longitude": 19.7297,
      "admin_name1": "Qarku i Vlorës"
    },
    {
      "place_name": "Tapi",
      "postal_code": "5308",
      "country_code": "AL",
      "latitude": 40.7936,
      "longitude": 19.8803,
      "admin_name1": "Qarku i Beratit"
    },
    {
      "place_name": "Gostime",
      "postal_code": "3018",
      "country_code": "AL",
      "latitude": 40.9947,
      "longitude": 20.0203,
      "admin_name1": "Qarku i Elbasanit"
    },
    {
      "place_name": "Kajan",
      "postal_code": "3022",
      "country_code": "AL",
      "latitude": 40.9142,
      "longitude": 19.8894,
      "admin_name1": "Qarku i Elbasanit"
    },
    {
      "place_name": "Librazhd 1",
      "postal_code": "3401",
      "country_code": "AL",
      "latitude": 41.0958,
      "longitude": 20.4206,
      "admin_name1": "Qarku i Elbasanit"
    },
    {
      "place_name": "Cakran",
      "postal_code": "9311",
      "country_code": "AL",
      "latitude": 40.6033,
      "longitude": 19.6261,
      "admin_name1": "Qarku i Fierit"
    },
    {
      "place_name": "Terbuf",
      "postal_code": "9015",
      "country_code": "AL",
      "latitude": 41.04,
      "longitude": 19.6142,
      "admin_name1": "Qarku i Fierit"
    },
    {
      "place_name": "Pogradec 1",
      "postal_code": "7302",
      "country_code": "AL",
      "latitude": 40.9086,
      "longitude": 20.6264,
      "admin_name1": "Qarku i Korçës"
    },
    {
      "place_name": "Blinisht",
      "postal_code": "4505",
      "country_code": "AL",
      "latitude": 41.8822,
      "longitude": 19.6369,
      "admin_name1": "Qarku i Lezhës"
    },
    {
      "place_name": "Shosh (agjent postar)",
      "postal_code": "4011",
      "country_code": "AL",
      "latitude": 42.0447,
      "longitude": 19.5028,
      "admin_name1": "Qarku i Shkodrës"
    },
    {
      "place_name": "Barbullush",
      "postal_code": "4022",
      "country_code": "AL",
      "latitude": 41.9264,
      "longitude": 19.55,
      "admin_name1": "Qarku i Shkodrës"
    },
    {
      "place_name": "Babrru",
      "postal_code": "1047",
      "country_code": "AL",
      "latitude": 41.3542,
      "longitude": 19.8292,
      "admin_name1": "Tirana"
    },
    {
      "place_name": "Tirana 5",
      "postal_code": "1001",
      "country_code": "AL",
      "latitude": 41.3247,
      "longitude": 19.7974,
      "admin_name1": "Tirana"
    },
    {
      "place_name": "Tirana 8",
      "postal_code": "1019",
      "country_code": "AL",
      "latitude": 41.3247,
      "longitude": 19.7974,
      "admin_name1": "Tirana"
    },
    {
      "place_name": "Ndroq",
      "postal_code": "1036",
      "country_code": "AL",
      "latitude": 41.2639,
      "longitude": 19.6558,
      "admin_name1": "Tirana"
    },
    {
      "place_name": "Qender Sarande",
      "postal_code": "9701",
      "country_code": "AL",
      "latitude": 39.7592,
      "longitude": 20.1144,
      "admin_name1": "Qarku i Vlorës"
    },
    {
      "place_name": "Berati 5",
      "postal_code": "5005",
      "country_code": "AL",
      "latitude": 40.7665,
      "longitude": 19.887,
      "admin_name1": "Qarku i Beratit"
    },
    {
      "place_name": "Terpan",
      "postal_code": "5015",
      "country_code": "AL",
      "latitude": 40.5522,
      "longitude": 20.0244,
      "admin_name1": "Qarku i Beratit"
    },
    {
      "place_name": "Cerruje",
      "postal_code": "8013",
      "country_code": "AL",
      "latitude": 41.5328,
      "longitude": 20.1319,
      "admin_name1": "Qarku i Dibrës"
    },
    {
      "place_name": "Ishem",
      "postal_code": "2015",
      "country_code": "AL",
      "latitude": 41.5453,
      "longitude": 19.6,
      "admin_name1": "Qarku i Durrësit"
    },
    {
      "place_name": "Elbasan 3",
      "postal_code": "3003",
      "country_code": "AL",
      "latitude": 41.0433,
      "longitude": 19.9515,
      "admin_name1": "Qarku i Elbasanit"
    },
    {
      "place_name": "Labinot Fushe",
      "postal_code": "3010",
      "country_code": "AL",
      "latitude": 41.0417,
      "longitude": 20.0532,
      "admin_name1": "Qarku i Elbasanit"
    },
    {
      "place_name": "Fierze",
      "postal_code": "3023",
      "country_code": "AL",
      "latitude": 40.9206,
      "longitude": 19.8469,
      "admin_name1": "Qarku i Elbasanit"
    },
    {
      "place_name": "Buzemadh",
      "postal_code": "9325",
      "country_code": "AL",
      "latitude": 40.5814,
      "longitude": 19.6131,
      "admin_name1": "Qarku i Fierit"
    },
    {
      "place_name": "Rubik",
      "postal_code": "4603",
      "country_code": "AL",
      "latitude": 41.7744,
      "longitude": 19.7861,
      "admin_name1": "Qarku i Lezhës"
    },
    {
      "place_name": "Fan",
      "postal_code": "4608",
      "country_code": "AL",
      "latitude": 41.8172,
      "longitude": 19.9109,
      "admin_name1": "Qarku i Lezhës"
    },
    {
      "place_name": "Puke",
      "postal_code": "4401",
      "country_code": "AL",
      "latitude": 42.0444,
      "longitude": 19.8997,
      "admin_name1": "Qarku i Shkodrës"
    },
    {
      "place_name": "Dobrac",
      "postal_code": "4015",
      "country_code": "AL",
      "latitude": 42.0822,
      "longitude": 19.5297,
      "admin_name1": "Qarku i Shkodrës"
    },
    {
      "place_name": "Mnele-Vig (agjent postar)",
      "postal_code": "4028",
      "country_code": "AL",
      "latitude": 41.9503,
      "longitude": 19.5545,
      "admin_name1": "Qarku i Shkodrës"
    },
    {
      "place_name": "Ksamil",
      "postal_code": "9706",
      "country_code": "AL",
      "latitude": 39.7689,
      "longitude": 19.9997,
      "admin_name1": "Qarku i Vlorës"
    },
    {
      "place_name": "Vlora-1",
      "postal_code": "9402",
      "country_code": "AL",
      "latitude": 40.4192,
      "longitude": 19.596,
      "admin_name1": "Qarku i Vlorës"
    },
    {
      "place_name": "Sllove",
      "postal_code": "8307",
      "country_code": "AL",
      "latitude": 41.8011,
      "longitude": 20.4083,
      "admin_name1": "Qarku i Dibrës"
    },
    {
      "place_name": "Baz",
      "postal_code": "8004",
      "country_code": "AL",
      "latitude": 41.6319,
      "longitude": 19.9292,
      "admin_name1": "Qarku i Dibrës"
    },
    {
      "place_name": "Karbunare e Madhe",
      "postal_code": "9008",
      "country_code": "AL",
      "latitude": 40.9275,
      "longitude": 19.7408,
      "admin_name1": "Qarku i Fierit"
    },
    {
      "place_name": "Gjirokastra 1",
      "postal_code": "6002",
      "country_code": "AL",
      "latitude": 40.0776,
      "longitude": 20.2504,
      "admin_name1": "Qarku i Gjirokastrës"
    },
    {
      "place_name": "Valare",
      "postal_code": "6013",
      "country_code": "AL",
      "latitude": 40.1256,
      "longitude": 20.1342,
      "admin_name1": "Qarku i Gjirokastrës"
    },
    {
      "place_name": "Dhoksat",
      "postal_code": "6018",
      "country_code": "AL",
      "latitude": 40.1217,
      "longitude": 20.1822,
      "admin_name1": "Qarku i Gjirokastrës"
    },
    {
      "place_name": "Libonik",
      "postal_code": "7021",
      "country_code": "AL",
      "latitude": 40.7044,
      "longitude": 20.7086,
      "admin_name1": "Qarku i Korçës"
    },
    {
      "place_name": "Cerrave",
      "postal_code": "7306",
      "country_code": "AL",
      "latitude": 40.8514,
      "longitude": 20.725,
      "admin_name1": "Qarku i Korçës"
    },
    {
      "place_name": "Dogana |Morine",
      "postal_code": "8520",
      "country_code": "AL",
      "latitude": 41.9984,
      "longitude": 20.4413,
      "admin_name1": "Qarku i Kukësit"
    },
    {
      "place_name": "Berdice",
      "postal_code": "4018",
      "country_code": "AL",
      "latitude": 42.0153,
      "longitude": 19.4817,
      "admin_name1": "Qarku i Shkodrës"
    },
    {
      "place_name": "Mjede",
      "postal_code": "4026",
      "country_code": "AL",
      "latitude": 41.9969,
      "longitude": 19.6125,
      "admin_name1": "Qarku i Shkodrës"
    },
    {
      "place_name": "Delvine",
      "postal_code": "9704",
      "country_code": "AL",
      "latitude": 39.9511,
      "longitude": 20.0978,
      "admin_name1": "Qarku i Vlorës"
    },
    {
      "place_name": "Cerkovic",
      "postal_code": "9712",
      "country_code": "AL",
      "latitude": 39.8269,
      "longitude": 20.2078,
      "admin_name1": "Qarku i Vlorës"
    },
    {
      "place_name": "Brataj",
      "postal_code": "9408",
      "country_code": "AL",
      "latitude": 40.2678,
      "longitude": 19.6692,
      "admin_name1": "Qarku i Vlorës"
    },
    {
      "place_name": "Poshnje",
      "postal_code": "5008",
      "country_code": "AL",
      "latitude": 40.7803,
      "longitude": 19.8442,
      "admin_name1": "Qarku i Beratit"
    },
    {
      "place_name": "Zyrat Postare Trebisht",
      "postal_code": "8408",
      "country_code": "AL",
      "latitude": 41.4904,
      "longitude": 20.3628,
      "admin_name1": "Qarku i Dibrës"
    },
    {
      "place_name": "Selishte",
      "postal_code": "8313",
      "country_code": "AL",
      "latitude": 41.6275,
      "longitude": 20.2792,
      "admin_name1": "Qarku i Dibrës"
    },
    {
      "place_name": "Labinot Mal",
      "postal_code": "3024",
      "country_code": "AL",
      "latitude": 40.9828,
      "longitude": 19.9932,
      "admin_name1": "Qarku i Elbasanit"
    },
    {
      "place_name": "Hotolisht",
      "postal_code": "3408",
      "country_code": "AL",
      "latitude": 41.1567,
      "longitude": 20.3972,
      "admin_name1": "Qarku i Elbasanit"
    },
    {
      "place_name": "Povelce",
      "postal_code": "9323",
      "country_code": "AL",
      "latitude": 40.7289,
      "longitude": 19.4208,
      "admin_name1": "Qarku i Fierit"
    },
    {
      "place_name": "Clirim",
      "postal_code": "7406",
      "country_code": "AL",
      "latitude": 40.4175,
      "longitude": 20.5503,
      "admin_name1": "Qarku i Korçës"
    },
    {
      "place_name": "Vishocice",
      "postal_code": "7012",
      "country_code": "AL",
      "latitude": 40.5964,
      "longitude": 20.9967,
      "admin_name1": "Qarku i Korçës"
    },
    {
      "place_name": "Dishnice",
      "postal_code": "7024",
      "country_code": "AL",
      "latitude": 40.6514,
      "longitude": 20.8136,
      "admin_name1": "Qarku i Korçës"
    },
    {
      "place_name": "Bucimas",
      "postal_code": "7304",
      "country_code": "AL",
      "latitude": 40.8914,
      "longitude": 20.6814,
      "admin_name1": "Qarku i Korçës"
    },
    {
      "place_name": "Dardhas",
      "postal_code": "7309",
      "country_code": "AL",
      "latitude": 40.8458,
      "longitude": 20.6572,
      "admin_name1": "Qarku i Korçës"
    },
    {
      "place_name": "Kukes 2",
      "postal_code": "8502",
      "country_code": "AL",
      "latitude": 42.1064,
      "longitude": 20.5053,
      "admin_name1": "Qarku i Kukësit"
    },
    {
      "place_name": "Kukes 3",
      "postal_code": "8503",
      "country_code": "AL",
      "latitude": 41.94,
      "longitude": 20.3903,
      "admin_name1": "Qarku i Kukësit"
    },
    {
      "place_name": "Shishtavec",
      "postal_code": "8517",
      "country_code": "AL",
      "latitude": 41.98,
      "longitude": 20.6058,
      "admin_name1": "Qarku i Kukësit"
    },
    {
      "place_name": "Shenkoll",
      "postal_code": "4511",
      "country_code": "AL",
      "latitude": 41.6908,
      "longitude": 19.6533,
      "admin_name1": "Qarku i Lezhës"
    },
    {
      "place_name": "Selite",
      "postal_code": "4604",
      "country_code": "AL",
      "latitude": 41.8172,
      "longitude": 19.9109,
      "admin_name1": "Qarku i Lezhës"
    },
    {
      "place_name": "Grizhe",
      "postal_code": "4303",
      "country_code": "AL",
      "latitude": 42.2667,
      "longitude": 19.4667,
      "admin_name1": "Qarku i Shkodrës"
    },
    {
      "place_name": "Tirana Kamez",
      "postal_code": "1029",
      "country_code": "AL",
      "latitude": 41.3247,
      "longitude": 19.7974,
      "admin_name1": "Tirana"
    },
    {
      "place_name": "Tirana 8/1, 33",
      "postal_code": "1020",
      "country_code": "AL",
      "latitude": 41.3247,
      "longitude": 19.7974,
      "admin_name1": "Tirana"
    },
    {
      "place_name": "Qeparo",
      "postal_code": "9416",
      "country_code": "AL",
      "latitude": 40.056,
      "longitude": 19.8269,
      "admin_name1": "Qarku i Vlorës"
    },
    {
      "place_name": "Kutalli",
      "postal_code": "5009",
      "country_code": "AL",
      "latitude": 40.7839,
      "longitude": 19.7867,
      "admin_name1": "Qarku i Beratit"
    },
    {
      "place_name": "Shijak",
      "postal_code": "2013",
      "country_code": "AL",
      "latitude": 41.3456,
      "longitude": 19.5672,
      "admin_name1": "Qarku i Durrësit"
    },
    {
      "place_name": "Katundi i Ri",
      "postal_code": "2017",
      "country_code": "AL",
      "latitude": 41.4031,
      "longitude": 19.5181,
      "admin_name1": "Qarku i Durrësit"
    },
    {
      "place_name": "Kemishtaj",
      "postal_code": "9021",
      "country_code": "AL",
      "latitude": 40.8925,
      "longitude": 19.6333,
      "admin_name1": "Qarku i Fierit"
    },
    {
      "place_name": "Proger",
      "postal_code": "7011",
      "country_code": "AL",
      "latitude": 40.6942,
      "longitude": 20.9403,
      "admin_name1": "Qarku i Korçës"
    },
    {
      "place_name": "Lumalas",
      "postal_code": "7019",
      "country_code": "AL",
      "latitude": 40.6586,
      "longitude": 20.7364,
      "admin_name1": "Qarku i Korçës"
    },
    {
      "place_name": "Pac",
      "postal_code": "8705",
      "country_code": "AL",
      "latitude": 42.2643,
      "longitude": 20.2028,
      "admin_name1": "Qarku i Kukësit"
    },
    {
      "place_name": "Ungrej",
      "postal_code": "4508",
      "country_code": "AL",
      "latitude": 41.8753,
      "longitude": 19.7947,
      "admin_name1": "Qarku i Lezhës"
    },
    {
      "place_name": "Gjegjan",
      "postal_code": "4408",
      "country_code": "AL",
      "latitude": 41.9378,
      "longitude": 20.0111,
      "admin_name1": "Qarku i Shkodrës"
    },
    {
      "place_name": "Shllak (agjent postar)",
      "postal_code": "4014",
      "country_code": "AL",
      "latitude": 42.0447,
      "longitude": 19.5028,
      "admin_name1": "Qarku i Shkodrës"
    },
    {
      "place_name": "Hajmel",
      "postal_code": "4029",
      "country_code": "AL",
      "latitude": 41.9531,
      "longitude": 19.6378,
      "admin_name1": "Qarku i Shkodrës"
    },
    {
      "place_name": "Kamez",
      "postal_code": "1030",
      "country_code": "AL",
      "latitude": 41.3817,
      "longitude": 19.7603,
      "admin_name1": "Tirana"
    },
    {
      "place_name": "Tirana 30",
      "postal_code": "1008",
      "country_code": "AL",
      "latitude": 41.3247,
      "longitude": 19.7974,
      "admin_name1": "Tirana"
    },
    {
      "place_name": "Berati 2",
      "postal_code": "5003",
      "country_code": "AL",
      "latitude": 40.7665,
      "longitude": 19.887,
      "admin_name1": "Qarku i Beratit"
    },
    {
      "place_name": "Ura Vajgurore",
      "postal_code": "5007",
      "country_code": "AL",
      "latitude": 40.7689,
      "longitude": 19.8778,
      "admin_name1": "Qarku i Beratit"
    },
    {
      "place_name": "Bejn",
      "postal_code": "8014",
      "country_code": "AL",
      "latitude": 41.5042,
      "longitude": 20.1169,
      "admin_name1": "Qarku i Dibrës"
    },
    {
      "place_name": "4 Rruget e Shijakut",
      "postal_code": "2018",
      "country_code": "AL",
      "latitude": 41.3959,
      "longitude": 19.5409,
      "admin_name1": "Qarku i Durrësit"
    },
    {
      "place_name": "Funar",
      "postal_code": "3013",
      "country_code": "AL",
      "latitude": 41.1964,
      "longitude": 20.0597,
      "admin_name1": "Qarku i Elbasanit"
    },
    {
      "place_name": "Qukes",
      "postal_code": "3407",
      "country_code": "AL",
      "latitude": 41.0933,
      "longitude": 20.4478,
      "admin_name1": "Qarku i Elbasanit"
    },
    {
      "place_name": "Aranitas",
      "postal_code": "9330",
      "country_code": "AL",
      "latitude": 40.5944,
      "longitude": 19.8067,
      "admin_name1": "Qarku i Fierit"
    },
    {
      "place_name": "Saver (agjent postar)",
      "postal_code": "9003",
      "country_code": "AL",
      "latitude": 40.8982,
      "longitude": 19.6865,
      "admin_name1": "Qarku i Fierit"
    },
    {
      "place_name": "Dushk",
      "postal_code": "9010",
      "country_code": "AL",
      "latitude": 40.9002,
      "longitude": 19.6344,
      "admin_name1": "Qarku i Fierit"
    },
    {
      "place_name": "Jorgucat",
      "postal_code": "6011",
      "country_code": "AL",
      "latitude": 39.9353,
      "longitude": 20.2636,
      "admin_name1": "Qarku i Gjirokastrës"
    },
    {
      "place_name": "Bicaj",
      "postal_code": "8504",
      "country_code": "AL",
      "latitude": 41.9947,
      "longitude": 20.4125,
      "admin_name1": "Qarku i Kukësit"
    },
    {
      "place_name": "Sanxhak",
      "postal_code": "4703",
      "country_code": "AL",
      "latitude": 41.6214,
      "longitude": 19.7161,
      "admin_name1": "Qarku i Lezhës"
    },
    {
      "place_name": "Fushe Kuqe",
      "postal_code": "4706",
      "country_code": "AL",
      "latitude": 41.6276,
      "longitude": 19.708,
      "admin_name1": "Qarku i Lezhës"
    },
    {
      "place_name": "Dajc",
      "postal_code": "4506",
      "country_code": "AL",
      "latitude": 41.9156,
      "longitude": 19.6044,
      "admin_name1": "Qarku i Lezhës"
    },
    {
      "place_name": "Bajze",
      "postal_code": "4306",
      "country_code": "AL",
      "latitude": 42.2853,
      "longitude": 19.4378,
      "admin_name1": "Qarku i Shkodrës"
    },
    {
      "place_name": "Kavaja Qender",
      "postal_code": "2501",
      "country_code": "AL",
      "latitude": 41.1443,
      "longitude": 19.6008,
      "admin_name1": "Tirana"
    },
    {
      "place_name": "Tirana 26",
      "postal_code": "1002",
      "country_code": "AL",
      "latitude": 41.3247,
      "longitude": 19.7974,
      "admin_name1": "Tirana"
    },
    {
      "place_name": "Farke",
      "postal_code": "1045",
      "country_code": "AL",
      "latitude": 41.3056,
      "longitude": 19.8669,
      "admin_name1": "Tirana"
    },
    {
      "place_name": "Berxull",
      "postal_code": "1053",
      "country_code": "AL",
      "latitude": 41.38,
      "longitude": 19.6875,
      "admin_name1": "Tirana"
    },
    {
      "place_name": "Markat",
      "postal_code": "9708",
      "country_code": "AL",
      "latitude": 39.7328,
      "longitude": 20.1953,
      "admin_name1": "Qarku i Vlorës"
    },
    {
      "place_name": "Kucove 4",
      "postal_code": "5304",
      "country_code": "AL",
      "latitude": 40.8101,
      "longitude": 19.9075,
      "admin_name1": "Qarku i Beratit"
    },
    {
      "place_name": "Rec",
      "postal_code": "8310",
      "country_code": "AL",
      "latitude": 41.8761,
      "longitude": 20.32,
      "admin_name1": "Qarku i Dibrës"
    },
    {
      "place_name": "Lis",
      "postal_code": "8009",
      "country_code": "AL",
      "latitude": 41.6275,
      "longitude": 20.0853,
      "admin_name1": "Qarku i Dibrës"
    },
    {
      "place_name": "Allkaj",
      "postal_code": "9005",
      "country_code": "AL",
      "latitude": 40.8575,
      "longitude": 19.7553,
      "admin_name1": "Qarku i Fierit"
    },
    {
      "place_name": "Hysgjokaj",
      "postal_code": "9009",
      "country_code": "AL",
      "latitude": 40.9717,
      "longitude": 19.7897,
      "admin_name1": "Qarku i Fierit"
    },
    {
      "place_name": "Lazarat",
      "postal_code": "6004",
      "country_code": "AL",
      "latitude": 40.0467,
      "longitude": 20.1475,
      "admin_name1": "Qarku i Gjirokastrës"
    },
    {
      "place_name": "Polican",
      "postal_code": "6007",
      "country_code": "AL",
      "latitude": 40.13,
      "longitude": 20.3503,
      "admin_name1": "Qarku i Gjirokastrës"
    },
    {
      "place_name": "Labove",
      "postal_code": "6015",
      "country_code": "AL",
      "latitude": 40.0905,
      "longitude": 20.1925,
      "admin_name1": "Qarku i Gjirokastrës"
    },
    {
      "place_name": "Korca 1",
      "postal_code": "7002",
      "country_code": "AL",
      "latitude": 40.5884,
      "longitude": 20.942,
      "admin_name1": "Qarku i Korçës"
    },
    {
      "place_name": "Fitore",
      "postal_code": "7010",
      "country_code": "AL",
      "latitude": 40.5533,
      "longitude": 20.9522,
      "admin_name1": "Qarku i Korçës"
    },
    {
      "place_name": "Bulgarec",
      "postal_code": "7013",
      "country_code": "AL",
      "latitude": 40.663,
      "longitude": 20.7943,
      "admin_name1": "Qarku i Korçës"
    },
    {
      "place_name": "Velçan",
      "postal_code": "7310",
      "country_code": "AL",
      "latitude": 40.9547,
      "longitude": 20.4622,
      "admin_name1": "Qarku i Korçës"
    },
    {
      "place_name": "Krume 1",
      "postal_code": "8602",
      "country_code": "AL",
      "latitude": 42.1775,
      "longitude": 20.389,
      "admin_name1": "Qarku i Kukësit"
    },
    {
      "place_name": "Pult (agjent postar)",
      "postal_code": "4010",
      "country_code": "AL",
      "latitude": 42.0447,
      "longitude": 19.5028,
      "admin_name1": "Qarku i Shkodrës"
    },
    {
      "place_name": "Mes",
      "postal_code": "4012",
      "country_code": "AL",
      "latitude": 42.1053,
      "longitude": 19.5708,
      "admin_name1": "Qarku i Shkodrës"
    },
    {
      "place_name": "Tranzit",
      "postal_code": "1700",
      "country_code": "AL",
      "latitude": 41.3275,
      "longitude": 19.8189,
      "admin_name1": "Tirana"
    },
    {
      "place_name": "Mesapotam",
      "postal_code": "9717",
      "country_code": "AL",
      "latitude": 39.9328,
      "longitude": 20.0314,
      "admin_name1": "Qarku i Vlorës"
    },
    {
      "place_name": "Vergo",
      "postal_code": "9720",
      "country_code": "AL",
      "latitude": 40.0067,
      "longitude": 20.0089,
      "admin_name1": "Qarku i Vlorës"
    },
    {
      "place_name": "Qender Berat",
      "postal_code": "5001",
      "country_code": "AL",
      "latitude": 40.7328,
      "longitude": 20.0394,
      "admin_name1": "Qarku i Beratit"
    },
    {
      "place_name": "Berati 1",
      "postal_code": "5002",
      "country_code": "AL",
      "latitude": 40.7665,
      "longitude": 19.887,
      "admin_name1": "Qarku i Beratit"
    },
    {
      "place_name": "Polican 1",
      "postal_code": "5403",
      "country_code": "AL",
      "latitude": 40.5594,
      "longitude": 19.9522,
      "admin_name1": "Qarku i Beratit"
    },
    {
      "place_name": "Macukull",
      "postal_code": "8011",
      "country_code": "AL",
      "latitude": 41.6886,
      "longitude": 20.1103,
      "admin_name1": "Qarku i Dibrës"
    },
    {
      "place_name": "Belsh",
      "postal_code": "3008",
      "country_code": "AL",
      "latitude": 40.975,
      "longitude": 19.8819,
      "admin_name1": "Qarku i Elbasanit"
    },
    {
      "place_name": "Paper",
      "postal_code": "3016",
      "country_code": "AL",
      "latitude": 41.0517,
      "longitude": 19.9608,
      "admin_name1": "Qarku i Elbasanit"
    },
    {
      "place_name": "Komune Qender",
      "postal_code": "3411",
      "country_code": "AL",
      "latitude": 41.1811,
      "longitude": 20.4363,
      "admin_name1": "Qarku i Elbasanit"
    },
    {
      "place_name": "Frakull",
      "postal_code": "9313",
      "country_code": "AL",
      "latitude": 40.7099,
      "longitude": 19.6388,
      "admin_name1": "Qarku i Fierit"
    },
    {
      "place_name": "Suk",
      "postal_code": "9320",
      "country_code": "AL",
      "latitude": 40.6457,
      "longitude": 19.6338,
      "admin_name1": "Qarku i Fierit"
    },
    {
      "place_name": "Remas",
      "postal_code": "9004",
      "country_code": "AL",
      "latitude": 40.8864,
      "longitude": 19.5114,
      "admin_name1": "Qarku i Fierit"
    },
    {
      "place_name": "Zvarisht",
      "postal_code": "7027",
      "country_code": "AL",
      "latitude": 40.7236,
      "longitude": 20.565,
      "admin_name1": "Qarku i Korçës"
    },
    {
      "place_name": "Vreshtas",
      "postal_code": "7028",
      "country_code": "AL",
      "latitude": 40.7969,
      "longitude": 20.7769,
      "admin_name1": "Qarku i Korçës"
    },
    {
      "place_name": "Rreshen",
      "postal_code": "4601",
      "country_code": "AL",
      "latitude": 41.7675,
      "longitude": 19.8756,
      "admin_name1": "Qarku i Lezhës"
    },
    {
      "place_name": "Bathore",
      "postal_code": "1054",
      "country_code": "AL",
      "latitude": 41.3778,
      "longitude": 19.7617,
      "admin_name1": "Tirana"
    },
    {
      "place_name": "Petrele",
      "postal_code": "1034",
      "country_code": "AL",
      "latitude": 41.2531,
      "longitude": 19.8531,
      "admin_name1": "Tirana"
    },
    {
      "place_name": "Vlora-2",
      "postal_code": "9403",
      "country_code": "AL",
      "latitude": 40.4192,
      "longitude": 19.596,
      "admin_name1": "Qarku i Vlorës"
    },
    {
      "place_name": "Ramice",
      "postal_code": "9415",
      "country_code": "AL",
      "latitude": 40.3069,
      "longitude": 19.6972,
      "admin_name1": "Qarku i Vlorës"
    },
    {
      "place_name": "Gjorm",
      "postal_code": "9421",
      "country_code": "AL",
      "latitude": 40.3164,
      "longitude": 19.6442,
      "admin_name1": "Qarku i Vlorës"
    },
    {
      "place_name": "Velabisht",
      "postal_code": "5012",
      "country_code": "AL",
      "latitude": 40.7017,
      "longitude": 19.9322,
      "admin_name1": "Qarku i Beratit"
    },
    {
      "place_name": "Gjorice",
      "postal_code": "8407",
      "country_code": "AL",
      "latitude": 41.5344,
      "longitude": 20.45,
      "admin_name1": "Qarku i Dibrës"
    },
    {
      "place_name": "Rrajce",
      "postal_code": "3405",
      "country_code": "AL",
      "latitude": 41.0903,
      "longitude": 20.5764,
      "admin_name1": "Qarku i Elbasanit"
    },
    {
      "place_name": "Ura e Kardhiqit",
      "postal_code": "6014",
      "country_code": "AL",
      "latitude": 40.0905,
      "longitude": 20.1925,
      "admin_name1": "Qarku i Gjirokastrës"
    },
    {
      "place_name": "Vithkuq",
      "postal_code": "7025",
      "country_code": "AL",
      "latitude": 40.525,
      "longitude": 20.5825,
      "admin_name1": "Qarku i Korçës"
    },
    {
      "place_name": "Fajza",
      "postal_code": "8604",
      "country_code": "AL",
      "latitude": 42.1669,
      "longitude": 20.3508,
      "admin_name1": "Qarku i Kukësit"
    },
    {
      "place_name": "Novosej",
      "postal_code": "8518",
      "country_code": "AL",
      "latitude": 41.9828,
      "longitude": 20.5881,
      "admin_name1": "Qarku i Kukësit"
    },
    {
      "place_name": "Tirana 22",
      "postal_code": "1006",
      "country_code": "AL",
      "latitude": 41.3247,
      "longitude": 19.7974,
      "admin_name1": "Tirana"
    },
    {
      "place_name": "Tirana 8/2",
      "postal_code": "1021",
      "country_code": "AL",
      "latitude": 41.3247,
      "longitude": 19.7974,
      "admin_name1": "Tirana"
    },
    {
      "place_name": "Saranda 1",
      "postal_code": "9702",
      "country_code": "AL",
      "latitude": 39.7592,
      "longitude": 20.1144,
      "admin_name1": "Qarku i Vlorës"
    },
    {
      "place_name": "Sinje",
      "postal_code": "5011",
      "country_code": "AL",
      "latitude": 40.6468,
      "longitude": 19.8692,
      "admin_name1": "Qarku i Beratit"
    },
    {
      "place_name": "Ostren",
      "postal_code": "8405",
      "country_code": "AL",
      "latitude": 41.4308,
      "longitude": 20.4556,
      "admin_name1": "Qarku i Dibrës"
    },
    {
      "place_name": "Durresi 4",
      "postal_code": "2005",
      "country_code": "AL",
      "latitude": 41.3239,
      "longitude": 19.467,
      "admin_name1": "Qarku i Durrësit"
    },
    {
      "place_name": "Gracen",
      "postal_code": "3012",
      "country_code": "AL",
      "latitude": 41.1519,
      "longitude": 19.9636,
      "admin_name1": "Qarku i Elbasanit"
    },
    {
      "place_name": "Fier 3",
      "postal_code": "9304",
      "country_code": "AL",
      "latitude": 40.7334,
      "longitude": 19.5954,
      "admin_name1": "Qarku i Fierit"
    },
    {
      "place_name": "Deremenas",
      "postal_code": "9309",
      "country_code": "AL",
      "latitude": 40.7456,
      "longitude": 19.4939,
      "admin_name1": "Qarku i Fierit"
    },
    {
      "place_name": "Libohove",
      "postal_code": "6003",
      "country_code": "AL",
      "latitude": 40.0311,
      "longitude": 20.2631,
      "admin_name1": "Qarku i Gjirokastrës"
    },
    {
      "place_name": "Mollaj",
      "postal_code": "7017",
      "country_code": "AL",
      "latitude": 40.5603,
      "longitude": 20.7403,
      "admin_name1": "Qarku i Korçës"
    },
    {
      "place_name": "Gjinaj",
      "postal_code": "8605",
      "country_code": "AL",
      "latitude": 42.1181,
      "longitude": 20.4358,
      "admin_name1": "Qarku i Kukësit"
    },
    {
      "place_name": "Lekbibaj",
      "postal_code": "8706",
      "country_code": "AL",
      "latitude": 42.2947,
      "longitude": 19.9317,
      "admin_name1": "Qarku i Kukësit"
    },
    {
      "place_name": "Lezhe 1/Pensionet",
      "postal_code": "4502",
      "country_code": "AL",
      "latitude": 41.8372,
      "longitude": 19.6563,
      "admin_name1": "Qarku i Lezhës"
    },
    {
      "place_name": "Fushe-Arrez",
      "postal_code": "4402",
      "country_code": "AL",
      "latitude": 42.0622,
      "longitude": 20.0167,
      "admin_name1": "Qarku i Shkodrës"
    },
    {
      "place_name": "Kavaja 1",
      "postal_code": "2502",
      "country_code": "AL",
      "latitude": 41.1443,
      "longitude": 19.6008,
      "admin_name1": "Tirana"
    },
    {
      "place_name": "Vaqarr",
      "postal_code": "1041",
      "country_code": "AL",
      "latitude": 41.2992,
      "longitude": 19.7442,
      "admin_name1": "Tirana"
    },
    {
      "place_name": "Krrabe",
      "postal_code": "1049",
      "country_code": "AL",
      "latitude": 41.2156,
      "longitude": 19.9714,
      "admin_name1": "Tirana"
    },
    {
      "place_name": "Skele-Vlore",
      "postal_code": "9404",
      "country_code": "AL",
      "latitude": 40.4192,
      "longitude": 19.596,
      "admin_name1": "Qarku i Vlorës"
    },
    {
      "place_name": "Vllahine",
      "postal_code": "9412",
      "country_code": "AL",
      "latitude": 40.4569,
      "longitude": 19.6436,
      "admin_name1": "Qarku i Vlorës"
    },
    {
      "place_name": "Fushe-Bulqize",
      "postal_code": "8409",
      "country_code": "AL",
      "latitude": 41.5219,
      "longitude": 20.2822,
      "admin_name1": "Qarku i Dibrës"
    },
    {
      "place_name": "Melan",
      "postal_code": "8303",
      "country_code": "AL",
      "latitude": 41.6542,
      "longitude": 20.4653,
      "admin_name1": "Qarku i Dibrës"
    },
    {
      "place_name": "Zalle - Dardhe",
      "postal_code": "8309",
      "country_code": "AL",
      "latitude": 41.7177,
      "longitude": 20.4232,
      "admin_name1": "Qarku i Dibrës"
    },
    {
      "place_name": "Luzni",
      "postal_code": "8314",
      "country_code": "AL",
      "latitude": 41.6508,
      "longitude": 20.3674,
      "admin_name1": "Qarku i Dibrës"
    },
    {
      "place_name": "Xiber",
      "postal_code": "8008",
      "country_code": "AL",
      "latitude": 41.4547,
      "longitude": 20.0256,
      "admin_name1": "Qarku i Dibrës"
    },
    {
      "place_name": "Portez",
      "postal_code": "9318",
      "country_code": "AL",
      "latitude": 40.6992,
      "longitude": 19.5744,
      "admin_name1": "Qarku i Fierit"
    },
    {
      "place_name": "Moglice",
      "postal_code": "7018",
      "country_code": "AL",
      "latitude": 40.7075,
      "longitude": 20.3947,
      "admin_name1": "Qarku i Korçës"
    },
    {
      "place_name": "Voskop",
      "postal_code": "7026",
      "country_code": "AL",
      "latitude": 40.6119,
      "longitude": 20.6903,
      "admin_name1": "Qarku i Korçës"
    },
    {
      "place_name": "Gruemire",
      "postal_code": "4302",
      "country_code": "AL",
      "latitude": 42.2008,
      "longitude": 19.4792,
      "admin_name1": "Qarku i Shkodrës"
    },
    {
      "place_name": "Lekaj",
      "postal_code": "2507",
      "country_code": "AL",
      "latitude": 41.1144,
      "longitude": 19.6097,
      "admin_name1": "Tirana"
    },
    {
      "place_name": "Sinaballaj",
      "postal_code": "2511",
      "country_code": "AL",
      "latitude": 41.0689,
      "longitude": 19.6994,
      "admin_name1": "Tirana"
    },
    {
      "place_name": "EMS",
      "postal_code": "1800",
      "country_code": "AL",
      "latitude": 41.3275,
      "longitude": 19.8189,
      "admin_name1": "Tirana"
    },
    {
      "place_name": "Konispol",
      "postal_code": "9705",
      "country_code": "AL",
      "latitude": 39.6589,
      "longitude": 20.1814,
      "admin_name1": "Qarku i Vlorës"
    },
    {
      "place_name": "Aliko",
      "postal_code": "9710",
      "country_code": "AL",
      "latitude": 39.8586,
      "longitude": 20.0792,
      "admin_name1": "Qarku i Vlorës"
    },
    {
      "place_name": "Lukove",
      "postal_code": "9713",
      "country_code": "AL",
      "latitude": 39.9922,
      "longitude": 19.9139,
      "admin_name1": "Qarku i Vlorës"
    },
    {
      "place_name": "Trevllazer",
      "postal_code": "9420",
      "country_code": "AL",
      "latitude": 40.5786,
      "longitude": 19.5095,
      "admin_name1": "Qarku i Vlorës"
    },
    {
      "place_name": "Orikum",
      "postal_code": "9426",
      "country_code": "AL",
      "latitude": 40.3253,
      "longitude": 19.4714,
      "admin_name1": "Qarku i Vlorës"
    },
    {
      "place_name": "Kucove 3",
      "postal_code": "5303",
      "country_code": "AL",
      "latitude": 40.8101,
      "longitude": 19.9075,
      "admin_name1": "Qarku i Beratit"
    },
    {
      "place_name": "Elbasan 4",
      "postal_code": "3004",
      "country_code": "AL",
      "latitude": 41.0433,
      "longitude": 19.9515,
      "admin_name1": "Qarku i Elbasanit"
    },
    {
      "place_name": "Fier Qender",
      "postal_code": "9301",
      "country_code": "AL",
      "latitude": 40.7334,
      "longitude": 19.5954,
      "admin_name1": "Qarku i Fierit"
    },
    {
      "place_name": "Fier 4",
      "postal_code": "9305",
      "country_code": "AL",
      "latitude": 40.7334,
      "longitude": 19.5954,
      "admin_name1": "Qarku i Fierit"
    },
    {
      "place_name": "Ngjeqar",
      "postal_code": "9321",
      "country_code": "AL",
      "latitude": 40.6733,
      "longitude": 19.79,
      "admin_name1": "Qarku i Fierit"
    },
    {
      "place_name": "Qender Ersek",
      "postal_code": "7401",
      "country_code": "AL",
      "latitude": 40.364,
      "longitude": 20.6085,
      "admin_name1": "Qarku i Korçës"
    },
    {
      "place_name": "Kacinar",
      "postal_code": "4607",
      "country_code": "AL",
      "latitude": 41.8933,
      "longitude": 19.8986,
      "admin_name1": "Qarku i Lezhës"
    },
    {
      "place_name": "Vau i Dejes",
      "postal_code": "4008",
      "country_code": "AL",
      "latitude": 42.01,
      "longitude": 19.6247,
      "admin_name1": "Qarku i Shkodrës"
    },
    {
      "place_name": "Tirana Kamez Institut",
      "postal_code": "1029",
      "country_code": "AL",
      "latitude": 41.3247,
      "longitude": 19.7974,
      "admin_name1": "Tirana"
    }
  ]
]