[
  [
    {
      "place_name": "Ellreching",
      "postal_code": "4984",
      "country_code": "AT",
      "latitude": 48.2829,
      "longitude": 13.3613,
      "admin_name1": "Oberösterreich"
    },
    {
      "place_name": "Unterfeuchtenbach",
      "postal_code": "4120",
      "country_code": "AT",
      "latitude": 48.5007,
      "longitude": 13.9802,
      "admin_name1": "Oberösterreich"
    },
    {
      "place_name": "Oberfeuchtenbach",
      "postal_code": "4120",
      "country_code": "AT",
      "latitude": 48.5048,
      "longitude": 13.9949,
      "admin_name1": "Oberösterreich"
    },
    {
      "place_name": "Mairhof",
      "postal_code": "4121",
      "country_code": "AT",
      "latitude": 48.5007,
      "longitude": 13.9802,
      "admin_name1": "Oberösterreich"
    },
    {
      "place_name": "Römersdorf",
      "postal_code": "4132",
      "country_code": "AT",
      "latitude": 48.4912,
      "longitude": 13.8841,
      "admin_name1": "Oberösterreich"
    },
    {
      "place_name": "Lampersdorf",
      "postal_code": "4133",
      "country_code": "AT",
      "latitude": 48.4759,
      "longitude": 13.9056,
      "admin_name1": "Oberösterreich"
    },
    {
      "place_name": "Kaindlsdorf",
      "postal_code": "4133",
      "country_code": "AT",
      "latitude": 48.4826,
      "longitude": 13.8867,
      "admin_name1": "Oberösterreich"
    },
    {
      "place_name": "Wernersdorf",
      "postal_code": "4141",
      "country_code": "AT",
      "latitude": 48.5292,
      "longitude": 13.7894,
      "admin_name1": "Oberösterreich"
    },
    {
      "place_name": "Waldhäusl",
      "postal_code": "4141",
      "country_code": "AT",
      "latitude": 48.5227,
      "longitude": 13.793,
      "admin_name1": "Oberösterreich"
    },
    {
      "place_name": "Wehrbach",
      "postal_code": "4141",
      "country_code": "AT",
      "latitude": 48.5047,
      "longitude": 13.8044,
      "admin_name1": "Oberösterreich"
    },
    {
      "place_name": "Hundsfülling",
      "postal_code": "4142",
      "country_code": "AT",
      "latitude": 48.5227,
      "longitude": 13.793,
      "admin_name1": "Oberösterreich"
    },
    {
      "place_name": "Gerastorf",
      "postal_code": "4142",
      "country_code": "AT",
      "latitude": 48.4997,
      "longitude": 13.7925,
      "admin_name1": "Oberösterreich"
    },
    {
      "place_name": "Kaffring",
      "postal_code": "4144",
      "country_code": "AT",
      "latitude": 48.5633,
      "longitude": 13.8205,
      "admin_name1": "Oberösterreich"
    },
    {
      "place_name": "Dobretshofen",
      "postal_code": "4150",
      "country_code": "AT",
      "latitude": 48.5821,
      "longitude": 13.9042,
      "admin_name1": "Oberösterreich"
    },
    {
      "place_name": "Gumpenmühle",
      "postal_code": "4151",
      "country_code": "AT",
      "latitude": 48.5821,
      "longitude": 13.9042,
      "admin_name1": "Oberösterreich"
    },
    {
      "place_name": "Unternreith",
      "postal_code": "4152",
      "country_code": "AT",
      "latitude": 48.5252,
      "longitude": 13.9187,
      "admin_name1": "Oberösterreich"
    },
    {
      "place_name": "Poppen",
      "postal_code": "4152",
      "country_code": "AT",
      "latitude": 48.5536,
      "longitude": 13.8795,
      "admin_name1": "Oberösterreich"
    },
    {
      "place_name": "Leiten",
      "postal_code": "4152",
      "country_code": "AT",
      "latitude": 48.5733,
      "longitude": 13.8578,
      "admin_name1": "Oberösterreich"
    },
    {
      "place_name": "Krondorf",
      "postal_code": "4152",
      "country_code": "AT",
      "latitude": 48.5198,
      "longitude": 13.9398,
      "admin_name1": "Oberösterreich"
    },
    {
      "place_name": "Schwand",
      "postal_code": "4152",
      "country_code": "AT",
      "latitude": 48.5821,
      "longitude": 13.9042,
      "admin_name1": "Oberösterreich"
    },
    {
      "place_name": "Weißgraben",
      "postal_code": "4152",
      "country_code": "AT",
      "latitude": 48.5821,
      "longitude": 13.9042,
      "admin_name1": "Oberösterreich"
    },
    {
      "place_name": "Oberpeilstein",
      "postal_code": "4153",
      "country_code": "AT",
      "latitude": 48.5821,
      "longitude": 13.9042,
      "admin_name1": "Oberösterreich"
    },
    {
      "place_name": "Peilstein im Mühlviertel",
      "postal_code": "4153",
      "country_code": "AT",
      "latitude": 48.6174,
      "longitude": 13.8951,
      "admin_name1": "Oberösterreich"
    },
    {
      "place_name": "Vorderschlag",
      "postal_code": "4153",
      "country_code": "AT",
      "latitude": 48.6411,
      "longitude": 13.8963,
      "admin_name1": "Oberösterreich"
    },
    {
      "place_name": "Schwarzenberg am Böhmerwald",
      "postal_code": "4164",
      "country_code": "AT",
      "latitude": 48.7375,
      "longitude": 13.8343,
      "admin_name1": "Oberösterreich"
    },
    {
      "place_name": "Nößlbach",
      "postal_code": "4170",
      "country_code": "AT",
      "latitude": 48.5667,
      "longitude": 14.0333,
      "admin_name1": "Oberösterreich"
    },
    {
      "place_name": "Obereben",
      "postal_code": "4170",
      "country_code": "AT",
      "latitude": 48.499,
      "longitude": 14.1021,
      "admin_name1": "Oberösterreich"
    },
    {
      "place_name": "Felberau",
      "postal_code": "4170",
      "country_code": "AT",
      "latitude": 48.499,
      "longitude": 14.1021,
      "admin_name1": "Oberösterreich"
    },
    {
      "place_name": "Sichersdorf",
      "postal_code": "4172",
      "country_code": "AT",
      "latitude": 48.4813,
      "longitude": 14.1034,
      "admin_name1": "Oberösterreich"
    },
    {
      "place_name": "Waldkirchen",
      "postal_code": "4085",
      "country_code": "AT",
      "latitude": 48.4406,
      "longitude": 13.8217,
      "admin_name1": "Oberösterreich"
    },
    {
      "place_name": "Voredt",
      "postal_code": "4085",
      "country_code": "AT",
      "latitude": 48.402,
      "longitude": 13.9106,
      "admin_name1": "Oberösterreich"
    },
    {
      "place_name": "Esternberg",
      "postal_code": "4092",
      "country_code": "AT",
      "latitude": 48.5433,
      "longitude": 13.5708,
      "admin_name1": "Oberösterreich"
    },
    {
      "place_name": "Obergriesbach",
      "postal_code": "4755",
      "country_code": "AT",
      "latitude": 48.3333,
      "longitude": 13.5833,
      "admin_name1": "Oberösterreich"
    },
    {
      "place_name": "Tischling",
      "postal_code": "4755",
      "country_code": "AT",
      "latitude": 48.2831,
      "longitude": 13.5935,
      "admin_name1": "Oberösterreich"
    },
    {
      "place_name": "Hub",
      "postal_code": "4755",
      "country_code": "AT",
      "latitude": 48.2831,
      "longitude": 13.5935,
      "admin_name1": "Oberösterreich"
    },
    {
      "place_name": "Rackersedt",
      "postal_code": "4760",
      "country_code": "AT",
      "latitude": 48.3699,
      "longitude": 13.6595,
      "admin_name1": "Oberösterreich"
    },
    {
      "place_name": "Unterpramau",
      "postal_code": "4775",
      "country_code": "AT",
      "latitude": 48.3799,
      "longitude": 13.532,
      "admin_name1": "Oberösterreich"
    },
    {
      "place_name": "Wimm",
      "postal_code": "4775",
      "country_code": "AT",
      "latitude": 48.4051,
      "longitude": 13.5351,
      "admin_name1": "Oberösterreich"
    },
    {
      "place_name": "Gmeinau",
      "postal_code": "4775",
      "country_code": "AT",
      "latitude": 48.3799,
      "longitude": 13.532,
      "admin_name1": "Oberösterreich"
    },
    {
      "place_name": "Entholz",
      "postal_code": "4784",
      "country_code": "AT",
      "latitude": 48.507,
      "longitude": 13.4839,
      "admin_name1": "Oberösterreich"
    },
    {
      "place_name": "Kapfham",
      "postal_code": "4791",
      "country_code": "AT",
      "latitude": 48.4652,
      "longitude": 13.614,
      "admin_name1": "Oberösterreich"
    },
    {
      "place_name": "Kopfing im Innkreis",
      "postal_code": "4794",
      "country_code": "AT",
      "latitude": 48.4399,
      "longitude": 13.6584,
      "admin_name1": "Oberösterreich"
    },
    {
      "place_name": "Roßbach",
      "postal_code": "4975",
      "country_code": "AT",
      "latitude": 48.4182,
      "longitude": 13.4522,
      "admin_name1": "Oberösterreich"
    },
    {
      "place_name": "Garsten Nord",
      "postal_code": "4400",
      "country_code": "AT",
      "latitude": 48.0453,
      "longitude": 14.4133,
      "admin_name1": "Oberösterreich"
    },
    {
      "place_name": "Kleinraming",
      "postal_code": "4442",
      "country_code": "AT",
      "latitude": 48.0,
      "longitude": 14.4833,
      "admin_name1": "Oberösterreich"
    },
    {
      "place_name": "Neustiftgraben",
      "postal_code": "4443",
      "country_code": "AT",
      "latitude": 47.9942,
      "longitude": 14.5178,
      "admin_name1": "Oberösterreich"
    },
    {
      "place_name": "Laussa",
      "postal_code": "4463",
      "country_code": "AT",
      "latitude": 47.95,
      "longitude": 14.45,
      "admin_name1": "Oberösterreich"
    },
    {
      "place_name": "Brunnbach",
      "postal_code": "4463",
      "country_code": "AT",
      "latitude": 47.8333,
      "longitude": 14.5,
      "admin_name1": "Oberösterreich"
    },
    {
      "place_name": "Thanstetten",
      "postal_code": "4521",
      "country_code": "AT",
      "latitude": 48.0625,
      "longitude": 14.2798,
      "admin_name1": "Oberösterreich"
    },
    {
      "place_name": "Mühlgrub",
      "postal_code": "4540",
      "country_code": "AT",
      "latitude": 48.0333,
      "longitude": 14.2,
      "admin_name1": "Oberösterreich"
    },
    {
      "place_name": "Adlwang",
      "postal_code": "4541",
      "country_code": "AT",
      "latitude": 47.9924,
      "longitude": 14.2174,
      "admin_name1": "Oberösterreich"
    },
    {
      "place_name": "Rosenleiten",
      "postal_code": "4101",
      "country_code": "AT",
      "latitude": 48.3554,
      "longitude": 14.0784,
      "admin_name1": "Oberösterreich"
    },
    {
      "place_name": "Oberwallsee",
      "postal_code": "4101",
      "country_code": "AT",
      "latitude": 48.3507,
      "longitude": 14.1056,
      "admin_name1": "Oberösterreich"
    },
    {
      "place_name": "Hofing",
      "postal_code": "4175",
      "country_code": "AT",
      "latitude": 48.4294,
      "longitude": 14.1842,
      "admin_name1": "Oberösterreich"
    },
    {
      "place_name": "Brunnwald",
      "postal_code": "4190",
      "country_code": "AT",
      "latitude": 48.5355,
      "longitude": 14.3062,
      "admin_name1": "Oberösterreich"
    },
    {
      "place_name": "Lichtenstein",
      "postal_code": "4192",
      "country_code": "AT",
      "latitude": 48.5355,
      "longitude": 14.3062,
      "admin_name1": "Oberösterreich"
    },
    {
      "place_name": "Miesenbach",
      "postal_code": "4193",
      "country_code": "AT",
      "latitude": 48.5456,
      "longitude": 14.3511,
      "admin_name1": "Oberösterreich"
    },
    {
      "place_name": "Kammerschlag",
      "postal_code": "4201",
      "country_code": "AT",
      "latitude": 48.3904,
      "longitude": 14.2475,
      "admin_name1": "Oberösterreich"
    },
    {
      "place_name": "Maierleiten",
      "postal_code": "4201",
      "country_code": "AT",
      "latitude": 48.3703,
      "longitude": 14.1556,
      "admin_name1": "Oberösterreich"
    },
    {
      "place_name": "Weberndorf",
      "postal_code": "4202",
      "country_code": "AT",
      "latitude": 48.3959,
      "longitude": 14.3026,
      "admin_name1": "Oberösterreich"
    },
    {
      "place_name": "Haslach",
      "postal_code": "4203",
      "country_code": "AT",
      "latitude": 48.3959,
      "longitude": 14.3026,
      "admin_name1": "Oberösterreich"
    },
    {
      "place_name": "Altenbergerstraße",
      "postal_code": "4204",
      "country_code": "AT",
      "latitude": 48.3959,
      "longitude": 14.3026,
      "admin_name1": "Oberösterreich"
    },
    {
      "place_name": "Holzwiesen",
      "postal_code": "4209",
      "country_code": "AT",
      "latitude": 48.3959,
      "longitude": 14.3026,
      "admin_name1": "Oberösterreich"
    },
    {
      "place_name": "Grasbach",
      "postal_code": "4210",
      "country_code": "AT",
      "latitude": 48.3766,
      "longitude": 14.4174,
      "admin_name1": "Oberösterreich"
    },
    {
      "place_name": "Greifenberg",
      "postal_code": "4211",
      "country_code": "AT",
      "latitude": 48.3875,
      "longitude": 14.4587,
      "admin_name1": "Oberösterreich"
    },
    {
      "place_name": "Weikersdorf",
      "postal_code": "4211",
      "country_code": "AT",
      "latitude": 48.4064,
      "longitude": 14.4431,
      "admin_name1": "Oberösterreich"
    },
    {
      "place_name": "Winkl",
      "postal_code": "4690",
      "country_code": "AT",
      "latitude": 48.0446,
      "longitude": 13.7748,
      "admin_name1": "Oberösterreich"
    },
    {
      "place_name": "Philippsberg",
      "postal_code": "4690",
      "country_code": "AT",
      "latitude": 48.0446,
      "longitude": 13.7748,
      "admin_name1": "Oberösterreich"
    },
    {
      "place_name": "Apeding",
      "postal_code": "4691",
      "country_code": "AT",
      "latitude": 48.0446,
      "longitude": 13.7748,
      "admin_name1": "Oberösterreich"
    },
    {
      "place_name": "Penetzdorf",
      "postal_code": "4692",
      "country_code": "AT",
      "latitude": 48.0446,
      "longitude": 13.7748,
      "admin_name1": "Oberösterreich"
    },
    {
      "place_name": "Traunwang",
      "postal_code": "4693",
      "country_code": "AT",
      "latitude": 48.0446,
      "longitude": 13.7748,
      "admin_name1": "Oberösterreich"
    },
    {
      "place_name": "Aham",
      "postal_code": "4800",
      "country_code": "AT",
      "latitude": 47.893,
      "longitude": 13.7458,
      "admin_name1": "Oberösterreich"
    },
    {
      "place_name": "Heuweg",
      "postal_code": "4841",
      "country_code": "AT",
      "latitude": 48.0321,
      "longitude": 13.6385,
      "admin_name1": "Oberösterreich"
    },
    {
      "place_name": "Unterleim",
      "postal_code": "4841",
      "country_code": "AT",
      "latitude": 48.0321,
      "longitude": 13.6385,
      "admin_name1": "Oberösterreich"
    },
    {
      "place_name": "Ungenach",
      "postal_code": "4841",
      "country_code": "AT",
      "latitude": 48.05,
      "longitude": 13.6167,
      "admin_name1": "Oberösterreich"
    },
    {
      "place_name": "Zell am Pettenfirst",
      "postal_code": "4842",
      "country_code": "AT",
      "latitude": 48.0667,
      "longitude": 13.5833,
      "admin_name1": "Oberösterreich"
    },
    {
      "place_name": "Roith",
      "postal_code": "4842",
      "country_code": "AT",
      "latitude": 48.0321,
      "longitude": 13.6385,
      "admin_name1": "Oberösterreich"
    },
    {
      "place_name": "Geidenberg",
      "postal_code": "4844",
      "country_code": "AT",
      "latitude": 48.0321,
      "longitude": 13.6385,
      "admin_name1": "Oberösterreich"
    },
    {
      "place_name": "Alm",
      "postal_code": "4845",
      "country_code": "AT",
      "latitude": 48.0321,
      "longitude": 13.6385,
      "admin_name1": "Oberösterreich"
    },
    {
      "place_name": "Gewerbepark Ost",
      "postal_code": "4846",
      "country_code": "AT",
      "latitude": 48.0321,
      "longitude": 13.6385,
      "admin_name1": "Oberösterreich"
    },
    {
      "place_name": "Unterachmann",
      "postal_code": "4860",
      "country_code": "AT",
      "latitude": 47.9616,
      "longitude": 13.6103,
      "admin_name1": "Oberösterreich"
    },
    {
      "place_name": "Burgstall",
      "postal_code": "4860",
      "country_code": "AT",
      "latitude": 47.9127,
      "longitude": 13.5602,
      "admin_name1": "Oberösterreich"
    },
    {
      "place_name": "Aurach am Hongar",
      "postal_code": "4861",
      "country_code": "AT",
      "latitude": 47.9518,
      "longitude": 13.6729,
      "admin_name1": "Oberösterreich"
    },
    {
      "place_name": "Dorf",
      "postal_code": "4871",
      "country_code": "AT",
      "latitude": 48.0497,
      "longitude": 13.4929,
      "admin_name1": "Oberösterreich"
    },
    {
      "place_name": "Halt",
      "postal_code": "4873",
      "country_code": "AT",
      "latitude": 48.0497,
      "longitude": 13.4929,
      "admin_name1": "Oberösterreich"
    },
    {
      "place_name": "Otzigen",
      "postal_code": "4873",
      "country_code": "AT",
      "latitude": 48.0497,
      "longitude": 13.4929,
      "admin_name1": "Oberösterreich"
    },
    {
      "place_name": "Unterfeitzing",
      "postal_code": "4873",
      "country_code": "AT",
      "latitude": 48.1009,
      "longitude": 13.5003,
      "admin_name1": "Oberösterreich"
    },
    {
      "place_name": "Point",
      "postal_code": "4873",
      "country_code": "AT",
      "latitude": 48.0497,
      "longitude": 13.4929,
      "admin_name1": "Oberösterreich"
    },
    {
      "place_name": "Höhenwarth",
      "postal_code": "4890",
      "country_code": "AT",
      "latitude": 47.9725,
      "longitude": 13.3729,
      "admin_name1": "Oberösterreich"
    },
    {
      "place_name": "Schwaigern",
      "postal_code": "4890",
      "country_code": "AT",
      "latitude": 47.9833,
      "longitude": 13.3833,
      "admin_name1": "Oberösterreich"
    },
    {
      "place_name": "Gassen",
      "postal_code": "4893",
      "country_code": "AT",
      "latitude": 47.9725,
      "longitude": 13.3729,
      "admin_name1": "Oberösterreich"
    },
    {
      "place_name": "Eichenweg",
      "postal_code": "4894",
      "country_code": "AT",
      "latitude": 47.9725,
      "longitude": 13.3729,
      "admin_name1": "Oberösterreich"
    },
    {
      "place_name": "Gasteig",
      "postal_code": "4903",
      "country_code": "AT",
      "latitude": 48.1164,
      "longitude": 13.6263,
      "admin_name1": "Oberösterreich"
    },
    {
      "place_name": "Moos",
      "postal_code": "4903",
      "country_code": "AT",
      "latitude": 48.1164,
      "longitude": 13.6263,
      "admin_name1": "Oberösterreich"
    },
    {
      "place_name": "Ritzling",
      "postal_code": "4904",
      "country_code": "AT",
      "latitude": 48.1164,
      "longitude": 13.6263,
      "admin_name1": "Oberösterreich"
    },
    {
      "place_name": "Unterapping",
      "postal_code": "4904",
      "country_code": "AT",
      "latitude": 48.1164,
      "longitude": 13.6263,
      "admin_name1": "Oberösterreich"
    },
    {
      "place_name": "Scharfling",
      "postal_code": "5310",
      "country_code": "AT",
      "latitude": 47.85,
      "longitude": 13.3524,
      "admin_name1": "Oberösterreich"
    },
    {
      "place_name": "Kappern",
      "postal_code": "4614",
      "country_code": "AT",
      "latitude": 48.1885,
      "longitude": 14.1293,
      "admin_name1": "Oberösterreich"
    },
    {
      "place_name": "Lehen",
      "postal_code": "4615",
      "country_code": "AT",
      "latitude": 48.2192,
      "longitude": 14.0562,
      "admin_name1": "Oberösterreich"
    },
    {
      "place_name": "Moostal",
      "postal_code": "4623",
      "country_code": "AT",
      "latitude": 48.1388,
      "longitude": 13.9566,
      "admin_name1": "Oberösterreich"
    },
    {
      "place_name": "Gänsanger",
      "postal_code": "4623",
      "country_code": "AT",
      "latitude": 48.1388,
      "longitude": 13.9566,
      "admin_name1": "Oberösterreich"
    },
    {
      "place_name": "Uttendorf",
      "postal_code": "4632",
      "country_code": "AT",
      "latitude": 48.1964,
      "longitude": 13.9088,
      "admin_name1": "Oberösterreich"
    },
    {
      "place_name": "Saag",
      "postal_code": "4650",
      "country_code": "AT",
      "latitude": 48.1077,
      "longitude": 13.9398,
      "admin_name1": "Oberösterreich"
    },
    {
      "place_name": "Taxlberg",
      "postal_code": "4652",
      "country_code": "AT",
      "latitude": 48.0489,
      "longitude": 13.9247,
      "admin_name1": "Oberösterreich"
    },
    {
      "place_name": "Hummelberg",
      "postal_code": "4652",
      "country_code": "AT",
      "latitude": 48.0733,
      "longitude": 13.9441,
      "admin_name1": "Oberösterreich"
    },
    {
      "place_name": "Schörgendorf",
      "postal_code": "4671",
      "country_code": "AT",
      "latitude": 48.1449,
      "longitude": 13.7507,
      "admin_name1": "Oberösterreich"
    },
    {
      "place_name": "Brunngasse",
      "postal_code": "4671",
      "country_code": "AT",
      "latitude": 48.1449,
      "longitude": 13.7507,
      "admin_name1": "Oberösterreich"
    },
    {
      "place_name": "Getzing",
      "postal_code": "4671",
      "country_code": "AT",
      "latitude": 48.1449,
      "longitude": 13.7507,
      "admin_name1": "Oberösterreich"
    },
    {
      "place_name": "Gries",
      "postal_code": "5412",
      "country_code": "AT",
      "latitude": 47.7218,
      "longitude": 13.114,
      "admin_name1": "Salzburg"
    },
    {
      "place_name": "Spumberg",
      "postal_code": "5421",
      "country_code": "AT",
      "latitude": 47.6902,
      "longitude": 13.1523,
      "admin_name1": "Salzburg"
    },
    {
      "place_name": "Wimberg",
      "postal_code": "5421",
      "country_code": "AT",
      "latitude": 47.717,
      "longitude": 13.1515,
      "admin_name1": "Salzburg"
    },
    {
      "place_name": "Riedl",
      "postal_code": "5424",
      "country_code": "AT",
      "latitude": 47.6902,
      "longitude": 13.1523,
      "admin_name1": "Salzburg"
    },
    {
      "place_name": "Seetratten",
      "postal_code": "5441",
      "country_code": "AT",
      "latitude": 47.588,
      "longitude": 13.3273,
      "admin_name1": "Salzburg"
    },
    {
      "place_name": "Döllerhof",
      "postal_code": "5441",
      "country_code": "AT",
      "latitude": 47.588,
      "longitude": 13.3273,
      "admin_name1": "Salzburg"
    },
    {
      "place_name": "Neubach",
      "postal_code": "5524",
      "country_code": "AT",
      "latitude": 47.4739,
      "longitude": 13.371,
      "admin_name1": "Salzburg"
    },
    {
      "place_name": "Bruck",
      "postal_code": "5112",
      "country_code": "AT",
      "latitude": 47.9981,
      "longitude": 12.9558,
      "admin_name1": "Salzburg"
    },
    {
      "place_name": "Irrsdorf",
      "postal_code": "5204",
      "country_code": "AT",
      "latitude": 47.9667,
      "longitude": 13.2833,
      "admin_name1": "Salzburg"
    },
    {
      "place_name": "Straßwalchen",
      "postal_code": "5204",
      "country_code": "AT",
      "latitude": 47.9833,
      "longitude": 13.25,
      "admin_name1": "Salzburg"
    },
    {
      "place_name": "Knutzing",
      "postal_code": "5301",
      "country_code": "AT",
      "latitude": 47.8557,
      "longitude": 13.1614,
      "admin_name1": "Salzburg"
    },
    {
      "place_name": "Oberburgau",
      "postal_code": "5310",
      "country_code": "AT",
      "latitude": 47.85,
      "longitude": 13.3524,
      "admin_name1": "Salzburg"
    },
    {
      "place_name": "Lidaun",
      "postal_code": "5324",
      "country_code": "AT",
      "latitude": 47.7667,
      "longitude": 13.2167,
      "admin_name1": "Salzburg"
    },
    {
      "place_name": "Reitdorf",
      "postal_code": "5542",
      "country_code": "AT",
      "latitude": 47.3667,
      "longitude": 13.3833,
      "admin_name1": "Salzburg"
    },
    {
      "place_name": "Löbenau",
      "postal_code": "5550",
      "country_code": "AT",
      "latitude": 47.3833,
      "longitude": 13.4833,
      "admin_name1": "Salzburg"
    },
    {
      "place_name": "Forstau",
      "postal_code": "5552",
      "country_code": "AT",
      "latitude": 47.3667,
      "longitude": 13.5333,
      "admin_name1": "Salzburg"
    },
    {
      "place_name": "Einöden",
      "postal_code": "5600",
      "country_code": "AT",
      "latitude": 47.3833,
      "longitude": 13.2,
      "admin_name1": "Salzburg"
    },
    {
      "place_name": "Enkerbichl",
      "postal_code": "5621",
      "country_code": "AT",
      "latitude": 47.3333,
      "longitude": 13.0833,
      "admin_name1": "Salzburg"
    },
    {
      "place_name": "Schattau",
      "postal_code": "5622",
      "country_code": "AT",
      "latitude": 47.3333,
      "longitude": 13.1,
      "admin_name1": "Salzburg"
    },
    {
      "place_name": "Sankt Michael im Lungau",
      "postal_code": "5582",
      "country_code": "AT",
      "latitude": 47.1,
      "longitude": 13.6333,
      "admin_name1": "Salzburg"
    },
    {
      "place_name": "Wald",
      "postal_code": "5584",
      "country_code": "AT",
      "latitude": 47.1161,
      "longitude": 13.7062,
      "admin_name1": "Salzburg"
    },
    {
      "place_name": "Urbar",
      "postal_code": "5651",
      "country_code": "AT",
      "latitude": 47.3067,
      "longitude": 13.0213,
      "admin_name1": "Salzburg"
    },
    {
      "place_name": "March",
      "postal_code": "5660",
      "country_code": "AT",
      "latitude": 47.2466,
      "longitude": 12.9573,
      "admin_name1": "Salzburg"
    },
    {
      "place_name": "Fröstlberg",
      "postal_code": "5661",
      "country_code": "AT",
      "latitude": 47.1833,
      "longitude": 12.9833,
      "admin_name1": "Salzburg"
    },
    {
      "place_name": "Lacken",
      "postal_code": "5662",
      "country_code": "AT",
      "latitude": 47.2466,
      "longitude": 12.9573,
      "admin_name1": "Salzburg"
    },
    {
      "place_name": "Schmitten",
      "postal_code": "5700",
      "country_code": "AT",
      "latitude": 47.3268,
      "longitude": 12.7776,
      "admin_name1": "Salzburg"
    },
    {
      "place_name": "Maishofen",
      "postal_code": "5700",
      "country_code": "AT",
      "latitude": 47.3667,
      "longitude": 12.8,
      "admin_name1": "Salzburg"
    },
    {
      "place_name": "Lengdorf",
      "postal_code": "5722",
      "country_code": "AT",
      "latitude": 47.2833,
      "longitude": 12.6167,
      "admin_name1": "Salzburg"
    },
    {
      "place_name": "Quettensberg",
      "postal_code": "5723",
      "country_code": "AT",
      "latitude": 47.284,
      "longitude": 12.6045,
      "admin_name1": "Salzburg"
    },
    {
      "place_name": "Thalbach",
      "postal_code": "5730",
      "country_code": "AT",
      "latitude": 47.2833,
      "longitude": 12.4833,
      "admin_name1": "Salzburg"
    },
    {
      "place_name": "Jochberg",
      "postal_code": "5730",
      "country_code": "AT",
      "latitude": 47.3,
      "longitude": 12.4167,
      "admin_name1": "Salzburg"
    },
    {
      "place_name": "Schmalenbergham",
      "postal_code": "5760",
      "country_code": "AT",
      "latitude": 47.4167,
      "longitude": 12.85,
      "admin_name1": "Salzburg"
    },
    {
      "place_name": "Schattberg",
      "postal_code": "5761",
      "country_code": "AT",
      "latitude": 47.3986,
      "longitude": 12.8953,
      "admin_name1": "Salzburg"
    },
    {
      "place_name": "Schwarzleo",
      "postal_code": "5771",
      "country_code": "AT",
      "latitude": 47.4333,
      "longitude": 12.6833,
      "admin_name1": "Salzburg"
    },
    {
      "place_name": "Graz,16.Bez.:Straßgang",
      "postal_code": "8054",
      "country_code": "AT",
      "latitude": 47.031,
      "longitude": 15.3727,
      "admin_name1": "Steiermark"
    },
    {
      "place_name": "Graz,17.Bez.:Puntigam",
      "postal_code": "8055",
      "country_code": "AT",
      "latitude": 47.031,
      "longitude": 15.3727,
      "admin_name1": "Steiermark"
    },
    {
      "place_name": "Blumegg",
      "postal_code": "8502",
      "country_code": "AT",
      "latitude": 46.8783,
      "longitude": 15.398,
      "admin_name1": "Steiermark"
    },
    {
      "place_name": "Rainbach",
      "postal_code": "8510",
      "country_code": "AT",
      "latitude": 46.9058,
      "longitude": 15.2542,
      "admin_name1": "Steiermark"
    },
    {
      "place_name": "Lemsitz",
      "postal_code": "8511",
      "country_code": "AT",
      "latitude": 46.9167,
      "longitude": 15.25,
      "admin_name1": "Steiermark"
    },
    {
      "place_name": "Deutschlandsberg",
      "postal_code": "8524",
      "country_code": "AT",
      "latitude": 46.8153,
      "longitude": 15.2222,
      "admin_name1": "Steiermark"
    },
    {
      "place_name": "Aichberg",
      "postal_code": "8552",
      "country_code": "AT",
      "latitude": 46.7157,
      "longitude": 15.2468,
      "admin_name1": "Steiermark"
    },
    {
      "place_name": "Kornriegl",
      "postal_code": "8552",
      "country_code": "AT",
      "latitude": 46.7157,
      "longitude": 15.2468,
      "admin_name1": "Steiermark"
    },
    {
      "place_name": "Niederschöckl",
      "postal_code": "8044",
      "country_code": "AT",
      "latitude": 47.15,
      "longitude": 15.5,
      "admin_name1": "Steiermark"
    },
    {
      "place_name": "Hochgreit",
      "postal_code": "8046",
      "country_code": "AT",
      "latitude": 47.1333,
      "longitude": 15.4333,
      "admin_name1": "Steiermark"
    },
    {
      "place_name": "Rinnegg",
      "postal_code": "8061",
      "country_code": "AT",
      "latitude": 47.1513,
      "longitude": 15.5333,
      "admin_name1": "Steiermark"
    },
    {
      "place_name": "Hart bei Eggersdorf",
      "postal_code": "8063",
      "country_code": "AT",
      "latitude": 47.1513,
      "longitude": 15.5333,
      "admin_name1": "Steiermark"
    },
    {
      "place_name": "Seiersberg",
      "postal_code": "8073",
      "country_code": "AT",
      "latitude": 47.0,
      "longitude": 15.4,
      "admin_name1": "Steiermark"
    },
    {
      "place_name": "Feldkirchen bei Graz",
      "postal_code": "8073",
      "country_code": "AT",
      "latitude": 47.0167,
      "longitude": 15.45,
      "admin_name1": "Steiermark"
    },
    {
      "place_name": "Doblegg",
      "postal_code": "8151",
      "country_code": "AT",
      "latitude": 47.0333,
      "longitude": 15.3167,
      "admin_name1": "Steiermark"
    },
    {
      "place_name": "Hart bei Graz",
      "postal_code": "8301",
      "country_code": "AT",
      "latitude": 47.0431,
      "longitude": 15.5153,
      "admin_name1": "Steiermark"
    },
    {
      "place_name": "Kalsdorf bei Graz",
      "postal_code": "8401",
      "country_code": "AT",
      "latitude": 46.9653,
      "longitude": 15.4803,
      "admin_name1": "Steiermark"
    },
    {
      "place_name": "Mellach",
      "postal_code": "8410",
      "country_code": "AT",
      "latitude": 46.9333,
      "longitude": 15.5167,
      "admin_name1": "Steiermark"
    },
    {
      "place_name": "Empersdorf",
      "postal_code": "8081",
      "country_code": "AT",
      "latitude": 46.9833,
      "longitude": 15.6,
      "admin_name1": "Steiermark"
    },
    {
      "place_name": "Hengsberg",
      "postal_code": "8411",
      "country_code": "AT",
      "latitude": 46.8667,
      "longitude": 15.4333,
      "admin_name1": "Steiermark"
    },
    {
      "place_name": "Matzelsdorf",
      "postal_code": "8422",
      "country_code": "AT",
      "latitude": 46.8167,
      "longitude": 15.6667,
      "admin_name1": "Steiermark"
    },
    {
      "place_name": "Altenberg bei Leibnitz",
      "postal_code": "8430",
      "country_code": "AT",
      "latitude": 46.8,
      "longitude": 15.4833,
      "admin_name1": "Steiermark"
    },
    {
      "place_name": "Wagna",
      "postal_code": "8435",
      "country_code": "AT",
      "latitude": 46.75,
      "longitude": 15.55,
      "admin_name1": "Steiermark"
    },
    {
      "place_name": "Praratheregg",
      "postal_code": "8443",
      "country_code": "AT",
      "latitude": 46.7655,
      "longitude": 15.4029,
      "admin_name1": "Steiermark"
    },
    {
      "place_name": "Seggauberg",
      "postal_code": "8451",
      "country_code": "AT",
      "latitude": 46.7127,
      "longitude": 15.4115,
      "admin_name1": "Steiermark"
    },
    {
      "place_name": "Eckberg",
      "postal_code": "8462",
      "country_code": "AT",
      "latitude": 46.7,
      "longitude": 15.55,
      "admin_name1": "Steiermark"
    },
    {
      "place_name": "Grötsch",
      "postal_code": "8504",
      "country_code": "AT",
      "latitude": 46.8475,
      "longitude": 15.4453,
      "admin_name1": "Steiermark"
    },
    {
      "place_name": "Mitteregg",
      "postal_code": "8505",
      "country_code": "AT",
      "latitude": 46.8,
      "longitude": 15.45,
      "admin_name1": "Steiermark"
    },
    {
      "place_name": "Petzles",
      "postal_code": "8505",
      "country_code": "AT",
      "latitude": 46.8,
      "longitude": 15.4667,
      "admin_name1": "Steiermark"
    },
    {
      "place_name": "Hinterberg",
      "postal_code": "8700",
      "country_code": "AT",
      "latitude": 47.372,
      "longitude": 15.0883,
      "admin_name1": "Steiermark"
    },
    {
      "place_name": "Glarsdorf",
      "postal_code": "8793",
      "country_code": "AT",
      "latitude": 47.4,
      "longitude": 14.95,
      "admin_name1": "Steiermark"
    },
    {
      "place_name": "Mitterberg",
      "postal_code": "8954",
      "country_code": "AT",
      "latitude": 47.4889,
      "longitude": 14.0846,
      "admin_name1": "Steiermark"
    },
    {
      "place_name": "Diemlern",
      "postal_code": "8954",
      "country_code": "AT",
      "latitude": 47.4833,
      "longitude": 14.0,
      "admin_name1": "Steiermark"
    },
    {
      "place_name": "Gumpenberg",
      "postal_code": "8967",
      "country_code": "AT",
      "latitude": 47.4,
      "longitude": 13.7833,
      "admin_name1": "Steiermark"
    },
    {
      "place_name": "Sankt Lorenzen bei Scheifling",
      "postal_code": "8811",
      "country_code": "AT",
      "latitude": 47.1456,
      "longitude": 14.4058,
      "admin_name1": "Steiermark"
    },
    {
      "place_name": "Hinterburg",
      "postal_code": "8832",
      "country_code": "AT",
      "latitude": 47.1833,
      "longitude": 14.2667,
      "admin_name1": "Steiermark"
    },
    {
      "place_name": "Frojach",
      "postal_code": "8850",
      "country_code": "AT",
      "latitude": 47.1308,
      "longitude": 14.3086,
      "admin_name1": "Steiermark"
    },
    {
      "place_name": "Rinegg",
      "postal_code": "8853",
      "country_code": "AT",
      "latitude": 47.1253,
      "longitude": 14.1155,
      "admin_name1": "Steiermark"
    },
    {
      "place_name": "Ranten",
      "postal_code": "8853",
      "country_code": "AT",
      "latitude": 47.15,
      "longitude": 14.0833,
      "admin_name1": "Steiermark"
    },
    {
      "place_name": "Krakauschatten",
      "postal_code": "8854",
      "country_code": "AT",
      "latitude": 47.1833,
      "longitude": 13.9667,
      "admin_name1": "Steiermark"
    },
    {
      "place_name": "Lutzmannsdorf",
      "postal_code": "8861",
      "country_code": "AT",
      "latitude": 47.1,
      "longitude": 14.0667,
      "admin_name1": "Steiermark"
    },
    {
      "place_name": "Sankt Johann ob Hohenburg",
      "postal_code": "8564",
      "country_code": "AT",
      "latitude": 47.0167,
      "longitude": 15.2167,
      "admin_name1": "Steiermark"
    },
    {
      "place_name": "Pack",
      "postal_code": "8583",
      "country_code": "AT",
      "latitude": 46.9792,
      "longitude": 14.9842,
      "admin_name1": "Steiermark"
    },
    {
      "place_name": "Kemetberg",
      "postal_code": "8591",
      "country_code": "AT",
      "latitude": 47.0667,
      "longitude": 15.0,
      "admin_name1": "Steiermark"
    },
    {
      "place_name": "Farcha",
      "postal_code": "8160",
      "country_code": "AT",
      "latitude": 47.2395,
      "longitude": 15.5649,
      "admin_name1": "Steiermark"
    },
    {
      "place_name": "Hintertober",
      "postal_code": "8162",
      "country_code": "AT",
      "latitude": 47.3189,
      "longitude": 15.4893,
      "admin_name1": "Steiermark"
    },
    {
      "place_name": "Haslau bei Birkfeld",
      "postal_code": "8172",
      "country_code": "AT",
      "latitude": 47.3123,
      "longitude": 15.5752,
      "admin_name1": "Steiermark"
    },
    {
      "place_name": "Lohngraben",
      "postal_code": "8181",
      "country_code": "AT",
      "latitude": 47.2001,
      "longitude": 15.6841,
      "admin_name1": "Steiermark"
    },
    {
      "place_name": "Kulming",
      "postal_code": "8182",
      "country_code": "AT",
      "latitude": 47.2167,
      "longitude": 15.75,
      "admin_name1": "Steiermark"
    },
    {
      "place_name": "Postelgraben",
      "postal_code": "8200",
      "country_code": "AT",
      "latitude": 47.1397,
      "longitude": 15.7143,
      "admin_name1": "Steiermark"
    },
    {
      "place_name": "Rothgmos",
      "postal_code": "8212",
      "country_code": "AT",
      "latitude": 47.1641,
      "longitude": 15.7738,
      "admin_name1": "Steiermark"
    },
    {
      "place_name": "Markt Hartmannsdorf",
      "postal_code": "8311",
      "country_code": "AT",
      "latitude": 47.043,
      "longitude": 15.8623,
      "admin_name1": "Steiermark"
    },
    {
      "place_name": "Pöllau bei Gleisdorf",
      "postal_code": "8311",
      "country_code": "AT",
      "latitude": 47.0667,
      "longitude": 15.8,
      "admin_name1": "Steiermark"
    },
    {
      "place_name": "Zöbing",
      "postal_code": "8321",
      "country_code": "AT",
      "latitude": 47.0167,
      "longitude": 15.75,
      "admin_name1": "Steiermark"
    },
    {
      "place_name": "Raßnitz",
      "postal_code": "8723",
      "country_code": "AT",
      "latitude": 47.2333,
      "longitude": 14.8333,
      "admin_name1": "Steiermark"
    },
    {
      "place_name": "Schattenberg",
      "postal_code": "8731",
      "country_code": "AT",
      "latitude": 47.25,
      "longitude": 14.7,
      "admin_name1": "Steiermark"
    },
    {
      "place_name": "Hof",
      "postal_code": "8733",
      "country_code": "AT",
      "latitude": 47.2833,
      "longitude": 14.8667,
      "admin_name1": "Steiermark"
    },
    {
      "place_name": "Pfaffendorf",
      "postal_code": "8740",
      "country_code": "AT",
      "latitude": 47.1797,
      "longitude": 14.7342,
      "admin_name1": "Steiermark"
    },
    {
      "place_name": "Eppenstein",
      "postal_code": "8741",
      "country_code": "AT",
      "latitude": 47.1354,
      "longitude": 14.7125,
      "admin_name1": "Steiermark"
    },
    {
      "place_name": "Maria Buch",
      "postal_code": "8750",
      "country_code": "AT",
      "latitude": 47.1906,
      "longitude": 14.6168,
      "admin_name1": "Steiermark"
    },
    {
      "place_name": "Sillweg",
      "postal_code": "8753",
      "country_code": "AT",
      "latitude": 47.2167,
      "longitude": 14.7,
      "admin_name1": "Steiermark"
    },
    {
      "place_name": "Dietersdorf",
      "postal_code": "8753",
      "country_code": "AT",
      "latitude": 47.2,
      "longitude": 14.6667,
      "admin_name1": "Steiermark"
    },
    {
      "place_name": "Mühltal",
      "postal_code": "8761",
      "country_code": "AT",
      "latitude": 47.2478,
      "longitude": 14.5331,
      "admin_name1": "Steiermark"
    },
    {
      "place_name": "Diemlach",
      "postal_code": "8605",
      "country_code": "AT",
      "latitude": 47.4361,
      "longitude": 15.2746,
      "admin_name1": "Steiermark"
    },
    {
      "place_name": "Tutschach",
      "postal_code": "8623",
      "country_code": "AT",
      "latitude": 47.55,
      "longitude": 15.25,
      "admin_name1": "Steiermark"
    },
    {
      "place_name": "Nechelheim",
      "postal_code": "8642",
      "country_code": "AT",
      "latitude": 47.4711,
      "longitude": 15.3581,
      "admin_name1": "Steiermark"
    },
    {
      "place_name": "Freßnitz",
      "postal_code": "8662",
      "country_code": "AT",
      "latitude": 47.55,
      "longitude": 15.5333,
      "admin_name1": "Steiermark"
    },
    {
      "place_name": "Kleinveitsch",
      "postal_code": "8663",
      "country_code": "AT",
      "latitude": 47.5609,
      "longitude": 15.5674,
      "admin_name1": "Steiermark"
    },
    {
      "place_name": "Pretul",
      "postal_code": "8665",
      "country_code": "AT",
      "latitude": 47.5667,
      "longitude": 15.7,
      "admin_name1": "Steiermark"
    },
    {
      "place_name": "Malleisten",
      "postal_code": "8670",
      "country_code": "AT",
      "latitude": 47.5833,
      "longitude": 15.5667,
      "admin_name1": "Steiermark"
    },
    {
      "place_name": "Steinhaus am Semmering",
      "postal_code": "8685",
      "country_code": "AT",
      "latitude": 47.6167,
      "longitude": 15.8,
      "admin_name1": "Steiermark"
    },
    {
      "place_name": "Stojen",
      "postal_code": "8691",
      "country_code": "AT",
      "latitude": 47.6729,
      "longitude": 15.5729,
      "admin_name1": "Steiermark"
    },
    {
      "place_name": "Veitschbach",
      "postal_code": "8692",
      "country_code": "AT",
      "latitude": 47.65,
      "longitude": 15.5667,
      "admin_name1": "Steiermark"
    },
    {
      "place_name": "Lechen",
      "postal_code": "8692",
      "country_code": "AT",
      "latitude": 47.65,
      "longitude": 15.6,
      "admin_name1": "Steiermark"
    },
    {
      "place_name": "Dobrein",
      "postal_code": "8693",
      "country_code": "AT",
      "latitude": 47.6729,
      "longitude": 15.5729,
      "admin_name1": "Steiermark"
    },
    {
      "place_name": "Hofkirchen bei Hartberg",
      "postal_code": "8224",
      "country_code": "AT",
      "latitude": 47.2186,
      "longitude": 15.8435,
      "admin_name1": "Steiermark"
    },
    {
      "place_name": "Unterlungitz",
      "postal_code": "8230",
      "country_code": "AT",
      "latitude": 47.3,
      "longitude": 16.0167,
      "admin_name1": "Steiermark"
    },
    {
      "place_name": "Eichberg",
      "postal_code": "8234",
      "country_code": "AT",
      "latitude": 47.3072,
      "longitude": 15.9826,
      "admin_name1": "Steiermark"
    },
    {
      "place_name": "Limbach",
      "postal_code": "8234",
      "country_code": "AT",
      "latitude": 47.3072,
      "longitude": 15.9826,
      "admin_name1": "Steiermark"
    },
    {
      "place_name": "Neussing",
      "postal_code": "8244",
      "country_code": "AT",
      "latitude": 47.4395,
      "longitude": 16.0484,
      "admin_name1": "Steiermark"
    },
    {
      "place_name": "Mutzenfeld",
      "postal_code": "8262",
      "country_code": "AT",
      "latitude": 47.108,
      "longitude": 15.8807,
      "admin_name1": "Steiermark"
    },
    {
      "place_name": "Hochenegg",
      "postal_code": "8262",
      "country_code": "AT",
      "latitude": 47.108,
      "longitude": 15.8807,
      "admin_name1": "Steiermark"
    },
    {
      "place_name": "Neudorf bei Ilz",
      "postal_code": "8262",
      "country_code": "AT",
      "latitude": 47.0833,
      "longitude": 15.95,
      "admin_name1": "Steiermark"
    },
    {
      "place_name": "Blaindorf",
      "postal_code": "8265",
      "country_code": "AT",
      "latitude": 47.108,
      "longitude": 15.8807,
      "admin_name1": "Steiermark"
    },
    {
      "place_name": "Leitersdorf bei Hartberg",
      "postal_code": "8271",
      "country_code": "AT",
      "latitude": 47.15,
      "longitude": 16.0333,
      "admin_name1": "Steiermark"
    },
    {
      "place_name": "Geiseldorf",
      "postal_code": "8272",
      "country_code": "AT",
      "latitude": 47.2142,
      "longitude": 15.9911,
      "admin_name1": "Steiermark"
    },
    {
      "place_name": "Geier",
      "postal_code": "8272",
      "country_code": "AT",
      "latitude": 47.2081,
      "longitude": 15.9916,
      "admin_name1": "Steiermark"
    },
    {
      "place_name": "Weinberg",
      "postal_code": "8274",
      "country_code": "AT",
      "latitude": 47.2263,
      "longitude": 16.0282,
      "admin_name1": "Steiermark"
    },
    {
      "place_name": "Unterdombach",
      "postal_code": "8274",
      "country_code": "AT",
      "latitude": 47.2357,
      "longitude": 15.9633,
      "admin_name1": "Steiermark"
    },
    {
      "place_name": "Unterrohr",
      "postal_code": "8294",
      "country_code": "AT",
      "latitude": 47.25,
      "longitude": 16.05,
      "admin_name1": "Steiermark"
    },
    {
      "place_name": "Schölbing",
      "postal_code": "8295",
      "country_code": "AT",
      "latitude": 47.2189,
      "longitude": 16.0656,
      "admin_name1": "Steiermark"
    },
    {
      "place_name": "Weißenbach",
      "postal_code": "8081",
      "country_code": "AT",
      "latitude": 46.9726,
      "longitude": 15.6494,
      "admin_name1": "Steiermark"
    },
    {
      "place_name": "Oberzirknitz",
      "postal_code": "8091",
      "country_code": "AT",
      "latitude": 46.8667,
      "longitude": 15.75,
      "admin_name1": "Steiermark"
    },
    {
      "place_name": "Neustift",
      "postal_code": "8312",
      "country_code": "AT",
      "latitude": 47.0333,
      "longitude": 15.9333,
      "admin_name1": "Steiermark"
    },
    {
      "place_name": "Krennach",
      "postal_code": "8330",
      "country_code": "AT",
      "latitude": 47.0333,
      "longitude": 15.8833,
      "admin_name1": "Steiermark"
    },
    {
      "place_name": "Grub I",
      "postal_code": "8333",
      "country_code": "AT",
      "latitude": 47.028,
      "longitude": 15.9316,
      "admin_name1": "Steiermark"
    },
    {
      "place_name": "Axbach",
      "postal_code": "8341",
      "country_code": "AT",
      "latitude": 46.9461,
      "longitude": 15.7661,
      "admin_name1": "Steiermark"
    },
    {
      "place_name": "Pernreith",
      "postal_code": "8342",
      "country_code": "AT",
      "latitude": 46.9167,
      "longitude": 15.8333,
      "admin_name1": "Steiermark"
    },
    {
      "place_name": "Ludersdorf",
      "postal_code": "8342",
      "country_code": "AT",
      "latitude": 46.8795,
      "longitude": 15.8358,
      "admin_name1": "Steiermark"
    },
    {
      "place_name": "Unterauersbach",
      "postal_code": "8342",
      "country_code": "AT",
      "latitude": 46.8795,
      "longitude": 15.8358,
      "admin_name1": "Steiermark"
    },
    {
      "place_name": "Baumgarten",
      "postal_code": "8342",
      "country_code": "AT",
      "latitude": 46.8795,
      "longitude": 15.8358,
      "admin_name1": "Steiermark"
    },
    {
      "place_name": "Waldsberg",
      "postal_code": "8344",
      "country_code": "AT",
      "latitude": 46.8795,
      "longitude": 15.8358,
      "admin_name1": "Steiermark"
    },
    {
      "place_name": "Wieden-Klausen",
      "postal_code": "8345",
      "country_code": "AT",
      "latitude": 46.7904,
      "longitude": 15.8528,
      "admin_name1": "Steiermark"
    },
    {
      "place_name": "Gutendorf",
      "postal_code": "8353",
      "country_code": "AT",
      "latitude": 46.9,
      "longitude": 16.0,
      "admin_name1": "Steiermark"
    },
    {
      "place_name": "Haiming",
      "postal_code": "6425",
      "country_code": "AT",
      "latitude": 47.25,
      "longitude": 10.8833,
      "admin_name1": "Tirol"
    },
    {
      "place_name": "Natters",
      "postal_code": "6020",
      "country_code": "AT",
      "latitude": 47.2341,
      "longitude": 11.3734,
      "admin_name1": "Tirol"
    },
    {
      "place_name": "Mils",
      "postal_code": "6068",
      "country_code": "AT",
      "latitude": 47.2833,
      "longitude": 11.5333,
      "admin_name1": "Tirol"
    },
    {
      "place_name": "Lans",
      "postal_code": "6072",
      "country_code": "AT",
      "latitude": 47.2383,
      "longitude": 11.4314,
      "admin_name1": "Tirol"
    },
    {
      "place_name": "Leutasch",
      "postal_code": "6105",
      "country_code": "AT",
      "latitude": 47.3689,
      "longitude": 11.144,
      "admin_name1": "Tirol"
    },
    {
      "place_name": "Mützens",
      "postal_code": "6143",
      "country_code": "AT",
      "latitude": 47.1402,
      "longitude": 11.4561,
      "admin_name1": "Tirol"
    },
    {
      "place_name": "Pettnau",
      "postal_code": "6170",
      "country_code": "AT",
      "latitude": 47.3,
      "longitude": 11.1333,
      "admin_name1": "Tirol"
    },
    {
      "place_name": "Aurach bei Kitzbühel",
      "postal_code": "6371",
      "country_code": "AT",
      "latitude": 47.4481,
      "longitude": 12.3859,
      "admin_name1": "Tirol"
    },
    {
      "place_name": "Brixlegg",
      "postal_code": "6230",
      "country_code": "AT",
      "latitude": 47.4294,
      "longitude": 11.8779,
      "admin_name1": "Tirol"
    },
    {
      "place_name": "Breitenbach am Inn",
      "postal_code": "6252",
      "country_code": "AT",
      "latitude": 47.4783,
      "longitude": 11.9737,
      "admin_name1": "Tirol"
    },
    {
      "place_name": "Eichelwang",
      "postal_code": "6330",
      "country_code": "AT",
      "latitude": 47.5995,
      "longitude": 12.1863,
      "admin_name1": "Tirol"
    },
    {
      "place_name": "Oberlangkampfen",
      "postal_code": "6336",
      "country_code": "AT",
      "latitude": 47.5213,
      "longitude": 12.0886,
      "admin_name1": "Tirol"
    },
    {
      "place_name": "Durchholzen",
      "postal_code": "6344",
      "country_code": "AT",
      "latitude": 47.6333,
      "longitude": 12.2833,
      "admin_name1": "Tirol"
    },
    {
      "place_name": "Stanz bei Landeck",
      "postal_code": "6500",
      "country_code": "AT",
      "latitude": 47.1476,
      "longitude": 10.5534,
      "admin_name1": "Tirol"
    },
    {
      "place_name": "Grins",
      "postal_code": "6500",
      "country_code": "AT",
      "latitude": 47.1403,
      "longitude": 10.5141,
      "admin_name1": "Tirol"
    },
    {
      "place_name": "Landeck",
      "postal_code": "6500",
      "country_code": "AT",
      "latitude": 47.1399,
      "longitude": 10.5659,
      "admin_name1": "Tirol"
    },
    {
      "place_name": "Planitzen",
      "postal_code": "9912",
      "country_code": "AT",
      "latitude": 46.771,
      "longitude": 12.5706,
      "admin_name1": "Tirol"
    },
    {
      "place_name": "Untertilliach",
      "postal_code": "9943",
      "country_code": "AT",
      "latitude": 46.7042,
      "longitude": 12.7086,
      "admin_name1": "Tirol"
    },
    {
      "place_name": "Klaunz",
      "postal_code": "9971",
      "country_code": "AT",
      "latitude": 47.0,
      "longitude": 12.55,
      "admin_name1": "Tirol"
    },
    {
      "place_name": "Feld",
      "postal_code": "9971",
      "country_code": "AT",
      "latitude": 46.9617,
      "longitude": 12.565,
      "admin_name1": "Tirol"
    },
    {
      "place_name": "Rauth",
      "postal_code": "6672",
      "country_code": "AT",
      "latitude": 47.4667,
      "longitude": 10.6167,
      "admin_name1": "Tirol"
    },
    {
      "place_name": "Eggen",
      "postal_code": "6123",
      "country_code": "AT",
      "latitude": 47.32,
      "longitude": 11.622,
      "admin_name1": "Tirol"
    },
    {
      "place_name": "Bradl",
      "postal_code": "6210",
      "country_code": "AT",
      "latitude": 47.4032,
      "longitude": 11.813,
      "admin_name1": "Tirol"
    },
    {
      "place_name": "Pankrazberg",
      "postal_code": "6264",
      "country_code": "AT",
      "latitude": 47.3167,
      "longitude": 11.8167,
      "admin_name1": "Tirol"
    },
    {
      "place_name": "Kleinboden",
      "postal_code": "6271",
      "country_code": "AT",
      "latitude": 47.2749,
      "longitude": 11.8831,
      "admin_name1": "Tirol"
    },
    {
      "place_name": "Kaltenbach",
      "postal_code": "6272",
      "country_code": "AT",
      "latitude": 47.2833,
      "longitude": 11.8667,
      "admin_name1": "Tirol"
    },
    {
      "place_name": "Ludesch",
      "postal_code": "6713",
      "country_code": "AT",
      "latitude": 47.2,
      "longitude": 9.7831,
      "admin_name1": "Vorarlberg"
    },
    {
      "place_name": "Risana",
      "postal_code": "6731",
      "country_code": "AT",
      "latitude": 47.2419,
      "longitude": 9.9042,
      "admin_name1": "Vorarlberg"
    },
    {
      "place_name": "Innerberg",
      "postal_code": "6781",
      "country_code": "AT",
      "latitude": 47.1,
      "longitude": 9.95,
      "admin_name1": "Vorarlberg"
    },
    {
      "place_name": "Partenen",
      "postal_code": "6794",
      "country_code": "AT",
      "latitude": 46.9667,
      "longitude": 10.05,
      "admin_name1": "Vorarlberg"
    },
    {
      "place_name": "Möggers",
      "postal_code": "6900",
      "country_code": "AT",
      "latitude": 47.5667,
      "longitude": 9.8167,
      "admin_name1": "Vorarlberg"
    },
    {
      "place_name": "Fluh",
      "postal_code": "6900",
      "country_code": "AT",
      "latitude": 47.5,
      "longitude": 9.7667,
      "admin_name1": "Vorarlberg"
    },
    {
      "place_name": "Wien, Mariahilf",
      "postal_code": "1060",
      "country_code": "AT",
      "latitude": 48.1952,
      "longitude": 16.3503,
      "admin_name1": "Wien"
    },
    {
      "place_name": "Gradenegg",
      "postal_code": "9556",
      "country_code": "AT",
      "latitude": 46.75,
      "longitude": 14.25,
      "admin_name1": "Kärnten"
    },
    {
      "place_name": "St. Leonhard",
      "postal_code": "9556",
      "country_code": "AT",
      "latitude": 46.7318,
      "longitude": 14.1825,
      "admin_name1": "Kärnten"
    },
    {
      "place_name": "Karlsberg",
      "postal_code": "9556",
      "country_code": "AT",
      "latitude": 46.7318,
      "longitude": 14.1825,
      "admin_name1": "Kärnten"
    },
    {
      "place_name": "Hohensaß",
      "postal_code": "9545",
      "country_code": "AT",
      "latitude": 46.7601,
      "longitude": 13.7976,
      "admin_name1": "Kärnten"
    },
    {
      "place_name": "Untertschern",
      "postal_code": "9546",
      "country_code": "AT",
      "latitude": 46.8167,
      "longitude": 13.7667,
      "admin_name1": "Kärnten"
    },
    {
      "place_name": "Pirkeben",
      "postal_code": "9753",
      "country_code": "AT",
      "latitude": 46.7759,
      "longitude": 13.3243,
      "admin_name1": "Kärnten"
    },
    {
      "place_name": "Gatschach",
      "postal_code": "9762",
      "country_code": "AT",
      "latitude": 46.7167,
      "longitude": 13.3,
      "admin_name1": "Kärnten"
    },
    {
      "place_name": "Emberg",
      "postal_code": "9771",
      "country_code": "AT",
      "latitude": 46.7549,
      "longitude": 13.1554,
      "admin_name1": "Kärnten"
    },
    {
      "place_name": "Glanz",
      "postal_code": "9773",
      "country_code": "AT",
      "latitude": 46.7503,
      "longitude": 13.1013,
      "admin_name1": "Kärnten"
    },
    {
      "place_name": "Schörstadt",
      "postal_code": "9773",
      "country_code": "AT",
      "latitude": 46.7503,
      "longitude": 13.1013,
      "admin_name1": "Kärnten"
    },
    {
      "place_name": "Krieselsdorf",
      "postal_code": "9800",
      "country_code": "AT",
      "latitude": 46.7961,
      "longitude": 13.4974,
      "admin_name1": "Kärnten"
    },
    {
      "place_name": "St. Peter",
      "postal_code": "9800",
      "country_code": "AT",
      "latitude": 46.7961,
      "longitude": 13.4974,
      "admin_name1": "Kärnten"
    },
    {
      "place_name": "Faschendorf",
      "postal_code": "9805",
      "country_code": "AT",
      "latitude": 46.8167,
      "longitude": 13.4167,
      "admin_name1": "Kärnten"
    },
    {
      "place_name": "Lendorf",
      "postal_code": "9811",
      "country_code": "AT",
      "latitude": 46.8353,
      "longitude": 13.4303,
      "admin_name1": "Kärnten"
    },
    {
      "place_name": "Unterkolbnitz",
      "postal_code": "9815",
      "country_code": "AT",
      "latitude": 46.8781,
      "longitude": 13.3114,
      "admin_name1": "Kärnten"
    },
    {
      "place_name": "Witschdorf",
      "postal_code": "9833",
      "country_code": "AT",
      "latitude": 46.8614,
      "longitude": 12.9475,
      "admin_name1": "Kärnten"
    },
    {
      "place_name": "Ranach",
      "postal_code": "9843",
      "country_code": "AT",
      "latitude": 46.9667,
      "longitude": 12.8833,
      "admin_name1": "Kärnten"
    },
    {
      "place_name": "Karnerau",
      "postal_code": "9853",
      "country_code": "AT",
      "latitude": 46.9026,
      "longitude": 13.5034,
      "admin_name1": "Kärnten"
    },
    {
      "place_name": "Stubeck Sonnalm",
      "postal_code": "9853",
      "country_code": "AT",
      "latitude": 46.9026,
      "longitude": 13.5034,
      "admin_name1": "Kärnten"
    },
    {
      "place_name": "Feistritz",
      "postal_code": "9854",
      "country_code": "AT",
      "latitude": 46.9642,
      "longitude": 13.4914,
      "admin_name1": "Kärnten"
    },
    {
      "place_name": "Pressingberg",
      "postal_code": "9861",
      "country_code": "AT",
      "latitude": 46.976,
      "longitude": 13.6111,
      "admin_name1": "Kärnten"
    },
    {
      "place_name": "Reitern",
      "postal_code": "9862",
      "country_code": "AT",
      "latitude": 46.976,
      "longitude": 13.6111,
      "admin_name1": "Kärnten"
    },
    {
      "place_name": "Unterkremsberg",
      "postal_code": "9862",
      "country_code": "AT",
      "latitude": 46.9667,
      "longitude": 13.6333,
      "admin_name1": "Kärnten"
    },
    {
      "place_name": "Pron",
      "postal_code": "9863",
      "country_code": "AT",
      "latitude": 46.976,
      "longitude": 13.6111,
      "admin_name1": "Kärnten"
    },
    {
      "place_name": "Rennweg",
      "postal_code": "9863",
      "country_code": "AT",
      "latitude": 46.976,
      "longitude": 13.6111,
      "admin_name1": "Kärnten"
    },
    {
      "place_name": "Dellach",
      "postal_code": "9872",
      "country_code": "AT",
      "latitude": 46.785,
      "longitude": 13.6242,
      "admin_name1": "Kärnten"
    },
    {
      "place_name": "St. Egyden",
      "postal_code": "9536",
      "country_code": "AT",
      "latitude": 46.5772,
      "longitude": 14.0617,
      "admin_name1": "Kärnten"
    },
    {
      "place_name": "Pulpitsch",
      "postal_code": "9536",
      "country_code": "AT",
      "latitude": 46.6003,
      "longitude": 13.9396,
      "admin_name1": "Kärnten"
    },
    {
      "place_name": "Techanting",
      "postal_code": "9585",
      "country_code": "AT",
      "latitude": 46.5645,
      "longitude": 13.8748,
      "admin_name1": "Kärnten"
    },
    {
      "place_name": "Gailitz",
      "postal_code": "9601",
      "country_code": "AT",
      "latitude": 46.5608,
      "longitude": 13.7044,
      "admin_name1": "Kärnten"
    },
    {
      "place_name": "Seltschach",
      "postal_code": "9601",
      "country_code": "AT",
      "latitude": 46.5387,
      "longitude": 13.7028,
      "admin_name1": "Kärnten"
    },
    {
      "place_name": "Göriach",
      "postal_code": "9613",
      "country_code": "AT",
      "latitude": 46.5617,
      "longitude": 13.6158,
      "admin_name1": "Kärnten"
    },
    {
      "place_name": "Mauthbrücken",
      "postal_code": "9701",
      "country_code": "AT",
      "latitude": 46.7419,
      "longitude": 13.5519,
      "admin_name1": "Kärnten"
    },
    {
      "place_name": "Politzen",
      "postal_code": "9702",
      "country_code": "AT",
      "latitude": 46.756,
      "longitude": 13.6103,
      "admin_name1": "Kärnten"
    },
    {
      "place_name": "Pöllan",
      "postal_code": "9710",
      "country_code": "AT",
      "latitude": 46.6947,
      "longitude": 13.6383,
      "admin_name1": "Kärnten"
    },
    {
      "place_name": "Gänsdorf",
      "postal_code": "9102",
      "country_code": "AT",
      "latitude": 46.7167,
      "longitude": 14.55,
      "admin_name1": "Kärnten"
    },
    {
      "place_name": "Wandelitzen",
      "postal_code": "9103",
      "country_code": "AT",
      "latitude": 46.7,
      "longitude": 14.6333,
      "admin_name1": "Kärnten"
    },
    {
      "place_name": "Unterrain",
      "postal_code": "9113",
      "country_code": "AT",
      "latitude": 46.6833,
      "longitude": 14.75,
      "admin_name1": "Kärnten"
    },
    {
      "place_name": "Kanaren",
      "postal_code": "9113",
      "country_code": "AT",
      "latitude": 46.65,
      "longitude": 14.75,
      "admin_name1": "Kärnten"
    },
    {
      "place_name": "Greuth",
      "postal_code": "9121",
      "country_code": "AT",
      "latitude": 46.6597,
      "longitude": 14.5408,
      "admin_name1": "Kärnten"
    },
    {
      "place_name": "St. Lorenzen",
      "postal_code": "9122",
      "country_code": "AT",
      "latitude": 46.6171,
      "longitude": 14.5953,
      "admin_name1": "Kärnten"
    },
    {
      "place_name": "Obersammelsdorf",
      "postal_code": "9122",
      "country_code": "AT",
      "latitude": 46.5833,
      "longitude": 14.5833,
      "admin_name1": "Kärnten"
    },
    {
      "place_name": "Pirk",
      "postal_code": "9132",
      "country_code": "AT",
      "latitude": 46.5782,
      "longitude": 14.5256,
      "admin_name1": "Kärnten"
    },
    {
      "place_name": "Pogerschitzen",
      "postal_code": "9133",
      "country_code": "AT",
      "latitude": 46.5782,
      "longitude": 14.5256,
      "admin_name1": "Kärnten"
    },
    {
      "place_name": "Rechberg / Reberca",
      "postal_code": "9135",
      "country_code": "AT",
      "latitude": 46.5283,
      "longitude": 14.5794,
      "admin_name1": "Kärnten"
    },
    {
      "place_name": "Einersdorf / Nonca vas",
      "postal_code": "9150",
      "country_code": "AT",
      "latitude": 46.6113,
      "longitude": 14.8262,
      "admin_name1": "Kärnten"
    },
    {
      "place_name": "St. Margarethen",
      "postal_code": "9150",
      "country_code": "AT",
      "latitude": 46.6113,
      "longitude": 14.8262,
      "admin_name1": "Kärnten"
    },
    {
      "place_name": "Schwabegg / Žvabek",
      "postal_code": "9155",
      "country_code": "AT",
      "latitude": 46.6506,
      "longitude": 14.8506,
      "admin_name1": "Kärnten"
    },
    {
      "place_name": "St. Johann",
      "postal_code": "9400",
      "country_code": "AT",
      "latitude": 46.8167,
      "longitude": 14.8667,
      "admin_name1": "Kärnten"
    },
    {
      "place_name": "Vordergumitsch",
      "postal_code": "9400",
      "country_code": "AT",
      "latitude": 46.8333,
      "longitude": 14.8833,
      "admin_name1": "Kärnten"
    },
    {
      "place_name": "Hofwiesen",
      "postal_code": "9423",
      "country_code": "AT",
      "latitude": 46.7416,
      "longitude": 14.901,
      "admin_name1": "Kärnten"
    },
    {
      "place_name": "Matschenbloch",
      "postal_code": "9423",
      "country_code": "AT",
      "latitude": 46.7025,
      "longitude": 14.9264,
      "admin_name1": "Kärnten"
    },
    {
      "place_name": "Reinfelsdorf",
      "postal_code": "9431",
      "country_code": "AT",
      "latitude": 46.8167,
      "longitude": 14.8167,
      "admin_name1": "Kärnten"
    },
    {
      "place_name": "Weißenbach Gumitsch",
      "postal_code": "9431",
      "country_code": "AT",
      "latitude": 46.788,
      "longitude": 14.8301,
      "admin_name1": "Kärnten"
    },
    {
      "place_name": "Sommerau",
      "postal_code": "9463",
      "country_code": "AT",
      "latitude": 46.9833,
      "longitude": 14.6667,
      "admin_name1": "Kärnten"
    },
    {
      "place_name": "St. Peter im Lavanttal",
      "postal_code": "9463",
      "country_code": "AT",
      "latitude": 46.9484,
      "longitude": 14.7868,
      "admin_name1": "Kärnten"
    },
    {
      "place_name": "Kollnitzgreuth",
      "postal_code": "9470",
      "country_code": "AT",
      "latitude": 46.6763,
      "longitude": 14.9015,
      "admin_name1": "Kärnten"
    },
    {
      "place_name": "Unterrainz",
      "postal_code": "9470",
      "country_code": "AT",
      "latitude": 46.6763,
      "longitude": 14.9015,
      "admin_name1": "Kärnten"
    },
    {
      "place_name": "Unterbergen",
      "postal_code": "9473",
      "country_code": "AT",
      "latitude": 46.6667,
      "longitude": 14.9167,
      "admin_name1": "Kärnten"
    },
    {
      "place_name": "Untertauern",
      "postal_code": "9231",
      "country_code": "AT",
      "latitude": 46.6554,
      "longitude": 13.9827,
      "admin_name1": "Kärnten"
    },
    {
      "place_name": "St. Urban",
      "postal_code": "9551",
      "country_code": "AT",
      "latitude": 46.7318,
      "longitude": 14.1825,
      "admin_name1": "Kärnten"
    },
    {
      "place_name": "Gall",
      "postal_code": "9554",
      "country_code": "AT",
      "latitude": 46.7318,
      "longitude": 14.1825,
      "admin_name1": "Kärnten"
    },
    {
      "place_name": "Gramilach",
      "postal_code": "9556",
      "country_code": "AT",
      "latitude": 46.7362,
      "longitude": 14.2386,
      "admin_name1": "Kärnten"
    },
    {
      "place_name": "Hart",
      "postal_code": "9560",
      "country_code": "AT",
      "latitude": 46.7413,
      "longitude": 14.0634,
      "admin_name1": "Kärnten"
    },
    {
      "place_name": "Lang",
      "postal_code": "9560",
      "country_code": "AT",
      "latitude": 46.753,
      "longitude": 14.1195,
      "admin_name1": "Kärnten"
    },
    {
      "place_name": "Laboisen",
      "postal_code": "9560",
      "country_code": "AT",
      "latitude": 46.715,
      "longitude": 14.1137,
      "admin_name1": "Kärnten"
    },
    {
      "place_name": "Tiebel",
      "postal_code": "9562",
      "country_code": "AT",
      "latitude": 46.7656,
      "longitude": 14.0097,
      "admin_name1": "Kärnten"
    },
    {
      "place_name": "Außerteuchen",
      "postal_code": "9562",
      "country_code": "AT",
      "latitude": 46.75,
      "longitude": 13.9667,
      "admin_name1": "Kärnten"
    },
    {
      "place_name": "Patergassen",
      "postal_code": "9564",
      "country_code": "AT",
      "latitude": 46.8158,
      "longitude": 13.8722,
      "admin_name1": "Kärnten"
    },
    {
      "place_name": "Teufelhof",
      "postal_code": "3100",
      "country_code": "AT",
      "latitude": 48.1833,
      "longitude": 15.6167,
      "admin_name1": "Niederösterreich"
    },
    {
      "place_name": "St. Pölten",
      "postal_code": "3104",
      "country_code": "AT",
      "latitude": 48.2,
      "longitude": 15.6333,
      "admin_name1": "Niederösterreich"
    },
    {
      "place_name": "Wiener Neustadt",
      "postal_code": "2700",
      "country_code": "AT",
      "latitude": 47.8,
      "longitude": 16.25,
      "admin_name1": "Niederösterreich"
    },
    {
      "place_name": "Strubb",
      "postal_code": "3342",
      "country_code": "AT",
      "latitude": 47.8735,
      "longitude": 14.849,
      "admin_name1": "Niederösterreich"
    },
    {
      "place_name": "Berg",
      "postal_code": "3343",
      "country_code": "AT",
      "latitude": 47.8735,
      "longitude": 14.849,
      "admin_name1": "Niederösterreich"
    },
    {
      "place_name": "Rubring",
      "postal_code": "4300",
      "country_code": "AT",
      "latitude": 48.1667,
      "longitude": 14.4833,
      "admin_name1": "Niederösterreich"
    },
    {
      "place_name": "Kürnberg",
      "postal_code": "4442",
      "country_code": "AT",
      "latitude": 48.0,
      "longitude": 14.5333,
      "admin_name1": "Niederösterreich"
    },
    {
      "place_name": "Oberwaltersdorf",
      "postal_code": "2522",
      "country_code": "AT",
      "latitude": 47.9757,
      "longitude": 16.3219,
      "admin_name1": "Niederösterreich"
    },
    {
      "place_name": "Eberbach",
      "postal_code": "2564",
      "country_code": "AT",
      "latitude": 47.9927,
      "longitude": 16.0047,
      "admin_name1": "Niederösterreich"
    },
    {
      "place_name": "Rohrbach",
      "postal_code": "2565",
      "country_code": "AT",
      "latitude": 48.004,
      "longitude": 16.0987,
      "admin_name1": "Niederösterreich"
    },
    {
      "place_name": "Rohrau",
      "postal_code": "2471",
      "country_code": "AT",
      "latitude": 48.0667,
      "longitude": 16.85,
      "admin_name1": "Niederösterreich"
    },
    {
      "place_name": "Götzendorf",
      "postal_code": "2245",
      "country_code": "AT",
      "latitude": 48.4667,
      "longitude": 16.7833,
      "admin_name1": "Niederösterreich"
    },
    {
      "place_name": "Dürnkrut",
      "postal_code": "2263",
      "country_code": "AT",
      "latitude": 48.4731,
      "longitude": 16.8506,
      "admin_name1": "Niederösterreich"
    },
    {
      "place_name": "Drösing",
      "postal_code": "2265",
      "country_code": "AT",
      "latitude": 48.539,
      "longitude": 16.9026,
      "admin_name1": "Niederösterreich"
    },
    {
      "place_name": "Kirchberg am Walde",
      "postal_code": "3932",
      "country_code": "AT",
      "latitude": 48.7167,
      "longitude": 15.0833,
      "admin_name1": "Niederösterreich"
    },
    {
      "place_name": "Stölzles",
      "postal_code": "3942",
      "country_code": "AT",
      "latitude": 48.75,
      "longitude": 15.1167,
      "admin_name1": "Niederösterreich"
    },
    {
      "place_name": "Kleedorf",
      "postal_code": "3943",
      "country_code": "AT",
      "latitude": 48.7833,
      "longitude": 15.05,
      "admin_name1": "Niederösterreich"
    },
    {
      "place_name": "Heinrichs bei Weitra",
      "postal_code": "3962",
      "country_code": "AT",
      "latitude": 48.7333,
      "longitude": 14.8333,
      "admin_name1": "Niederösterreich"
    },
    {
      "place_name": "Weitra",
      "postal_code": "3970",
      "country_code": "AT",
      "latitude": 48.7,
      "longitude": 14.8833,
      "admin_name1": "Niederösterreich"
    },
    {
      "place_name": "Ulrichs",
      "postal_code": "3970",
      "country_code": "AT",
      "latitude": 48.7167,
      "longitude": 14.9333,
      "admin_name1": "Niederösterreich"
    },
    {
      "place_name": "Kleinstetteldorf",
      "postal_code": "2020",
      "country_code": "AT",
      "latitude": 48.5833,
      "longitude": 16.15,
      "admin_name1": "Niederösterreich"
    },
    {
      "place_name": "Magersdorf",
      "postal_code": "2020",
      "country_code": "AT",
      "latitude": 48.5667,
      "longitude": 16.1,
      "admin_name1": "Niederösterreich"
    },
    {
      "place_name": "Kammersdorf",
      "postal_code": "2033",
      "country_code": "AT",
      "latitude": 48.6167,
      "longitude": 16.2333,
      "admin_name1": "Niederösterreich"
    },
    {
      "place_name": "Ronthal",
      "postal_code": "3473",
      "country_code": "AT",
      "latitude": 48.5,
      "longitude": 15.8,
      "admin_name1": "Niederösterreich"
    },
    {
      "place_name": "Hollenstein",
      "postal_code": "3710",
      "country_code": "AT",
      "latitude": 48.55,
      "longitude": 15.9333,
      "admin_name1": "Niederösterreich"
    },
    {
      "place_name": "Gumping",
      "postal_code": "3713",
      "country_code": "AT",
      "latitude": 48.5833,
      "longitude": 15.8,
      "admin_name1": "Niederösterreich"
    },
    {
      "place_name": "Minichhofen",
      "postal_code": "3720",
      "country_code": "AT",
      "latitude": 48.5667,
      "longitude": 15.9,
      "admin_name1": "Niederösterreich"
    },
    {
      "place_name": "Oberdürnbach",
      "postal_code": "3721",
      "country_code": "AT",
      "latitude": 48.5833,
      "longitude": 15.8333,
      "admin_name1": "Niederösterreich"
    },
    {
      "place_name": "Rohrendorf an der Pulkau",
      "postal_code": "3741",
      "country_code": "AT",
      "latitude": 48.6978,
      "longitude": 15.8884,
      "admin_name1": "Niederösterreich"
    },
    {
      "place_name": "Prutzendorf",
      "postal_code": "2084",
      "country_code": "AT",
      "latitude": 48.7667,
      "longitude": 15.8,
      "admin_name1": "Niederösterreich"
    },
    {
      "place_name": "Obermixnitz",
      "postal_code": "2084",
      "country_code": "AT",
      "latitude": 48.75,
      "longitude": 15.8167,
      "admin_name1": "Niederösterreich"
    },
    {
      "place_name": "Zissersdorf",
      "postal_code": "2094",
      "country_code": "AT",
      "latitude": 48.8306,
      "longitude": 15.6241,
      "admin_name1": "Niederösterreich"
    },
    {
      "place_name": "St. Marein",
      "postal_code": "3595",
      "country_code": "AT",
      "latitude": 48.6833,
      "longitude": 15.5,
      "admin_name1": "Niederösterreich"
    },
    {
      "place_name": "Harmannsdorf",
      "postal_code": "3713",
      "country_code": "AT",
      "latitude": 48.6,
      "longitude": 15.7333,
      "admin_name1": "Niederösterreich"
    },
    {
      "place_name": "Theras",
      "postal_code": "3742",
      "country_code": "AT",
      "latitude": 48.7308,
      "longitude": 15.7899,
      "admin_name1": "Niederösterreich"
    },
    {
      "place_name": "Irnfritz",
      "postal_code": "3754",
      "country_code": "AT",
      "latitude": 48.7411,
      "longitude": 15.5561,
      "admin_name1": "Niederösterreich"
    },
    {
      "place_name": "Zettenreith",
      "postal_code": "3763",
      "country_code": "AT",
      "latitude": 48.8167,
      "longitude": 15.5667,
      "admin_name1": "Niederösterreich"
    },
    {
      "place_name": "Simonsfeld",
      "postal_code": "2115",
      "country_code": "AT",
      "latitude": 48.5,
      "longitude": 16.3333,
      "admin_name1": "Niederösterreich"
    },
    {
      "place_name": "Starnwörth",
      "postal_code": "3463",
      "country_code": "AT",
      "latitude": 48.4,
      "longitude": 16.0167,
      "admin_name1": "Niederösterreich"
    },
    {
      "place_name": "Etsdorf am Kamp",
      "postal_code": "3492",
      "country_code": "AT",
      "latitude": 48.4333,
      "longitude": 15.7333,
      "admin_name1": "Niederösterreich"
    },
    {
      "place_name": "Krustetten",
      "postal_code": "3508",
      "country_code": "AT",
      "latitude": 48.3612,
      "longitude": 15.662,
      "admin_name1": "Niederösterreich"
    },
    {
      "place_name": "Pallweis",
      "postal_code": "3522",
      "country_code": "AT",
      "latitude": 48.5167,
      "longitude": 15.4,
      "admin_name1": "Niederösterreich"
    },
    {
      "place_name": "Peygarten-Ottenstein",
      "postal_code": "3532",
      "country_code": "AT",
      "latitude": 48.5645,
      "longitude": 15.3057,
      "admin_name1": "Niederösterreich"
    },
    {
      "place_name": "Rastbach",
      "postal_code": "3542",
      "country_code": "AT",
      "latitude": 48.5225,
      "longitude": 15.43,
      "admin_name1": "Niederösterreich"
    },
    {
      "place_name": "St. Lorenz",
      "postal_code": "3602",
      "country_code": "AT",
      "latitude": 48.3926,
      "longitude": 15.5108,
      "admin_name1": "Niederösterreich"
    },
    {
      "place_name": "Wösendorf in der Wachau",
      "postal_code": "3610",
      "country_code": "AT",
      "latitude": 48.3805,
      "longitude": 15.4554,
      "admin_name1": "Niederösterreich"
    },
    {
      "place_name": "Rotheau",
      "postal_code": "3153",
      "country_code": "AT",
      "latitude": 48.0682,
      "longitude": 15.5984,
      "admin_name1": "Niederösterreich"
    },
    {
      "place_name": "Kleinzell",
      "postal_code": "3171",
      "country_code": "AT",
      "latitude": 47.9799,
      "longitude": 15.7362,
      "admin_name1": "Niederösterreich"
    },
    {
      "place_name": "Mitterbach",
      "postal_code": "3193",
      "country_code": "AT",
      "latitude": 47.8686,
      "longitude": 15.5968,
      "admin_name1": "Niederösterreich"
    },
    {
      "place_name": "Christenberg",
      "postal_code": "3233",
      "country_code": "AT",
      "latitude": 48.1057,
      "longitude": 15.4483,
      "admin_name1": "Niederösterreich"
    },
    {
      "place_name": "Ritzenberg",
      "postal_code": "3240",
      "country_code": "AT",
      "latitude": 48.0902,
      "longitude": 15.3012,
      "admin_name1": "Niederösterreich"
    },
    {
      "place_name": "Münichhofen",
      "postal_code": "3240",
      "country_code": "AT",
      "latitude": 48.1167,
      "longitude": 15.3667,
      "admin_name1": "Niederösterreich"
    },
    {
      "place_name": "Maierhöfen",
      "postal_code": "3241",
      "country_code": "AT",
      "latitude": 48.0902,
      "longitude": 15.3012,
      "admin_name1": "Niederösterreich"
    },
    {
      "place_name": "Hub an der Mank",
      "postal_code": "3243",
      "country_code": "AT",
      "latitude": 48.0902,
      "longitude": 15.3012,
      "admin_name1": "Niederösterreich"
    },
    {
      "place_name": "Diesendorf",
      "postal_code": "3243",
      "country_code": "AT",
      "latitude": 48.0902,
      "longitude": 15.3012,
      "admin_name1": "Niederösterreich"
    },
    {
      "place_name": "Fohregg",
      "postal_code": "3244",
      "country_code": "AT",
      "latitude": 48.0902,
      "longitude": 15.3012,
      "admin_name1": "Niederösterreich"
    },
    {
      "place_name": "Kalcha",
      "postal_code": "3244",
      "country_code": "AT",
      "latitude": 48.0902,
      "longitude": 15.3012,
      "admin_name1": "Niederösterreich"
    },
    {
      "place_name": "Etzen",
      "postal_code": "3244",
      "country_code": "AT",
      "latitude": 48.1167,
      "longitude": 15.25,
      "admin_name1": "Niederösterreich"
    },
    {
      "place_name": "Karlsbach",
      "postal_code": "3376",
      "country_code": "AT",
      "latitude": 48.15,
      "longitude": 15.05,
      "admin_name1": "Niederösterreich"
    },
    {
      "place_name": "Hinterleiten",
      "postal_code": "3381",
      "country_code": "AT",
      "latitude": 48.1919,
      "longitude": 15.4348,
      "admin_name1": "Niederösterreich"
    },
    {
      "place_name": "Hürm",
      "postal_code": "3383",
      "country_code": "AT",
      "latitude": 48.156,
      "longitude": 15.4126,
      "admin_name1": "Niederösterreich"
    },
    {
      "place_name": "Heitzing",
      "postal_code": "3642",
      "country_code": "AT",
      "latitude": 48.2877,
      "longitude": 15.359,
      "admin_name1": "Niederösterreich"
    },
    {
      "place_name": "Fahnsdorf",
      "postal_code": "3644",
      "country_code": "AT",
      "latitude": 48.2877,
      "longitude": 15.359,
      "admin_name1": "Niederösterreich"
    },
    {
      "place_name": "Sading",
      "postal_code": "3650",
      "country_code": "AT",
      "latitude": 48.3003,
      "longitude": 15.236,
      "admin_name1": "Niederösterreich"
    },
    {
      "place_name": "Kälberhof",
      "postal_code": "3650",
      "country_code": "AT",
      "latitude": 48.3003,
      "longitude": 15.236,
      "admin_name1": "Niederösterreich"
    },
    {
      "place_name": "Weinzierl",
      "postal_code": "3652",
      "country_code": "AT",
      "latitude": 48.2424,
      "longitude": 15.2772,
      "admin_name1": "Niederösterreich"
    },
    {
      "place_name": "Zogelsdorf",
      "postal_code": "3653",
      "country_code": "AT",
      "latitude": 48.3003,
      "longitude": 15.236,
      "admin_name1": "Niederösterreich"
    },
    {
      "place_name": "Eitental",
      "postal_code": "3653",
      "country_code": "AT",
      "latitude": 48.266,
      "longitude": 15.2755,
      "admin_name1": "Niederösterreich"
    },
    {
      "place_name": "Mörenz",
      "postal_code": "3653",
      "country_code": "AT",
      "latitude": 48.2833,
      "longitude": 15.2667,
      "admin_name1": "Niederösterreich"
    },
    {
      "place_name": "Laufenegg",
      "postal_code": "3654",
      "country_code": "AT",
      "latitude": 48.3003,
      "longitude": 15.236,
      "admin_name1": "Niederösterreich"
    },
    {
      "place_name": "Edelsreith",
      "postal_code": "3662",
      "country_code": "AT",
      "latitude": 48.25,
      "longitude": 15.1333,
      "admin_name1": "Niederösterreich"
    },
    {
      "place_name": "Pargatstetten",
      "postal_code": "3662",
      "country_code": "AT",
      "latitude": 48.25,
      "longitude": 15.15,
      "admin_name1": "Niederösterreich"
    },
    {
      "place_name": "Marbach an der Donau",
      "postal_code": "3671",
      "country_code": "AT",
      "latitude": 48.2167,
      "longitude": 15.15,
      "admin_name1": "Niederösterreich"
    },
    {
      "place_name": "Viehtrift",
      "postal_code": "3681",
      "country_code": "AT",
      "latitude": 48.2273,
      "longitude": 15.0666,
      "admin_name1": "Niederösterreich"
    },
    {
      "place_name": "Eben",
      "postal_code": "3681",
      "country_code": "AT",
      "latitude": 48.2273,
      "longitude": 15.0666,
      "admin_name1": "Niederösterreich"
    },
    {
      "place_name": "Nöchling",
      "postal_code": "3691",
      "country_code": "AT",
      "latitude": 48.2243,
      "longitude": 14.9812,
      "admin_name1": "Niederösterreich"
    },
    {
      "place_name": "Eggersdorf",
      "postal_code": "2126",
      "country_code": "AT",
      "latitude": 48.5333,
      "longitude": 16.45,
      "admin_name1": "Niederösterreich"
    },
    {
      "place_name": "Hanfthal",
      "postal_code": "2136",
      "country_code": "AT",
      "latitude": 48.7,
      "longitude": 16.3667,
      "admin_name1": "Niederösterreich"
    },
    {
      "place_name": "Alt-Prerau",
      "postal_code": "2164",
      "country_code": "AT",
      "latitude": 48.7831,
      "longitude": 16.4667,
      "admin_name1": "Niederösterreich"
    },
    {
      "place_name": "Wiener Neudorf",
      "postal_code": "2351",
      "country_code": "AT",
      "latitude": 48.0828,
      "longitude": 16.3138,
      "admin_name1": "Niederösterreich"
    },
    {
      "place_name": "Gumpoldskirchen",
      "postal_code": "2352",
      "country_code": "AT",
      "latitude": 48.0454,
      "longitude": 16.2771,
      "admin_name1": "Niederösterreich"
    },
    {
      "place_name": "Sulz im Wienerwald",
      "postal_code": "2392",
      "country_code": "AT",
      "latitude": 48.1004,
      "longitude": 16.1375,
      "admin_name1": "Niederösterreich"
    },
    {
      "place_name": "Lindgrub",
      "postal_code": "2620",
      "country_code": "AT",
      "latitude": 47.7,
      "longitude": 16.1167,
      "admin_name1": "Niederösterreich"
    },
    {
      "place_name": "Gramatl",
      "postal_code": "2620",
      "country_code": "AT",
      "latitude": 47.6619,
      "longitude": 16.0522,
      "admin_name1": "Niederösterreich"
    },
    {
      "place_name": "Ternitz",
      "postal_code": "2620",
      "country_code": "AT",
      "latitude": 47.7157,
      "longitude": 16.0357,
      "admin_name1": "Niederösterreich"
    },
    {
      "place_name": "Berglach",
      "postal_code": "2640",
      "country_code": "AT",
      "latitude": 47.6606,
      "longitude": 15.9408,
      "admin_name1": "Niederösterreich"
    },
    {
      "place_name": "Raach am Hochgebirge",
      "postal_code": "2640",
      "country_code": "AT",
      "latitude": 47.6333,
      "longitude": 15.9333,
      "admin_name1": "Niederösterreich"
    },
    {
      "place_name": "Göstritz",
      "postal_code": "2641",
      "country_code": "AT",
      "latitude": 47.6383,
      "longitude": 15.8813,
      "admin_name1": "Niederösterreich"
    },
    {
      "place_name": "Puchberg am Schneeberg",
      "postal_code": "2734",
      "country_code": "AT",
      "latitude": 47.7871,
      "longitude": 15.9135,
      "admin_name1": "Niederösterreich"
    },
    {
      "place_name": "Scheiblingkirchen",
      "postal_code": "2831",
      "country_code": "AT",
      "latitude": 47.65,
      "longitude": 16.1333,
      "admin_name1": "Niederösterreich"
    },
    {
      "place_name": "Thomasberg",
      "postal_code": "2851",
      "country_code": "AT",
      "latitude": 47.5667,
      "longitude": 16.1333,
      "admin_name1": "Niederösterreich"
    },
    {
      "place_name": "Rekawinkel",
      "postal_code": "3031",
      "country_code": "AT",
      "latitude": 48.173,
      "longitude": 15.9527,
      "admin_name1": "Niederösterreich"
    },
    {
      "place_name": "Unterwinden",
      "postal_code": "3130",
      "country_code": "AT",
      "latitude": 48.2889,
      "longitude": 15.7209,
      "admin_name1": "Niederösterreich"
    },
    {
      "place_name": "Reichgrüben",
      "postal_code": "3143",
      "country_code": "AT",
      "latitude": 48.1892,
      "longitude": 15.6904,
      "admin_name1": "Niederösterreich"
    },
    {
      "place_name": "Heuberg",
      "postal_code": "3143",
      "country_code": "AT",
      "latitude": 48.1538,
      "longitude": 15.6892,
      "admin_name1": "Niederösterreich"
    },
    {
      "place_name": "Willersdorf",
      "postal_code": "3200",
      "country_code": "AT",
      "latitude": 48.1376,
      "longitude": 15.5436,
      "admin_name1": "Niederösterreich"
    },
    {
      "place_name": "Grasserrotte",
      "postal_code": "3213",
      "country_code": "AT",
      "latitude": 47.9598,
      "longitude": 15.3257,
      "admin_name1": "Niederösterreich"
    },
    {
      "place_name": "Eigendorf",
      "postal_code": "3231",
      "country_code": "AT",
      "latitude": 48.1667,
      "longitude": 15.5,
      "admin_name1": "Niederösterreich"
    },
    {
      "place_name": "Linsberg",
      "postal_code": "3231",
      "country_code": "AT",
      "latitude": 48.1667,
      "longitude": 15.5,
      "admin_name1": "Niederösterreich"
    },
    {
      "place_name": "Pielachhaag",
      "postal_code": "3386",
      "country_code": "AT",
      "latitude": 48.1919,
      "longitude": 15.4348,
      "admin_name1": "Niederösterreich"
    },
    {
      "place_name": "Waldgegend",
      "postal_code": "3214",
      "country_code": "AT",
      "latitude": 47.9598,
      "longitude": 15.3257,
      "admin_name1": "Niederösterreich"
    },
    {
      "place_name": "Großa",
      "postal_code": "3250",
      "country_code": "AT",
      "latitude": 48.1084,
      "longitude": 15.1404,
      "admin_name1": "Niederösterreich"
    },
    {
      "place_name": "Höfl",
      "postal_code": "3251",
      "country_code": "AT",
      "latitude": 48.059,
      "longitude": 15.1099,
      "admin_name1": "Niederösterreich"
    },
    {
      "place_name": "Schollödt",
      "postal_code": "3261",
      "country_code": "AT",
      "latitude": 48.0565,
      "longitude": 15.0265,
      "admin_name1": "Niederösterreich"
    },
    {
      "place_name": "Höfling",
      "postal_code": "3262",
      "country_code": "AT",
      "latitude": 48.0498,
      "longitude": 15.0248,
      "admin_name1": "Niederösterreich"
    },
    {
      "place_name": "Kerschenberg",
      "postal_code": "3264",
      "country_code": "AT",
      "latitude": 48.0154,
      "longitude": 15.0571,
      "admin_name1": "Niederösterreich"
    },
    {
      "place_name": "Weissee",
      "postal_code": "3281",
      "country_code": "AT",
      "latitude": 48.0472,
      "longitude": 15.2001,
      "admin_name1": "Niederösterreich"
    },
    {
      "place_name": "Kandelsberg",
      "postal_code": "3282",
      "country_code": "AT",
      "latitude": 48.047,
      "longitude": 15.2144,
      "admin_name1": "Niederösterreich"
    },
    {
      "place_name": "Gabel",
      "postal_code": "3283",
      "country_code": "AT",
      "latitude": 48.047,
      "longitude": 15.2144,
      "admin_name1": "Niederösterreich"
    },
    {
      "place_name": "Göstling an der Ybbs",
      "postal_code": "3345",
      "country_code": "AT",
      "latitude": 47.8,
      "longitude": 14.9167,
      "admin_name1": "Niederösterreich"
    },
    {
      "place_name": "Gollarn",
      "postal_code": "3441",
      "country_code": "AT",
      "latitude": 48.2733,
      "longitude": 15.9858,
      "admin_name1": "Niederösterreich"
    },
    {
      "place_name": "Ahrenberg",
      "postal_code": "3454",
      "country_code": "AT",
      "latitude": 48.3292,
      "longitude": 15.7963,
      "admin_name1": "Niederösterreich"
    },
    {
      "place_name": "Gösing am Wagram",
      "postal_code": "3482",
      "country_code": "AT",
      "latitude": 48.4667,
      "longitude": 15.8167,
      "admin_name1": "Niederösterreich"
    },
    {
      "place_name": "Jettsdorf",
      "postal_code": "3484",
      "country_code": "AT",
      "latitude": 48.4,
      "longitude": 15.75,
      "admin_name1": "Niederösterreich"
    },
    {
      "place_name": "Liebnitz",
      "postal_code": "3820",
      "country_code": "AT",
      "latitude": 48.85,
      "longitude": 15.45,
      "admin_name1": "Niederösterreich"
    },
    {
      "place_name": "Pommersdorf",
      "postal_code": "3820",
      "country_code": "AT",
      "latitude": 48.85,
      "longitude": 15.4333,
      "admin_name1": "Niederösterreich"
    },
    {
      "place_name": "Dimling",
      "postal_code": "3830",
      "country_code": "AT",
      "latitude": 48.8246,
      "longitude": 15.2523,
      "admin_name1": "Niederösterreich"
    },
    {
      "place_name": "Rafings",
      "postal_code": "3841",
      "country_code": "AT",
      "latitude": 48.7833,
      "longitude": 15.3,
      "admin_name1": "Niederösterreich"
    },
    {
      "place_name": "Ranzles",
      "postal_code": "3842",
      "country_code": "AT",
      "latitude": 48.8693,
      "longitude": 15.3037,
      "admin_name1": "Niederösterreich"
    },
    {
      "place_name": "Peigarten",
      "postal_code": "3843",
      "country_code": "AT",
      "latitude": 48.8915,
      "longitude": 15.2705,
      "admin_name1": "Niederösterreich"
    },
    {
      "place_name": "Wiesmaden",
      "postal_code": "3852",
      "country_code": "AT",
      "latitude": 48.8878,
      "longitude": 15.1916,
      "admin_name1": "Niederösterreich"
    },
    {
      "place_name": "Dürnbach",
      "postal_code": "2724",
      "country_code": "AT",
      "latitude": 47.8507,
      "longitude": 16.0197,
      "admin_name1": "Niederösterreich"
    },
    {
      "place_name": "Hölles",
      "postal_code": "2751",
      "country_code": "AT",
      "latitude": 47.8962,
      "longitude": 16.2017,
      "admin_name1": "Niederösterreich"
    },
    {
      "place_name": "Vorderbruck",
      "postal_code": "2770",
      "country_code": "AT",
      "latitude": 47.8801,
      "longitude": 15.8784,
      "admin_name1": "Niederösterreich"
    },
    {
      "place_name": "Schlatten",
      "postal_code": "2811",
      "country_code": "AT",
      "latitude": 47.5825,
      "longitude": 16.2386,
      "admin_name1": "Niederösterreich"
    },
    {
      "place_name": "Hollenthon",
      "postal_code": "2812",
      "country_code": "AT",
      "latitude": 47.5833,
      "longitude": 16.25,
      "admin_name1": "Niederösterreich"
    },
    {
      "place_name": "Wenigreith",
      "postal_code": "2853",
      "country_code": "AT",
      "latitude": 47.4667,
      "longitude": 16.2333,
      "admin_name1": "Niederösterreich"
    },
    {
      "place_name": "Wiesenreith",
      "postal_code": "3531",
      "country_code": "AT",
      "latitude": 48.5333,
      "longitude": 15.2833,
      "admin_name1": "Niederösterreich"
    },
    {
      "place_name": "Eschabruck",
      "postal_code": "3533",
      "country_code": "AT",
      "latitude": 48.5667,
      "longitude": 15.2667,
      "admin_name1": "Niederösterreich"
    },
    {
      "place_name": "Gschwendt",
      "postal_code": "3622",
      "country_code": "AT",
      "latitude": 48.4167,
      "longitude": 15.3667,
      "admin_name1": "Niederösterreich"
    },
    {
      "place_name": "Richterhof",
      "postal_code": "3623",
      "country_code": "AT",
      "latitude": 48.3992,
      "longitude": 15.3281,
      "admin_name1": "Niederösterreich"
    },
    {
      "place_name": "Schönau",
      "postal_code": "3632",
      "country_code": "AT",
      "latitude": 48.45,
      "longitude": 15.1,
      "admin_name1": "Niederösterreich"
    },
    {
      "place_name": "Prettles",
      "postal_code": "3632",
      "country_code": "AT",
      "latitude": 48.4361,
      "longitude": 15.1278,
      "admin_name1": "Niederösterreich"
    },
    {
      "place_name": "Zwettl-Niederösterreich",
      "postal_code": "3910",
      "country_code": "AT",
      "latitude": 48.5599,
      "longitude": 15.1406,
      "admin_name1": "Niederösterreich"
    },
    {
      "place_name": "Königsbach",
      "postal_code": "3914",
      "country_code": "AT",
      "latitude": 48.5333,
      "longitude": 15.2333,
      "admin_name1": "Niederösterreich"
    },
    {
      "place_name": "Siebenberg",
      "postal_code": "3920",
      "country_code": "AT",
      "latitude": 48.5712,
      "longitude": 14.9508,
      "admin_name1": "Niederösterreich"
    },
    {
      "place_name": "Groß Gerungs",
      "postal_code": "3920",
      "country_code": "AT",
      "latitude": 48.5712,
      "longitude": 14.9508,
      "admin_name1": "Niederösterreich"
    },
    {
      "place_name": "Fraberg",
      "postal_code": "3921",
      "country_code": "AT",
      "latitude": 48.5667,
      "longitude": 14.9,
      "admin_name1": "Niederösterreich"
    },
    {
      "place_name": "Niederneustift",
      "postal_code": "3924",
      "country_code": "AT",
      "latitude": 48.6024,
      "longitude": 15.0543,
      "admin_name1": "Niederösterreich"
    },
    {
      "place_name": "Perwolfs",
      "postal_code": "3925",
      "country_code": "AT",
      "latitude": 48.4667,
      "longitude": 14.9833,
      "admin_name1": "Niederösterreich"
    },
    {
      "place_name": "Wels",
      "postal_code": "4600",
      "country_code": "AT",
      "latitude": 48.1667,
      "longitude": 14.0333,
      "admin_name1": "Oberösterreich"
    },
    {
      "place_name": "Kleinschneidt",
      "postal_code": "4931",
      "country_code": "AT",
      "latitude": 48.1697,
      "longitude": 13.3531,
      "admin_name1": "Oberösterreich"
    },
    {
      "place_name": "Naderling",
      "postal_code": "4933",
      "country_code": "AT",
      "latitude": 48.1697,
      "longitude": 13.3531,
      "admin_name1": "Oberösterreich"
    },
    {
      "place_name": "Diepolding",
      "postal_code": "4950",
      "country_code": "AT",
      "latitude": 48.2336,
      "longitude": 13.211,
      "admin_name1": "Oberösterreich"
    },
    {
      "place_name": "Reith",
      "postal_code": "5120",
      "country_code": "AT",
      "latitude": 48.0024,
      "longitude": 12.8867,
      "admin_name1": "Oberösterreich"
    },
    {
      "place_name": "Wanghausen",
      "postal_code": "5122",
      "country_code": "AT",
      "latitude": 48.15,
      "longitude": 12.8167,
      "admin_name1": "Oberösterreich"
    },
    {
      "place_name": "Mitterndorf",
      "postal_code": "5122",
      "country_code": "AT",
      "latitude": 48.1349,
      "longitude": 12.8734,
      "admin_name1": "Oberösterreich"
    },
    {
      "place_name": "Neuhausen",
      "postal_code": "5131",
      "country_code": "AT",
      "latitude": 48.1428,
      "longitude": 12.9462,
      "admin_name1": "Oberösterreich"
    },
    {
      "place_name": "Holzleithen",
      "postal_code": "5131",
      "country_code": "AT",
      "latitude": 48.1428,
      "longitude": 12.9462,
      "admin_name1": "Oberösterreich"
    },
    {
      "place_name": "Paischen",
      "postal_code": "5134",
      "country_code": "AT",
      "latitude": 48.1993,
      "longitude": 12.9704,
      "admin_name1": "Oberösterreich"
    },
    {
      "place_name": "Gerberling",
      "postal_code": "5142",
      "country_code": "AT",
      "latitude": 48.1102,
      "longitude": 13.0161,
      "admin_name1": "Oberösterreich"
    },
    {
      "place_name": "Pippmannsberg",
      "postal_code": "5142",
      "country_code": "AT",
      "latitude": 48.1102,
      "longitude": 13.0161,
      "admin_name1": "Oberösterreich"
    },
    {
      "place_name": "Renzlhausen",
      "postal_code": "5143",
      "country_code": "AT",
      "latitude": 48.1102,
      "longitude": 13.0161,
      "admin_name1": "Oberösterreich"
    },
    {
      "place_name": "Innerpirach",
      "postal_code": "5143",
      "country_code": "AT",
      "latitude": 48.1102,
      "longitude": 13.0161,
      "admin_name1": "Oberösterreich"
    },
    {
      "place_name": "Wiesing",
      "postal_code": "5143",
      "country_code": "AT",
      "latitude": 48.1102,
      "longitude": 13.0161,
      "admin_name1": "Oberösterreich"
    },
    {
      "place_name": "Klöpfing",
      "postal_code": "5143",
      "country_code": "AT",
      "latitude": 48.1102,
      "longitude": 13.0161,
      "admin_name1": "Oberösterreich"
    },
    {
      "place_name": "Scheuern",
      "postal_code": "5144",
      "country_code": "AT",
      "latitude": 48.1102,
      "longitude": 13.0161,
      "admin_name1": "Oberösterreich"
    },
    {
      "place_name": "Brandstatt",
      "postal_code": "5144",
      "country_code": "AT",
      "latitude": 48.1102,
      "longitude": 13.0161,
      "admin_name1": "Oberösterreich"
    },
    {
      "place_name": "Bründl",
      "postal_code": "5145",
      "country_code": "AT",
      "latitude": 48.1102,
      "longitude": 13.0161,
      "admin_name1": "Oberösterreich"
    },
    {
      "place_name": "Brandstätt",
      "postal_code": "5163",
      "country_code": "AT",
      "latitude": 47.9663,
      "longitude": 13.0733,
      "admin_name1": "Oberösterreich"
    },
    {
      "place_name": "Gumperding",
      "postal_code": "5166",
      "country_code": "AT",
      "latitude": 47.9663,
      "longitude": 13.0733,
      "admin_name1": "Oberösterreich"
    },
    {
      "place_name": "Untererb",
      "postal_code": "5211",
      "country_code": "AT",
      "latitude": 48.0135,
      "longitude": 13.2604,
      "admin_name1": "Oberösterreich"
    },
    {
      "place_name": "Daxjuden",
      "postal_code": "5221",
      "country_code": "AT",
      "latitude": 48.0362,
      "longitude": 13.1598,
      "admin_name1": "Oberösterreich"
    },
    {
      "place_name": "Großgollern",
      "postal_code": "5233",
      "country_code": "AT",
      "latitude": 48.1153,
      "longitude": 13.0424,
      "admin_name1": "Oberösterreich"
    },
    {
      "place_name": "Sollach",
      "postal_code": "5241",
      "country_code": "AT",
      "latitude": 48.1295,
      "longitude": 13.2351,
      "admin_name1": "Oberösterreich"
    },
    {
      "place_name": "Perneck",
      "postal_code": "5242",
      "country_code": "AT",
      "latitude": 48.1207,
      "longitude": 13.2105,
      "admin_name1": "Oberösterreich"
    },
    {
      "place_name": "Scheiblberg",
      "postal_code": "5261",
      "country_code": "AT",
      "latitude": 48.1617,
      "longitude": 13.1334,
      "admin_name1": "Oberösterreich"
    },