[
  [
    {
      "place_name": "Masazir-1",
      "postal_code": "AZ 0116",
      "country_code": "AZ",
      "latitude": 40.4879,
      "longitude": 49.7507,
      "admin_name1": "Abşeron"
    },
    {
      "place_name": "Kəhrizli",
      "postal_code": "AZ 0419",
      "country_code": "AZ",
      "latitude": 40.0302,
      "longitude": 47.3447,
      "admin_name1": "Ağcabədi"
    },
    {
      "place_name": "Aran",
      "postal_code": "AZ 0432",
      "country_code": "AZ",
      "latitude": 39.9241,
      "longitude": 47.4291,
      "admin_name1": "Ağcabədi"
    },
    {
      "place_name": "Abad",
      "postal_code": "AZ 0311",
      "country_code": "AZ",
      "latitude": 40.4666,
      "longitude": 47.336,
      "admin_name1": "Ağdaş"
    },
    {
      "place_name": "Şordəhnə",
      "postal_code": "AZ 0313",
      "country_code": "AZ",
      "latitude": 40.5126,
      "longitude": 47.3651,
      "admin_name1": "Ağdaş"
    },
    {
      "place_name": "Ağstafa Vağzal",
      "postal_code": "AZ 0511",
      "country_code": "AZ",
      "latitude": 41.156,
      "longitude": 45.4352,
      "admin_name1": "Ağstafa"
    },
    {
      "place_name": "Baki-62",
      "postal_code": "AZ 1062",
      "country_code": "AZ",
      "latitude": 39.9179,
      "longitude": 49.2168,
      "admin_name1": "Baki"
    },
    {
      "place_name": "Baki-104",
      "postal_code": "AZ 1104",
      "country_code": "AZ",
      "latitude": 40.3777,
      "longitude": 49.892,
      "admin_name1": "Baki"
    },
    {
      "place_name": "Püştətala",
      "postal_code": "AZ 0818",
      "country_code": "AZ",
      "latitude": 41.6285,
      "longitude": 46.4141,
      "admin_name1": "Balakən"
    },
    {
      "place_name": "Qazma",
      "postal_code": "AZ 0820",
      "country_code": "AZ",
      "latitude": 41.6942,
      "longitude": 46.386,
      "admin_name1": "Balakən"
    },
    {
      "place_name": "Qaraqirnaq",
      "postal_code": "AZ 0925",
      "country_code": "AZ",
      "latitude": 40.3161,
      "longitude": 47.1701,
      "admin_name1": "Bərdə"
    },
    {
      "place_name": "Təzəkənd",
      "postal_code": "AZ 1236",
      "country_code": "AZ",
      "latitude": 39.8156,
      "longitude": 47.5886,
      "admin_name1": "Beyləqan"
    },
    {
      "place_name": "Xənagah",
      "postal_code": "AZ 1518",
      "country_code": "AZ",
      "latitude": 39.1827,
      "longitude": 48.5055,
      "admin_name1": "Cəlilabad"
    },
    {
      "place_name": "Gədəbəy",
      "postal_code": "AZ 2100",
      "country_code": "AZ",
      "latitude": 40.5706,
      "longitude": 45.8123,
      "admin_name1": "Gədəbəy"
    },
    {
      "place_name": "Kiçik Qaramurad",
      "postal_code": "AZ 2130",
      "country_code": "AZ",
      "latitude": 40.5543,
      "longitude": 45.6713,
      "admin_name1": "Gədəbəy"
    },
    {
      "place_name": "Söyüdlü",
      "postal_code": "AZ 2142",
      "country_code": "AZ",
      "latitude": 40.5967,
      "longitude": 45.8366,
      "admin_name1": "Gədəbəy"
    },
    {
      "place_name": "Xoylu",
      "postal_code": "AZ 2226",
      "country_code": "AZ",
      "latitude": 40.6453,
      "longitude": 46.5364,
      "admin_name1": "Goranboy"
    },
    {
      "place_name": "Bəydövül",
      "postal_code": "AZ 2313",
      "country_code": "AZ",
      "latitude": 40.5834,
      "longitude": 47.8416,
      "admin_name1": "Göyçay"
    },
    {
      "place_name": "Çaxirlipş",
      "postal_code": "AZ 2316",
      "country_code": "AZ",
      "latitude": 40.5834,
      "longitude": 47.8416,
      "admin_name1": "Göyçay"
    },
    {
      "place_name": "Qizilağac",
      "postal_code": "AZ 2324",
      "country_code": "AZ",
      "latitude": 40.5693,
      "longitude": 47.7467,
      "admin_name1": "Göyçay"
    },
    {
      "place_name": "Məlikkənd",
      "postal_code": "AZ 2327",
      "country_code": "AZ",
      "latitude": 40.5335,
      "longitude": 47.7882,
      "admin_name1": "Göyçay"
    },
    {
      "place_name": "Muradxanli",
      "postal_code": "AZ 3031",
      "country_code": "AZ",
      "latitude": 39.9275,
      "longitude": 47.9542,
      "admin_name1": "Imişli"
    },
    {
      "place_name": "Basqal",
      "postal_code": "AZ 3111",
      "country_code": "AZ",
      "latitude": 40.7552,
      "longitude": 48.391,
      "admin_name1": "Ismayilli"
    },
    {
      "place_name": "Şiximli",
      "postal_code": "AZ 3325",
      "country_code": "AZ",
      "latitude": 40.3637,
      "longitude": 48.1853,
      "admin_name1": "Kürdəmir"
    },
    {
      "place_name": "Şağlaser",
      "postal_code": "AZ 4230",
      "country_code": "AZ",
      "latitude": 38.8638,
      "longitude": 48.7371,
      "admin_name1": "Lənkəran"
    },
    {
      "place_name": "Çayrud",
      "postal_code": "AZ 4316",
      "country_code": "AZ",
      "latitude": 38.7149,
      "longitude": 48.4981,
      "admin_name1": "Lerik"
    },
    {
      "place_name": "Gəyəçöl",
      "postal_code": "AZ 4416",
      "country_code": "AZ",
      "latitude": 39.0087,
      "longitude": 48.6685,
      "admin_name1": "Masalli"
    },
    {
      "place_name": "Calud",
      "postal_code": "AZ 4815",
      "country_code": "AZ",
      "latitude": 41.0315,
      "longitude": 47.4775,
      "admin_name1": "Oğuz"
    },
    {
      "place_name": "Padar",
      "postal_code": "AZ 4823",
      "country_code": "AZ",
      "latitude": 40.9632,
      "longitude": 47.517,
      "admin_name1": "Oğuz"
    },
    {
      "place_name": "Bum",
      "postal_code": "AZ 3611",
      "country_code": "AZ",
      "latitude": 41.0144,
      "longitude": 47.7781,
      "admin_name1": "Qəbələ"
    },
    {
      "place_name": "Məlikli",
      "postal_code": "AZ 3620",
      "country_code": "AZ",
      "latitude": 40.7984,
      "longitude": 47.8491,
      "admin_name1": "Qəbələ"
    },
    {
      "place_name": "2 Sayli",
      "postal_code": "AZ 4002",
      "country_code": "AZ",
      "latitude": 41.3611,
      "longitude": 48.5134,
      "admin_name1": "Quba"
    },
    {
      "place_name": "Zərdabi",
      "postal_code": "AZ 4035",
      "country_code": "AZ",
      "latitude": 41.3969,
      "longitude": 48.64,
      "admin_name1": "Quba"
    },
    {
      "place_name": "Bəylik",
      "postal_code": "AZ 4912",
      "country_code": "AZ",
      "latitude": 39.9563,
      "longitude": 48.4106,
      "admin_name1": "Saatli"
    },
    {
      "place_name": "Fətəlikənd",
      "postal_code": "AZ 4915",
      "country_code": "AZ",
      "latitude": 39.8759,
      "longitude": 48.555,
      "admin_name1": "Saatli"
    },
    {
      "place_name": "Suçma",
      "postal_code": "AZ 5530",
      "country_code": "AZ",
      "latitude": 40.9598,
      "longitude": 47.1336,
      "admin_name1": "Şəki"
    },
    {
      "place_name": "Pirqulu",
      "postal_code": "AZ 5626",
      "country_code": "AZ",
      "latitude": 40.5886,
      "longitude": 48.629,
      "admin_name1": "Şamaxi"
    },
    {
      "place_name": "Məlikçobanli",
      "postal_code": "AZ 5628",
      "country_code": "AZ",
      "latitude": 40.5406,
      "longitude": 48.6857,
      "admin_name1": "Şamaxi"
    },
    {
      "place_name": "Şəmkir",
      "postal_code": "AZ 5700",
      "country_code": "AZ",
      "latitude": 40.8297,
      "longitude": 46.0178,
      "admin_name1": "Şəmkir"
    },
    {
      "place_name": "Dəllər Cəyir",
      "postal_code": "AZ 5714",
      "country_code": "AZ",
      "latitude": 40.8825,
      "longitude": 46.0367,
      "admin_name1": "Şəmkir"
    },
    {
      "place_name": "Poylu",
      "postal_code": "AZ 5120",
      "country_code": "AZ",
      "latitude": 41.1393,
      "longitude": 46.272,
      "admin_name1": "Samux"
    },
    {
      "place_name": "Bozalqanli",
      "postal_code": "AZ 6018",
      "country_code": "AZ",
      "latitude": 40.9948,
      "longitude": 45.6376,
      "admin_name1": "Tovuz"
    },
    {
      "place_name": "Əlimərdanli",
      "postal_code": "AZ 6027",
      "country_code": "AZ",
      "latitude": 41.0398,
      "longitude": 45.673,
      "admin_name1": "Tovuz"
    },
    {
      "place_name": "Həsənqala",
      "postal_code": "AZ 2715",
      "country_code": "AZ",
      "latitude": 41.5805,
      "longitude": 48.6829,
      "admin_name1": "Xaçmaz"
    },
    {
      "place_name": "Xocali",
      "postal_code": "AZ 2900",
      "country_code": "AZ",
      "latitude": 39.913,
      "longitude": 46.7903,
      "admin_name1": "Xocali"
    },
    {
      "place_name": "Qaramanli",
      "postal_code": "AZ 6622",
      "country_code": "AZ",
      "latitude": 40.4814,
      "longitude": 46.9934,
      "admin_name1": "Yevlax"
    },
    {
      "place_name": "Salahli",
      "postal_code": "AZ 6631",
      "country_code": "AZ",
      "latitude": 40.689,
      "longitude": 47.0229,
      "admin_name1": "Yevlax"
    },
    {
      "place_name": "Zaqatala",
      "postal_code": "AZ 6200",
      "country_code": "AZ",
      "latitude": 41.6316,
      "longitude": 46.6448,
      "admin_name1": "Zaqatala"
    },
    {
      "place_name": "Aşaği Tala",
      "postal_code": "AZ 6212",
      "country_code": "AZ",
      "latitude": 41.6026,
      "longitude": 46.6521,
      "admin_name1": "Zaqatala"
    },
    {
      "place_name": "Qoruqbaği",
      "postal_code": "AZ 6316",
      "country_code": "AZ",
      "latitude": 40.1904,
      "longitude": 47.548,
      "admin_name1": "Zərdab"
    },
    {
      "place_name": "Ağcabədi",
      "postal_code": "AZ 0400",
      "country_code": "AZ",
      "latitude": 40.0501,
      "longitude": 47.4594,
      "admin_name1": "Ağcabədi"
    },
    {
      "place_name": "Güvəkənd",
      "postal_code": "AZ 0318",
      "country_code": "AZ",
      "latitude": 40.5585,
      "longitude": 47.3942,
      "admin_name1": "Ağdaş"
    },
    {
      "place_name": "Kənd Poylu",
      "postal_code": "AZ 0520",
      "country_code": "AZ",
      "latitude": 41.107,
      "longitude": 45.6362,
      "admin_name1": "Ağstafa"
    },
    {
      "place_name": "Baki-38",
      "postal_code": "AZ 1038",
      "country_code": "AZ",
      "latitude": 39.9179,
      "longitude": 49.2168,
      "admin_name1": "Baki"
    },
    {
      "place_name": "Baki-47",
      "postal_code": "AZ 1047",
      "country_code": "AZ",
      "latitude": 39.9415,
      "longitude": 48.5493,
      "admin_name1": "Baki"
    },
    {
      "place_name": "Baki-61",
      "postal_code": "AZ 1061",
      "country_code": "AZ",
      "latitude": 39.9179,
      "longitude": 49.2168,
      "admin_name1": "Baki"
    },
    {
      "place_name": "Baki-139",
      "postal_code": "AZ 1139",
      "country_code": "AZ",
      "latitude": 40.3777,
      "longitude": 49.892,
      "admin_name1": "Baki"
    },
    {
      "place_name": "Baki-148",
      "postal_code": "AZ 1148",
      "country_code": "AZ",
      "latitude": 40.3777,
      "longitude": 49.892,
      "admin_name1": "Baki"
    },
    {
      "place_name": "Yeni Əyriçə",
      "postal_code": "AZ 0915",
      "country_code": "AZ",
      "latitude": 40.4268,
      "longitude": 47.2338,
      "admin_name1": "Bərdə"
    },
    {
      "place_name": "Mehdixanli",
      "postal_code": "AZ 0928",
      "country_code": "AZ",
      "latitude": 40.4826,
      "longitude": 47.0516,
      "admin_name1": "Bərdə"
    },
    {
      "place_name": "Örənqala",
      "postal_code": "AZ 1227",
      "country_code": "AZ",
      "latitude": 39.8858,
      "longitude": 47.4978,
      "admin_name1": "Beyləqan"
    },
    {
      "place_name": "Slavyanka",
      "postal_code": "AZ 2141",
      "country_code": "AZ",
      "latitude": 40.6566,
      "longitude": 45.8117,
      "admin_name1": "Gədəbəy"
    },
    {
      "place_name": "Ərəbcəbirli",
      "postal_code": "AZ 2331",
      "country_code": "AZ",
      "latitude": 40.5853,
      "longitude": 47.7639,
      "admin_name1": "Göyçay"
    },
    {
      "place_name": "Şəkər",
      "postal_code": "AZ 2333",
      "country_code": "AZ",
      "latitude": 40.5693,
      "longitude": 47.881,
      "admin_name1": "Göyçay"
    },
    {
      "place_name": "Talistan",
      "postal_code": "AZ 3125",
      "country_code": "AZ",
      "latitude": 40.7967,
      "longitude": 48.196,
      "admin_name1": "Ismayilli"
    },
    {
      "place_name": "Şilyan",
      "postal_code": "AZ 3326",
      "country_code": "AZ",
      "latitude": 40.3293,
      "longitude": 48.011,
      "admin_name1": "Kürdəmir"
    },
    {
      "place_name": "Mehdili",
      "postal_code": "AZ 3334",
      "country_code": "AZ",
      "latitude": 40.0459,
      "longitude": 48.2953,
      "admin_name1": "Kürdəmir"
    },
    {
      "place_name": "Göyşaban",
      "postal_code": "AZ 4239",
      "country_code": "AZ",
      "latitude": 38.8058,
      "longitude": 48.8283,
      "admin_name1": "Lənkəran"
    },
    {
      "place_name": "Bilabənd",
      "postal_code": "AZ 4312",
      "country_code": "AZ",
      "latitude": 38.7375,
      "longitude": 48.4265,
      "admin_name1": "Lerik"
    },
    {
      "place_name": "Rvarud",
      "postal_code": "AZ 4329",
      "country_code": "AZ",
      "latitude": 38.6952,
      "longitude": 48.4935,
      "admin_name1": "Lerik"
    },
    {
      "place_name": "Tikəbənd",
      "postal_code": "AZ 4332",
      "country_code": "AZ",
      "latitude": 38.7099,
      "longitude": 48.5456,
      "admin_name1": "Lerik"
    },
    {
      "place_name": "Bədəlan",
      "postal_code": "AZ 4412",
      "country_code": "AZ",
      "latitude": 38.9524,
      "longitude": 48.6846,
      "admin_name1": "Masalli"
    },
    {
      "place_name": "Siğdaş",
      "postal_code": "AZ 4432",
      "country_code": "AZ",
      "latitude": 38.9564,
      "longitude": 48.6162,
      "admin_name1": "Masalli"
    },
    {
      "place_name": "Şixlar",
      "postal_code": "AZ 4440",
      "country_code": "AZ",
      "latitude": 39.023,
      "longitude": 48.7505,
      "admin_name1": "Masalli"
    },
    {
      "place_name": "Qaçaqkənd",
      "postal_code": "AZ 4723",
      "country_code": "AZ",
      "latitude": 39.3904,
      "longitude": 48.7833,
      "admin_name1": "Neftçala"
    },
    {
      "place_name": "Yaqublu",
      "postal_code": "AZ 4826",
      "country_code": "AZ",
      "latitude": 40.9226,
      "longitude": 47.4614,
      "admin_name1": "Oğuz"
    },
    {
      "place_name": "Tasmali",
      "postal_code": "AZ 3425",
      "country_code": "AZ",
      "latitude": 41.4315,
      "longitude": 46.7026,
      "admin_name1": "Qax"
    },
    {
      "place_name": "Zəyəm",
      "postal_code": "AZ 3428",
      "country_code": "AZ",
      "latitude": 41.4121,
      "longitude": 46.6826,
      "admin_name1": "Qax"
    },
    {
      "place_name": "Nügədi-1",
      "postal_code": "AZ 4026",
      "country_code": "AZ",
      "latitude": 41.2695,
      "longitude": 48.4946,
      "admin_name1": "Quba"
    },
    {
      "place_name": "Mollavazli",
      "postal_code": "AZ 4924",
      "country_code": "AZ",
      "latitude": 39.9196,
      "longitude": 48.3451,
      "admin_name1": "Saatli"
    },
    {
      "place_name": "Saracalar",
      "postal_code": "AZ 4928",
      "country_code": "AZ",
      "latitude": 39.8912,
      "longitude": 48.4977,
      "admin_name1": "Saatli"
    },
    {
      "place_name": "6 Sayli",
      "postal_code": "AZ 5506",
      "country_code": "AZ",
      "latitude": 41.1919,
      "longitude": 47.1706,
      "admin_name1": "Şəki"
    },
    {
      "place_name": "1 Sayli",
      "postal_code": "AZ 5201",
      "country_code": "AZ",
      "latitude": 39.5962,
      "longitude": 48.9848,
      "admin_name1": "Salyan"
    },
    {
      "place_name": "Noxudlu",
      "postal_code": "AZ 5224",
      "country_code": "AZ",
      "latitude": 39.6455,
      "longitude": 48.9544,
      "admin_name1": "Salyan"
    },
    {
      "place_name": "2 Sayli Rş",
      "postal_code": "AZ 5102",
      "country_code": "AZ",
      "latitude": 40.7649,
      "longitude": 46.4087,
      "admin_name1": "Samux"
    },
    {
      "place_name": "Institut",
      "postal_code": "AZ 5114",
      "country_code": "AZ",
      "latitude": 40.7214,
      "longitude": 46.4144,
      "admin_name1": "Samux"
    },
    {
      "place_name": "Şuşa",
      "postal_code": "AZ 5800",
      "country_code": "AZ",
      "latitude": 39.7607,
      "longitude": 46.766,
      "admin_name1": "Şuşa"
    },
    {
      "place_name": "Dəmirçilər",
      "postal_code": "AZ 5915",
      "country_code": "AZ",
      "latitude": 40.4222,
      "longitude": 46.8984,
      "admin_name1": "Tər-Tər"
    },
    {
      "place_name": "Qaracalli",
      "postal_code": "AZ 6117",
      "country_code": "AZ",
      "latitude": 40.4416,
      "longitude": 47.8514,
      "admin_name1": "Ucar"
    },
    {
      "place_name": "Lək",
      "postal_code": "AZ 6121",
      "country_code": "AZ",
      "latitude": 40.3759,
      "longitude": 47.6629,
      "admin_name1": "Ucar"
    },
    {
      "place_name": "Qusarçay",
      "postal_code": "AZ 2721",
      "country_code": "AZ",
      "latitude": 41.5716,
      "longitude": 48.7297,
      "admin_name1": "Xaçmaz"
    },
    {
      "place_name": "4 Sayli",
      "postal_code": "AZ 6204",
      "country_code": "AZ",
      "latitude": 41.6316,
      "longitude": 46.6448,
      "admin_name1": "Zaqatala"
    },
    {
      "place_name": "Zərdab",
      "postal_code": "AZ 6300",
      "country_code": "AZ",
      "latitude": 40.2182,
      "longitude": 47.7103,
      "admin_name1": "Zərdab"
    },
    {
      "place_name": "Qaravəlli",
      "postal_code": "AZ 0421",
      "country_code": "AZ",
      "latitude": 40.1696,
      "longitude": 47.7802,
      "admin_name1": "Ağcabədi"
    },
    {
      "place_name": "Eynalli",
      "postal_code": "AZ 0517",
      "country_code": "AZ",
      "latitude": 41.068,
      "longitude": 45.4991,
      "admin_name1": "Ağstafa"
    },
    {
      "place_name": "Muğanli",
      "postal_code": "AZ 0525",
      "country_code": "AZ",
      "latitude": 41.3446,
      "longitude": 45.197,
      "admin_name1": "Ağstafa"
    },
    {
      "place_name": "Ilxiçi",
      "postal_code": "AZ 0620",
      "country_code": "AZ",
      "latitude": 40.4907,
      "longitude": 48.2952,
      "admin_name1": "Ağsu"
    },
    {
      "place_name": "Şirvan",
      "postal_code": "AZ 1800",
      "country_code": "AZ",
      "latitude": 39.9378,
      "longitude": 48.929,
      "admin_name1": "Şirvan"
    },
    {
      "place_name": "Baki-17",
      "postal_code": "AZ 1017",
      "country_code": "AZ",
      "latitude": 39.9179,
      "longitude": 49.2168,
      "admin_name1": "Baki"
    },
    {
      "place_name": "Baki-43",
      "postal_code": "AZ 1043",
      "country_code": "AZ",
      "latitude": 39.9415,
      "longitude": 48.5493,
      "admin_name1": "Baki"
    },
    {
      "place_name": "Baki-46",
      "postal_code": "AZ 1046",
      "country_code": "AZ",
      "latitude": 39.9415,
      "longitude": 48.5493,
      "admin_name1": "Baki"
    },
    {
      "place_name": "Baki-98",
      "postal_code": "AZ 1098",
      "country_code": "AZ",
      "latitude": 39.9179,
      "longitude": 49.2168,
      "admin_name1": "Baki"
    },
    {
      "place_name": "Baki-137",
      "postal_code": "AZ 1137",
      "country_code": "AZ",
      "latitude": 40.3777,
      "longitude": 49.892,
      "admin_name1": "Baki"
    },
    {
      "place_name": "Tülü",
      "postal_code": "AZ 0830",
      "country_code": "AZ",
      "latitude": 41.7272,
      "longitude": 46.3698,
      "admin_name1": "Balakən"
    },
    {
      "place_name": "Alpout",
      "postal_code": "AZ 0911",
      "country_code": "AZ",
      "latitude": 40.3242,
      "longitude": 47.2019,
      "admin_name1": "Bərdə"
    },
    {
      "place_name": "Yuxari Çəmənli",
      "postal_code": "AZ 1234",
      "country_code": "AZ",
      "latitude": 39.6725,
      "longitude": 47.7938,
      "admin_name1": "Beyləqan"
    },
    {
      "place_name": "Xan Qərvənd",
      "postal_code": "AZ 2223",
      "country_code": "AZ",
      "latitude": 40.4949,
      "longitude": 46.8934,
      "admin_name1": "Goranboy"
    },
    {
      "place_name": "Səmədabad",
      "postal_code": "AZ 2248",
      "country_code": "AZ",
      "latitude": 40.6823,
      "longitude": 46.6505,
      "admin_name1": "Goranboy"
    },
    {
      "place_name": "Qubaxəlilli",
      "postal_code": "AZ 3121",
      "country_code": "AZ",
      "latitude": 40.6119,
      "longitude": 48.1252,
      "admin_name1": "Ismayilli"
    },
    {
      "place_name": "Xirdapay",
      "postal_code": "AZ 3315",
      "country_code": "AZ",
      "latitude": 40.3647,
      "longitude": 48.1544,
      "admin_name1": "Kürdəmir"
    },
    {
      "place_name": "Sor-Sor",
      "postal_code": "AZ 3324",
      "country_code": "AZ",
      "latitude": 40.299,
      "longitude": 48.1701,
      "admin_name1": "Kürdəmir"
    },
    {
      "place_name": "Türkoba",
      "postal_code": "AZ 4437",
      "country_code": "AZ",
      "latitude": 38.9184,
      "longitude": 48.7048,
      "admin_name1": "Masalli"
    },
    {
      "place_name": "Yeyənkənd",
      "postal_code": "AZ 4439",
      "country_code": "AZ",
      "latitude": 39.0277,
      "longitude": 48.6103,
      "admin_name1": "Masalli"
    },
    {
      "place_name": "Bankə",
      "postal_code": "AZ 4713",
      "country_code": "AZ",
      "latitude": 39.4112,
      "longitude": 49.2479,
      "admin_name1": "Neftçala"
    },
    {
      "place_name": "Boyat",
      "postal_code": "AZ 4715",
      "country_code": "AZ",
      "latitude": 39.3996,
      "longitude": 49.0847,
      "admin_name1": "Neftçala"
    },
    {
      "place_name": "Həmzəlli",
      "postal_code": "AZ 3617",
      "country_code": "AZ",
      "latitude": 40.9023,
      "longitude": 47.7814,
      "admin_name1": "Qəbələ"
    },
    {
      "place_name": "Qax",
      "postal_code": "AZ 3400",
      "country_code": "AZ",
      "latitude": 41.4183,
      "longitude": 46.9204,
      "admin_name1": "Qax"
    },
    {
      "place_name": "Almali",
      "postal_code": "AZ 3412",
      "country_code": "AZ",
      "latitude": 41.3397,
      "longitude": 46.764,
      "admin_name1": "Qax"
    },
    {
      "place_name": "Qorağan",
      "postal_code": "AZ 3420",
      "country_code": "AZ",
      "latitude": 41.3815,
      "longitude": 46.7312,
      "admin_name1": "Qax"
    },
    {
      "place_name": "Qipçaq",
      "postal_code": "AZ 3422",
      "country_code": "AZ",
      "latitude": 41.3025,
      "longitude": 46.8281,
      "admin_name1": "Qax"
    },
    {
      "place_name": "Ləkit",
      "postal_code": "AZ 3424",
      "country_code": "AZ",
      "latitude": 41.4839,
      "longitude": 46.849,
      "admin_name1": "Qax"
    },
    {
      "place_name": "Qəçrəş",
      "postal_code": "AZ 4023",
      "country_code": "AZ",
      "latitude": 41.3216,
      "longitude": 48.3869,
      "admin_name1": "Quba"
    },
    {
      "place_name": "Qonaqkənd",
      "postal_code": "AZ 4025",
      "country_code": "AZ",
      "latitude": 41.0731,
      "longitude": 48.6084,
      "admin_name1": "Quba"
    },
    {
      "place_name": "Şirinbəyli",
      "postal_code": "AZ 4929",
      "country_code": "AZ",
      "latitude": 39.8707,
      "longitude": 48.5136,
      "admin_name1": "Saatli"
    },
    {
      "place_name": "Surra",
      "postal_code": "AZ 5433",
      "country_code": "AZ",
      "latitude": 40.0785,
      "longitude": 48.5302,
      "admin_name1": "Sabirabad"
    },
    {
      "place_name": "Kür Qaraqaşli",
      "postal_code": "AZ 5218",
      "country_code": "AZ",
      "latitude": 39.5802,
      "longitude": 48.9803,
      "admin_name1": "Salyan"
    },
    {
      "place_name": "Məlhəm",
      "postal_code": "AZ 5629",
      "country_code": "AZ",
      "latitude": 40.6899,
      "longitude": 48.6316,
      "admin_name1": "Şamaxi"
    },
    {
      "place_name": "Düz Cirdaxan",
      "postal_code": "AZ 6024",
      "country_code": "AZ",
      "latitude": 41.0184,
      "longitude": 45.6091,
      "admin_name1": "Tovuz"
    },
    {
      "place_name": "Qaradağli",
      "postal_code": "AZ 6118",
      "country_code": "AZ",
      "latitude": 40.4905,
      "longitude": 47.5723,
      "admin_name1": "Ucar"
    },
    {
      "place_name": "Poylu Vağzal",
      "postal_code": "AZ 0527",
      "country_code": "AZ",
      "latitude": 41.107,
      "longitude": 45.6362,
      "admin_name1": "Ağstafa"
    },
    {
      "place_name": "Ağsu",
      "postal_code": "AZ 0600",
      "country_code": "AZ",
      "latitude": 40.5703,
      "longitude": 48.4009,
      "admin_name1": "Ağsu"
    },
    {
      "place_name": "Çaparli",
      "postal_code": "AZ 0614",
      "country_code": "AZ",
      "latitude": 40.5096,
      "longitude": 48.4538,
      "admin_name1": "Ağsu"
    },
    {
      "place_name": "Siyəkü",
      "postal_code": "AZ 0720",
      "country_code": "AZ",
      "latitude": 38.5229,
      "longitude": 48.8251,
      "admin_name1": "Astara"
    },
    {
      "place_name": "Baki-25",
      "postal_code": "AZ 1025",
      "country_code": "AZ",
      "latitude": 39.3138,
      "longitude": 49.2072,
      "admin_name1": "Baki"
    },
    {
      "place_name": "Baki-56",
      "postal_code": "AZ 1056",
      "country_code": "AZ",
      "latitude": 39.9179,
      "longitude": 49.2168,
      "admin_name1": "Baki"
    },
    {
      "place_name": "Elet Liman Gomruk",
      "postal_code": "AZ 1170",
      "country_code": "AZ",
      "latitude": 40.3777,
      "longitude": 49.892,
      "admin_name1": "Baki"
    },
    {
      "place_name": "Kortala",
      "postal_code": "AZ 0817",
      "country_code": "AZ",
      "latitude": 41.6148,
      "longitude": 46.3818,
      "admin_name1": "Balakən"
    },
    {
      "place_name": "Qazaxlar",
      "postal_code": "AZ 0914",
      "country_code": "AZ",
      "latitude": 40.4197,
      "longitude": 47.0234,
      "admin_name1": "Bərdə"
    },
    {
      "place_name": "Həsənqaya",
      "postal_code": "AZ 0919",
      "country_code": "AZ",
      "latitude": 40.4442,
      "longitude": 47.079,
      "admin_name1": "Bərdə"
    },
    {
      "place_name": "Qarazəncir",
      "postal_code": "AZ 1521",
      "country_code": "AZ",
      "latitude": 39.2633,
      "longitude": 48.5084,
      "admin_name1": "Cəlilabad"
    },
    {
      "place_name": "Füzuli",
      "postal_code": "AZ 1900",
      "country_code": "AZ",
      "latitude": 39.6009,
      "longitude": 47.1453,
      "admin_name1": "Füzuli"
    },
    {
      "place_name": "Göyəlli",
      "postal_code": "AZ 2124",
      "country_code": "AZ",
      "latitude": 40.6946,
      "longitude": 45.4225,
      "admin_name1": "Gədəbəy"
    },
    {
      "place_name": "Qizil Hacili",
      "postal_code": "AZ 2231",
      "country_code": "AZ",
      "latitude": 40.5896,
      "longitude": 46.6364,
      "admin_name1": "Goranboy"
    },
    {
      "place_name": "Məzrəli",
      "postal_code": "AZ 3029",
      "country_code": "AZ",
      "latitude": 39.7728,
      "longitude": 48.0298,
      "admin_name1": "Imişli"
    },
    {
      "place_name": "Topçu",
      "postal_code": "AZ 3128",
      "country_code": "AZ",
      "latitude": 40.8749,
      "longitude": 48.0637,
      "admin_name1": "Ismayilli"
    },
    {
      "place_name": "Liman",
      "postal_code": "AZ 4222",
      "country_code": "AZ",
      "latitude": 38.8742,
      "longitude": 48.8083,
      "admin_name1": "Lənkəran"
    },
    {
      "place_name": "Lürən",
      "postal_code": "AZ 4444",
      "country_code": "AZ",
      "latitude": 38.991,
      "longitude": 48.6817,
      "admin_name1": "Masalli"
    },
    {
      "place_name": "Aşaği Surra",
      "postal_code": "AZ 4712",
      "country_code": "AZ",
      "latitude": 39.4808,
      "longitude": 49.0082,
      "admin_name1": "Neftçala"
    },
    {
      "place_name": "Kərimli",
      "postal_code": "AZ 4819",
      "country_code": "AZ",
      "latitude": 40.9772,
      "longitude": 47.4865,
      "admin_name1": "Oğuz"
    },
    {
      "place_name": "Nic-2",
      "postal_code": "AZ 3624",
      "country_code": "AZ",
      "latitude": 40.902,
      "longitude": 47.8192,
      "admin_name1": "Qəbələ"
    },
    {
      "place_name": "Qaragüney",
      "postal_code": "AZ 5424",
      "country_code": "AZ",
      "latitude": 39.9707,
      "longitude": 48.8499,
      "admin_name1": "Sabirabad"
    },
    {
      "place_name": "Şix Salahli",
      "postal_code": "AZ 5437",
      "country_code": "AZ",
      "latitude": 39.9927,
      "longitude": 48.8068,
      "admin_name1": "Sabirabad"
    },
    {
      "place_name": "Kiçik Dəhnə",
      "postal_code": "AZ 5524",
      "country_code": "AZ",
      "latitude": 40.9942,
      "longitude": 47.0803,
      "admin_name1": "Şəki"
    },
    {
      "place_name": "Qaraçala",
      "postal_code": "AZ 5221",
      "country_code": "AZ",
      "latitude": 39.8161,
      "longitude": 48.9379,
      "admin_name1": "Salyan"
    },
    {
      "place_name": "Dəllər",
      "postal_code": "AZ 5715",
      "country_code": "AZ",
      "latitude": 40.8628,
      "longitude": 46.0349,
      "admin_name1": "Şəmkir"
    },
    {
      "place_name": "Qarayeri",
      "postal_code": "AZ 5116",
      "country_code": "AZ",
      "latitude": 40.7872,
      "longitude": 46.3171,
      "admin_name1": "Samux"
    },
    {
      "place_name": "Yenikənd",
      "postal_code": "AZ 5312",
      "country_code": "AZ",
      "latitude": 41.1642,
      "longitude": 49.0839,
      "admin_name1": "Siyəzən"
    },
    {
      "place_name": "8 Sayli",
      "postal_code": "AZ 5008",
      "country_code": "AZ",
      "latitude": 40.5897,
      "longitude": 49.6686,
      "admin_name1": "Sumqayit"
    },
    {
      "place_name": "Yanixli",
      "postal_code": "AZ 6039",
      "country_code": "AZ",
      "latitude": 41.0112,
      "longitude": 45.6783,
      "admin_name1": "Tovuz"
    },
    {
      "place_name": "Ibrahimhacili",
      "postal_code": "AZ 6041",
      "country_code": "AZ",
      "latitude": 40.8966,
      "longitude": 45.7471,
      "admin_name1": "Tovuz"
    },
    {
      "place_name": "Xaçmaz",
      "postal_code": "AZ 2700",
      "country_code": "AZ",
      "latitude": 41.4643,
      "longitude": 48.8057,
      "admin_name1": "Xaçmaz"
    },
    {
      "place_name": "Yevlax",
      "postal_code": "AZ 6600",
      "country_code": "AZ",
      "latitude": 40.6183,
      "longitude": 47.1501,
      "admin_name1": "Yevlax"
    },
    {
      "place_name": "5 Sayli",
      "postal_code": "AZ 6605",
      "country_code": "AZ",
      "latitude": 40.6183,
      "longitude": 47.1501,
      "admin_name1": "Yevlax"
    },
    {
      "place_name": "Kükəl",
      "postal_code": "AZ 0321",
      "country_code": "AZ",
      "latitude": 40.6709,
      "longitude": 47.5679,
      "admin_name1": "Ağdaş"
    },
    {
      "place_name": "Ərəbuşaği",
      "postal_code": "AZ 0617",
      "country_code": "AZ",
      "latitude": 40.5274,
      "longitude": 48.4156,
      "admin_name1": "Ağsu"
    },
    {
      "place_name": "Baki-113",
      "postal_code": "AZ 1113",
      "country_code": "AZ",
      "latitude": 40.3777,
      "longitude": 49.892,
      "admin_name1": "Baki"
    },
    {
      "place_name": "Baki-116",
      "postal_code": "AZ 1116",
      "country_code": "AZ",
      "latitude": 40.3777,
      "longitude": 49.892,
      "admin_name1": "Baki"
    },
    {
      "place_name": "Baki-120",
      "postal_code": "AZ 1120",
      "country_code": "AZ",
      "latitude": 40.3777,
      "longitude": 49.892,
      "admin_name1": "Baki"
    },
    {
      "place_name": "Baki-147",
      "postal_code": "AZ 1147",
      "country_code": "AZ",
      "latitude": 40.3777,
      "longitude": 49.892,
      "admin_name1": "Baki"
    },
    {
      "place_name": "Hava Limani Baki Gomruk",
      "postal_code": "AZ 1156",
      "country_code": "AZ",
      "latitude": 40.3777,
      "longitude": 49.892,
      "admin_name1": "Baki"
    },
    {
      "place_name": "Qobu Park",
      "postal_code": "AZ 1158",
      "country_code": "AZ",
      "latitude": 40.3777,
      "longitude": 49.892,
      "admin_name1": "Baki"
    },
    {
      "place_name": "Şambul",
      "postal_code": "AZ 0827",
      "country_code": "AZ",
      "latitude": 41.6921,
      "longitude": 46.272,
      "admin_name1": "Balakən"
    },
    {
      "place_name": "Əliqasimli",
      "postal_code": "AZ 1529",
      "country_code": "AZ",
      "latitude": 39.2866,
      "longitude": 48.4569,
      "admin_name1": "Cəlilabad"
    },
    {
      "place_name": "Bayan",
      "postal_code": "AZ 1613",
      "country_code": "AZ",
      "latitude": 40.5538,
      "longitude": 46.1504,
      "admin_name1": "Daşkəsən"
    },
    {
      "place_name": "Horadiz Qəsəbə",
      "postal_code": "AZ 1924",
      "country_code": "AZ",
      "latitude": 39.5656,
      "longitude": 47.5516,
      "admin_name1": "Füzuli"
    },
    {
      "place_name": "Çərəkə",
      "postal_code": "AZ 2317",
      "country_code": "AZ",
      "latitude": 40.5614,
      "longitude": 47.6872,
      "admin_name1": "Göyçay"
    },
    {
      "place_name": "Qubali Balaoğlan",
      "postal_code": "AZ 2420",
      "country_code": "AZ",
      "latitude": 40.0817,
      "longitude": 48.8907,
      "admin_name1": "Haciqabul"
    },
    {
      "place_name": "Laçin",
      "postal_code": "AZ 4100",
      "country_code": "AZ",
      "latitude": 39.5988,
      "longitude": 46.5504,
      "admin_name1": "Laçin"
    },
    {
      "place_name": "Boladi",
      "postal_code": "AZ 4212",
      "country_code": "AZ",
      "latitude": 38.8904,
      "longitude": 48.7658,
      "admin_name1": "Lənkəran"
    },
    {
      "place_name": "Xilmilli",
      "postal_code": "AZ 3714",
      "country_code": "AZ",
      "latitude": 40.6913,
      "longitude": 48.8665,
      "admin_name1": "Qobustan"
    },
    {
      "place_name": "Poladli",
      "postal_code": "AZ 3717",
      "country_code": "AZ",
      "latitude": 40.42,
      "longitude": 48.8176,
      "admin_name1": "Qobustan"
    },
    {
      "place_name": "Gədəzeyxur",
      "postal_code": "AZ 3817",
      "country_code": "AZ",
      "latitude": 41.4884,
      "longitude": 48.4242,
      "admin_name1": "Qusar"
    },
    {
      "place_name": "Samur Sdk Gömrük",
      "postal_code": "AZ 3840",
      "country_code": "AZ",
      "latitude": 41.4806,
      "longitude": 48.3501,
      "admin_name1": "Qusar"
    },
    {
      "place_name": "Qiraqli",
      "postal_code": "AZ 4921",
      "country_code": "AZ",
      "latitude": 39.9449,
      "longitude": 48.392,
      "admin_name1": "Saatli"
    },
    {
      "place_name": "Nərimankənd",
      "postal_code": "AZ 4925",
      "country_code": "AZ",
      "latitude": 39.8912,
      "longitude": 48.4977,
      "admin_name1": "Saatli"
    },
    {
      "place_name": "Aşaği Küngüt",
      "postal_code": "AZ 5512",
      "country_code": "AZ",
      "latitude": 41.065,
      "longitude": 47.2546,
      "admin_name1": "Şəki"
    },
    {
      "place_name": "Çuxanli",
      "postal_code": "AZ 5213",
      "country_code": "AZ",
      "latitude": 39.6396,
      "longitude": 48.9728,
      "admin_name1": "Salyan"
    },
    {
      "place_name": "Haciəlibəy",
      "postal_code": "AZ 2714",
      "country_code": "AZ",
      "latitude": 41.4072,
      "longitude": 48.6992,
      "admin_name1": "Xaçmaz"
    },
    {
      "place_name": "Ləcət",
      "postal_code": "AZ 2722",
      "country_code": "AZ",
      "latitude": 41.6962,
      "longitude": 48.6256,
      "admin_name1": "Xaçmaz"
    },
    {
      "place_name": "Aşaği Bucaq",
      "postal_code": "AZ 6613",
      "country_code": "AZ",
      "latitude": 40.7215,
      "longitude": 47.2095,
      "admin_name1": "Yevlax"
    },
    {
      "place_name": "Tanriqullar",
      "postal_code": "AZ 6633",
      "country_code": "AZ",
      "latitude": 40.6826,
      "longitude": 47.133,
      "admin_name1": "Yevlax"
    },
    {
      "place_name": "Hindarx",
      "postal_code": "AZ 0415",
      "country_code": "AZ",
      "latitude": 40.0687,
      "longitude": 47.2078,
      "admin_name1": "Ağcabədi"
    },
    {
      "place_name": "Kakalos",
      "postal_code": "AZ 0714",
      "country_code": "AZ",
      "latitude": 38.6114,
      "longitude": 48.8429,
      "admin_name1": "Astara"
    },
    {
      "place_name": "Baki-15",
      "postal_code": "AZ 1015",
      "country_code": "AZ",
      "latitude": 39.9179,
      "longitude": 49.2168,
      "admin_name1": "Baki"
    },
    {
      "place_name": "Baki-42",
      "postal_code": "AZ 1042",
      "country_code": "AZ",
      "latitude": 39.9415,
      "longitude": 48.5493,
      "admin_name1": "Baki"
    },
    {
      "place_name": "Baki-52",
      "postal_code": "AZ 1052",
      "country_code": "AZ",
      "latitude": 39.9179,
      "longitude": 49.2168,
      "admin_name1": "Baki"
    },
    {
      "place_name": "Baki-54",
      "postal_code": "AZ 1054",
      "country_code": "AZ",
      "latitude": 39.9179,
      "longitude": 49.2168,
      "admin_name1": "Baki"
    },
    {
      "place_name": "Baki-90",
      "postal_code": "AZ 1090",
      "country_code": "AZ",
      "latitude": 39.9179,
      "longitude": 49.2168,
      "admin_name1": "Baki"
    },
    {
      "place_name": "Baki-97",
      "postal_code": "AZ 1097",
      "country_code": "AZ",
      "latitude": 39.9179,
      "longitude": 49.2168,
      "admin_name1": "Baki"
    },
    {
      "place_name": "Baki-143",
      "postal_code": "AZ 1143",
      "country_code": "AZ",
      "latitude": 40.3777,
      "longitude": 49.892,
      "admin_name1": "Baki"
    },
    {
      "place_name": "Hənifə",
      "postal_code": "AZ 0812",
      "country_code": "AZ",
      "latitude": 41.7128,
      "longitude": 46.4073,
      "admin_name1": "Balakən"
    },
    {
      "place_name": "Ititala",
      "postal_code": "AZ 0814",
      "country_code": "AZ",
      "latitude": 41.5813,
      "longitude": 46.3673,
      "admin_name1": "Balakən"
    },
    {
      "place_name": "Qullar",
      "postal_code": "AZ 0822",
      "country_code": "AZ",
      "latitude": 41.7312,
      "longitude": 46.4328,
      "admin_name1": "Balakən"
    },
    {
      "place_name": "Mirzəlibəyli",
      "postal_code": "AZ 0933",
      "country_code": "AZ",
      "latitude": 40.5415,
      "longitude": 46.9371,
      "admin_name1": "Bərdə"
    },
    {
      "place_name": "Daşkəsən",
      "postal_code": "AZ 1600",
      "country_code": "AZ",
      "latitude": 40.5239,
      "longitude": 46.0819,
      "admin_name1": "Daşkəsən"
    },
    {
      "place_name": "Çöhranli",
      "postal_code": "AZ 3333",
      "country_code": "AZ",
      "latitude": 40.2829,
      "longitude": 48.1919,
      "admin_name1": "Kürdəmir"
    },
    {
      "place_name": "Mahmudavar",
      "postal_code": "AZ 4429",
      "country_code": "AZ",
      "latitude": 38.8939,
      "longitude": 48.7014,
      "admin_name1": "Masalli"
    },
    {
      "place_name": "Oncakələ",
      "postal_code": "AZ 4441",
      "country_code": "AZ",
      "latitude": 39.037,
      "longitude": 48.6835,
      "admin_name1": "Masalli"
    },
    {
      "place_name": "Kürkənd",
      "postal_code": "AZ 4729",
      "country_code": "AZ",
      "latitude": 39.4021,
      "longitude": 49.2592,
      "admin_name1": "Neftçala"
    },
    {
      "place_name": "Mixliqovaq",
      "postal_code": "AZ 3621",
      "country_code": "AZ",
      "latitude": 40.9767,
      "longitude": 47.7066,
      "admin_name1": "Qəbələ"
    },
    {
      "place_name": "Minbaşi",
      "postal_code": "AZ 5429",
      "country_code": "AZ",
      "latitude": 39.9229,
      "longitude": 48.8778,
      "admin_name1": "Sabirabad"
    },
    {
      "place_name": "Cabani",
      "postal_code": "AZ 5613",
      "country_code": "AZ",
      "latitude": 40.6692,
      "longitude": 48.7079,
      "admin_name1": "Şamaxi"
    },
    {
      "place_name": "Sabir",
      "postal_code": "AZ 5619",
      "country_code": "AZ",
      "latitude": 40.586,
      "longitude": 48.7067,
      "admin_name1": "Şamaxi"
    },
    {
      "place_name": "Quşçu",
      "postal_code": "AZ 5620",
      "country_code": "AZ",
      "latitude": 40.4364,
      "longitude": 48.7355,
      "admin_name1": "Şamaxi"
    },
    {
      "place_name": "Aşaği Quşçu",
      "postal_code": "AZ 6015",
      "country_code": "AZ",
      "latitude": 40.9571,
      "longitude": 45.6804,
      "admin_name1": "Tovuz"
    },
    {
      "place_name": "Ucar",
      "postal_code": "AZ 6100",
      "country_code": "AZ",
      "latitude": 40.519,
      "longitude": 47.6542,
      "admin_name1": "Ucar"
    },
    {
      "place_name": "Məlikballi",
      "postal_code": "AZ 6126",
      "country_code": "AZ",
      "latitude": 40.5472,
      "longitude": 47.5436,
      "admin_name1": "Ucar"
    },
    {
      "place_name": "Nərimanabad",
      "postal_code": "AZ 6614",
      "country_code": "AZ",
      "latitude": 40.7182,
      "longitude": 47.1452,
      "admin_name1": "Yevlax"
    },
    {
      "place_name": "Goradil-2",
      "postal_code": "AZ 0131",
      "country_code": "AZ",
      "latitude": 40.4982,
      "longitude": 49.7582,
      "admin_name1": "Abşeron"
    },
    {
      "place_name": "Müşviqabad",
      "postal_code": "AZ 0155",
      "country_code": "AZ",
      "latitude": 40.4982,
      "longitude": 49.7582,
      "admin_name1": "Abşeron"
    },
    {
      "place_name": "Yuxari Qiyamadinli",
      "postal_code": "AZ 0422",
      "country_code": "AZ",
      "latitude": 40.0601,
      "longitude": 47.4194,
      "admin_name1": "Ağcabədi"
    },
    {
      "place_name": "Ağdam",
      "postal_code": "AZ 0200",
      "country_code": "AZ",
      "latitude": 40.002,
      "longitude": 46.9545,
      "admin_name1": "Ağdam"
    },
    {
      "place_name": "Quzanli",
      "postal_code": "AZ 0233",
      "country_code": "AZ",
      "latitude": 40.1591,
      "longitude": 47.1653,
      "admin_name1": "Ağdam"
    },
    {
      "place_name": "Ləki",
      "postal_code": "AZ 0325",
      "country_code": "AZ",
      "latitude": 40.57,
      "longitude": 47.4522,
      "admin_name1": "Ağdaş"
    },
    {
      "place_name": "Rəhimli",
      "postal_code": "AZ 0630",
      "country_code": "AZ",
      "latitude": 40.4477,
      "longitude": 48.3826,
      "admin_name1": "Ağsu"
    },
    {
      "place_name": "Ərçivan",
      "postal_code": "AZ 0711",
      "country_code": "AZ",
      "latitude": 38.5043,
      "longitude": 48.8316,
      "admin_name1": "Astara"
    },
    {
      "place_name": "Şiyəkəran",
      "postal_code": "AZ 0723",
      "country_code": "AZ",
      "latitude": 38.5576,
      "longitude": 48.8694,
      "admin_name1": "Astara"
    },
    {
      "place_name": "Təngərüd",
      "postal_code": "AZ 0725",
      "country_code": "AZ",
      "latitude": 38.578,
      "longitude": 48.8167,
      "admin_name1": "Astara"
    },
    {
      "place_name": "Baki-4",
      "postal_code": "AZ 1004",
      "country_code": "AZ",
      "latitude": 40.3777,
      "longitude": 49.892,
      "admin_name1": "Baki"
    },
    {
      "place_name": "Baki-8",
      "postal_code": "AZ 1008",
      "country_code": "AZ",
      "latitude": 40.3777,
      "longitude": 49.892,
      "admin_name1": "Baki"
    },
    {
      "place_name": "Baki-21",
      "postal_code": "AZ 1021",
      "country_code": "AZ",
      "latitude": 39.3138,
      "longitude": 49.2072,
      "admin_name1": "Baki"
    },
    {
      "place_name": "Baki-40",
      "postal_code": "AZ 1040",
      "country_code": "AZ",
      "latitude": 39.9415,
      "longitude": 48.5493,
      "admin_name1": "Baki"
    },
    {
      "place_name": "Baki-63",
      "postal_code": "AZ 1063",
      "country_code": "AZ",
      "latitude": 39.9179,
      "longitude": 49.2168,
      "admin_name1": "Baki"
    },
    {
      "place_name": "Baki-76",
      "postal_code": "AZ 1076",
      "country_code": "AZ",
      "latitude": 39.9179,
      "longitude": 49.2168,
      "admin_name1": "Baki"
    },
    {
      "place_name": "Baki-110",
      "postal_code": "AZ 1110",
      "country_code": "AZ",
      "latitude": 40.3777,
      "longitude": 49.892,
      "admin_name1": "Baki"
    },
    {
      "place_name": "Baki-112",
      "postal_code": "AZ 1112",
      "country_code": "AZ",
      "latitude": 40.3777,
      "longitude": 49.892,
      "admin_name1": "Baki"
    },
    {
      "place_name": "Böyük Göyüşlü",
      "postal_code": "AZ 0913",
      "country_code": "AZ",
      "latitude": 40.3453,
      "longitude": 47.2252,
      "admin_name1": "Bərdə"
    },
    {
      "place_name": "Xalaç",
      "postal_code": "AZ 1220",
      "country_code": "AZ",
      "latitude": 39.808,
      "longitude": 47.5591,
      "admin_name1": "Beyləqan"
    },
    {
      "place_name": "Şahsevən-2",
      "postal_code": "AZ 1228",
      "country_code": "AZ",
      "latitude": 39.808,
      "longitude": 47.5591,
      "admin_name1": "Beyləqan"
    },
    {
      "place_name": "Bala Bəhmənli",
      "postal_code": "AZ 1917",
      "country_code": "AZ",
      "latitude": 39.5527,
      "longitude": 47.5921,
      "admin_name1": "Füzuli"
    },
    {
      "place_name": "Saratovka",
      "postal_code": "AZ 2140",
      "country_code": "AZ",
      "latitude": 40.5981,
      "longitude": 45.6008,
      "admin_name1": "Gədəbəy"
    },
    {
      "place_name": "12 Sayli",
      "postal_code": "AZ 2012",
      "country_code": "AZ",
      "latitude": 40.6828,
      "longitude": 46.3606,
      "admin_name1": "Gəncə"
    },
    {
      "place_name": "24 Sayli",
      "postal_code": "AZ 2024",
      "country_code": "AZ",
      "latitude": 40.6828,
      "longitude": 46.3606,
      "admin_name1": "Gəncə"
    },
    {
      "place_name": "Goranboy",
      "postal_code": "AZ 2200",
      "country_code": "AZ",
      "latitude": 40.6103,
      "longitude": 46.7897,
      "admin_name1": "Goranboy"
    },
    {
      "place_name": "Udulu",
      "postal_code": "AZ 2419",
      "country_code": "AZ",
      "latitude": 40.2625,
      "longitude": 48.8688,
      "admin_name1": "Haciqabul"
    },
    {
      "place_name": "Ruşan",
      "postal_code": "AZ 3124",
      "country_code": "AZ",
      "latitude": 40.8027,
      "longitude": 47.9993,
      "admin_name1": "Ismayilli"
    },
    {
      "place_name": "Əliabad",
      "postal_code": "AZ 4318",
      "country_code": "AZ",
      "latitude": 38.7475,
      "longitude": 48.4685,
      "admin_name1": "Lerik"
    },
    {
      "place_name": "Kirəvud",
      "postal_code": "AZ 4321",
      "country_code": "AZ",
      "latitude": 38.876,
      "longitude": 48.4467,
      "admin_name1": "Lerik"
    },
    {
      "place_name": "Masalli",
      "postal_code": "AZ 4400",
      "country_code": "AZ",
      "latitude": 39.0353,
      "longitude": 48.6654,
      "admin_name1": "Masalli"
    },
    {
      "place_name": "Güllütəpə",
      "postal_code": "AZ 4417",
      "country_code": "AZ",
      "latitude": 39.0493,
      "longitude": 48.5759,
      "admin_name1": "Masalli"
    },
    {
      "place_name": "7 Sayli",
      "postal_code": "AZ 4507",
      "country_code": "AZ",
      "latitude": 40.7639,
      "longitude": 47.0595,
      "admin_name1": "Mingəçevir"
    },
    {
      "place_name": "Naftalan",
      "postal_code": "AZ 4600",
      "country_code": "AZ",
      "latitude": 40.5082,
      "longitude": 46.8203,
      "admin_name1": "Naftalan"
    },
    {
      "place_name": "Şirvanli",
      "postal_code": "AZ 4825",
      "country_code": "AZ",
      "latitude": 41.0191,
      "longitude": 47.5019,
      "admin_name1": "Oğuz"
    },
    {
      "place_name": "Zaragan-1",
      "postal_code": "AZ 3638",
      "country_code": "AZ",
      "latitude": 40.938,
      "longitude": 47.8511,
      "admin_name1": "Qəbələ"
    },
    {
      "place_name": "Kötüklü",
      "postal_code": "AZ 3418",
      "country_code": "AZ",
      "latitude": 41.4234,
      "longitude": 46.8704,
      "admin_name1": "Qax"
    },
    {
      "place_name": "Əhmədabad",
      "postal_code": "AZ 5418",
      "country_code": "AZ",
      "latitude": 39.9963,
      "longitude": 48.618,
      "admin_name1": "Sabirabad"
    },
    {
      "place_name": "Moranli",
      "postal_code": "AZ 5430",
      "country_code": "AZ",
      "latitude": 39.7868,
      "longitude": 48.7381,
      "admin_name1": "Sabirabad"
    },
    {
      "place_name": "Ulacali",
      "postal_code": "AZ 5439",
      "country_code": "AZ",
      "latitude": 40.0706,
      "longitude": 48.5939,
      "admin_name1": "Sabirabad"
    },
    {
      "place_name": "Baş Küngüt",
      "postal_code": "AZ 5515",
      "country_code": "AZ",
      "latitude": 41.162,
      "longitude": 47.3233,
      "admin_name1": "Şəki"
    },
    {
      "place_name": "Orta Zəyzit",
      "postal_code": "AZ 5528",
      "country_code": "AZ",
      "latitude": 41.1697,
      "longitude": 47.2479,
      "admin_name1": "Şəki"
    },
    {
      "place_name": "Həmyə",
      "postal_code": "AZ 5313",
      "country_code": "AZ",
      "latitude": 41.069,
      "longitude": 49.0907,
      "admin_name1": "Siyəzən"
    },
    {
      "place_name": "Sumqayit",
      "postal_code": "AZ 5000",
      "country_code": "AZ",
      "latitude": 40.5897,
      "longitude": 49.6686,
      "admin_name1": "Sumqayit"
    },
    {
      "place_name": "3 Sayli",
      "postal_code": "AZ 5003",
      "country_code": "AZ",
      "latitude": 40.5897,
      "longitude": 49.6686,
      "admin_name1": "Sumqayit"
    },
    {
      "place_name": "Mulkulu",
      "postal_code": "AZ 6044",
      "country_code": "AZ",
      "latitude": 40.9458,
      "longitude": 45.5029,
      "admin_name1": "Tovuz"
    },
    {
      "place_name": "Nərəcan",
      "postal_code": "AZ 2725",
      "country_code": "AZ",
      "latitude": 41.5355,
      "longitude": 48.746,
      "admin_name1": "Xaçmaz"
    },
    {
      "place_name": "Niyazoba",
      "postal_code": "AZ 2726",
      "country_code": "AZ",
      "latitude": 41.5174,
      "longitude": 48.915,
      "admin_name1": "Xaçmaz"
    },
    {
      "place_name": "Yergüc",
      "postal_code": "AZ 2732",
      "country_code": "AZ",
      "latitude": 41.4229,
      "longitude": 48.7434,
      "admin_name1": "Xaçmaz"
    },
    {
      "place_name": "Üçünsü Tala",
      "postal_code": "AZ 6217",
      "country_code": "AZ",
      "latitude": 41.5671,
      "longitude": 46.6177,
      "admin_name1": "Zaqatala"
    },
    {
      "place_name": "Mosul",
      "postal_code": "AZ 6231",
      "country_code": "AZ",
      "latitude": 41.4448,
      "longitude": 46.5722,
      "admin_name1": "Zaqatala"
    },
    {
      "place_name": "Muxax",
      "postal_code": "AZ 6233",
      "country_code": "AZ",
      "latitude": 41.5707,
      "longitude": 46.7067,
      "admin_name1": "Zaqatala"
    },
    {
      "place_name": "Pərvanli",
      "postal_code": "AZ 6323",
      "country_code": "AZ",
      "latitude": 40.1889,
      "longitude": 47.5765,
      "admin_name1": "Zərdab"
    },
    {
      "place_name": "Dağkəsəmən",
      "postal_code": "AZ 0515",
      "country_code": "AZ",
      "latitude": 41.156,
      "longitude": 45.4352,
      "admin_name1": "Ağstafa"
    },
    {
      "place_name": "Qirli",
      "postal_code": "AZ 0523",
      "country_code": "AZ",
      "latitude": 41.107,
      "longitude": 45.6362,
      "admin_name1": "Ağstafa"
    },
    {
      "place_name": "Suparibağ",
      "postal_code": "AZ 0721",
      "country_code": "AZ",
      "latitude": 38.4609,
      "longitude": 48.8523,
      "admin_name1": "Astara"
    },
    {
      "place_name": "Baki-33",
      "postal_code": "AZ 1033",
      "country_code": "AZ",
      "latitude": 39.9179,
      "longitude": 49.2168,
      "admin_name1": "Baki"
    },
    {
      "place_name": "Baki-83",
      "postal_code": "AZ 1083",
      "country_code": "AZ",
      "latitude": 39.9179,
      "longitude": 49.2168,
      "admin_name1": "Baki"
    },
    {
      "place_name": "Baki-89",
      "postal_code": "AZ 1089",
      "country_code": "AZ",
      "latitude": 39.9179,
      "longitude": 49.2168,
      "admin_name1": "Baki"
    },
    {
      "place_name": "Baki-94",
      "postal_code": "AZ 1094",
      "country_code": "AZ",
      "latitude": 39.9179,
      "longitude": 49.2168,
      "admin_name1": "Baki"
    },
    {
      "place_name": "Baki-114",
      "postal_code": "AZ 1114",
      "country_code": "AZ",
      "latitude": 40.3777,
      "longitude": 49.892,
      "admin_name1": "Baki"
    },
    {
      "place_name": "Baki Deniz Limani",
      "postal_code": "AZ 1157",
      "country_code": "AZ",
      "latitude": 40.3777,
      "longitude": 49.892,
      "admin_name1": "Baki"
    },
    {
      "place_name": "Qarallar",
      "postal_code": "AZ 1223",
      "country_code": "AZ",
      "latitude": 39.808,
      "longitude": 47.5591,
      "admin_name1": "Beyləqan"
    },
    {
      "place_name": "Göytəpə",
      "postal_code": "AZ 1514",
      "country_code": "AZ",
      "latitude": 39.12,
      "longitude": 48.5938,
      "admin_name1": "Cəlilabad"
    },
    {
      "place_name": "9 Sayli",
      "postal_code": "AZ 2009",
      "country_code": "AZ",
      "latitude": 40.6828,
      "longitude": 46.3606,
      "admin_name1": "Gəncə"
    },
    {
      "place_name": "Göyçay",
      "postal_code": "AZ 2300",
      "country_code": "AZ",
      "latitude": 40.6506,
      "longitude": 47.7422,
      "admin_name1": "Göyçay"
    },
    {
      "place_name": "Cəyirli",
      "postal_code": "AZ 2315",
      "country_code": "AZ",
      "latitude": 40.5669,
      "longitude": 47.7155,
      "admin_name1": "Göyçay"
    },
    {
      "place_name": "Quşqara",
      "postal_code": "AZ 2520",
      "country_code": "AZ",
      "latitude": 40.7183,
      "longitude": 46.2998,
      "admin_name1": "Göy-Göl"
    },
    {
      "place_name": "Nəvahi",
      "postal_code": "AZ 2416",
      "country_code": "AZ",
      "latitude": 40.0403,
      "longitude": 49.0995,
      "admin_name1": "Haciqabul"
    },
    {
      "place_name": "Rəncbər",
      "postal_code": "AZ 2417",
      "country_code": "AZ",
      "latitude": 40.0936,
      "longitude": 49.0696,
      "admin_name1": "Haciqabul"
    },
    {
      "place_name": "Qizilkənd",
      "postal_code": "AZ 3026",
      "country_code": "AZ",
      "latitude": 39.7168,
      "longitude": 48.0794,
      "admin_name1": "Imişli"
    },
    {
      "place_name": "Otuzikilər",
      "postal_code": "AZ 3030",
      "country_code": "AZ",
      "latitude": 40.3864,
      "longitude": 47.2397,
      "admin_name1": "Imişli"
    },
    {
      "place_name": "Kürdəmir",
      "postal_code": "AZ 3300",
      "country_code": "AZ",
      "latitude": 40.3453,
      "longitude": 48.1508,
      "admin_name1": "Kürdəmir"
    },
    {
      "place_name": "Köhünlü",
      "postal_code": "AZ 3317",
      "country_code": "AZ",
      "latitude": 40.1344,
      "longitude": 47.9825,
      "admin_name1": "Kürdəmir"
    },
    {
      "place_name": "Livədirqə",
      "postal_code": "AZ 4323",
      "country_code": "AZ",
      "latitude": 38.8179,
      "longitude": 48.3953,
      "admin_name1": "Lerik"
    },
    {
      "place_name": "Xilli",
      "postal_code": "AZ 4719",
      "country_code": "AZ",
      "latitude": 39.4301,
      "longitude": 49.1017,
      "admin_name1": "Neftçala"
    },
    {
      "place_name": "Əmirvan",
      "postal_code": "AZ 3615",
      "country_code": "AZ",
      "latitude": 40.8309,
      "longitude": 47.8956,
      "admin_name1": "Qəbələ"
    },
    {
      "place_name": "Fərəhli",
      "postal_code": "AZ 3536",
      "country_code": "AZ",
      "latitude": 41.1044,
      "longitude": 45.1451,
      "admin_name1": "Qazax"
    },
    {
      "place_name": "Mürsəlli",
      "postal_code": "AZ 5432",
      "country_code": "AZ",
      "latitude": 40.0834,
      "longitude": 48.5603,
      "admin_name1": "Sabirabad"
    },
    {
      "place_name": "Dəllər Cirdaxan",
      "postal_code": "AZ 5737",
      "country_code": "AZ",
      "latitude": 40.8981,
      "longitude": 46.0795,
      "admin_name1": "Şəmkir"
    },
    {
      "place_name": "Qovlar",
      "postal_code": "AZ 6035",
      "country_code": "AZ",
      "latitude": 40.946,
      "longitude": 45.7317,
      "admin_name1": "Tovuz"
    },
    {
      "place_name": "Qulabənd",
      "postal_code": "AZ 6120",
      "country_code": "AZ",
      "latitude": 40.4283,
      "longitude": 47.6914,
      "admin_name1": "Ucar"
    },
    {
      "place_name": "Avaş",
      "postal_code": "AZ 6510",
      "country_code": "AZ",
      "latitude": 38.9037,
      "longitude": 48.0944,
      "admin_name1": "Yardimli"
    },
    {
      "place_name": "Hacibədəlli",
      "postal_code": "AZ 0414",
      "country_code": "AZ",
      "latitude": 40.0622,
      "longitude": 47.3676,
      "admin_name1": "Ağcabədi"
    },
    {
      "place_name": "Salmanbəyli",
      "postal_code": "AZ 0427",
      "country_code": "AZ",
      "latitude": 39.9809,
      "longitude": 47.3785,
      "admin_name1": "Ağcabədi"
    },
    {
      "place_name": "Orta Ləki",
      "postal_code": "AZ 0327",
      "country_code": "AZ",
      "latitude": 40.5199,
      "longitude": 47.4201,
      "admin_name1": "Ağdaş"
    },
    {
      "place_name": "Ağstafa",
      "postal_code": "AZ 0500",
      "country_code": "AZ",
      "latitude": 41.1189,
      "longitude": 45.4539,
      "admin_name1": "Ağstafa"
    },
    {
      "place_name": "Baki-32",
      "postal_code": "AZ 1032",
      "country_code": "AZ",
      "latitude": 39.9179,
      "longitude": 49.2168,
      "admin_name1": "Baki"
    },
    {
      "place_name": "Baki-102",
      "postal_code": "AZ 1102",
      "country_code": "AZ",
      "latitude": 40.3777,
      "longitude": 49.892,
      "admin_name1": "Baki"
    },
    {
      "place_name": "Baki-107",
      "postal_code": "AZ 1107",
      "country_code": "AZ",
      "latitude": 40.3777,
      "longitude": 49.892,
      "admin_name1": "Baki"
    },
    {
      "place_name": "Baki-115",
      "postal_code": "AZ 1115",
      "country_code": "AZ",
      "latitude": 40.3777,
      "longitude": 49.892,
      "admin_name1": "Baki"
    },
    {
      "place_name": "Baki-124",
      "postal_code": "AZ 1124",
      "country_code": "AZ",
      "latitude": 40.3777,
      "longitude": 49.892,
      "admin_name1": "Baki"
    },
    {
      "place_name": "Baki-130",
      "postal_code": "AZ 1130",
      "country_code": "AZ",
      "latitude": 40.3777,
      "longitude": 49.892,
      "admin_name1": "Baki"
    },
    {
      "place_name": "Qabaqçöl",
      "postal_code": "AZ 0816",
      "country_code": "AZ",
      "latitude": 41.7526,
      "longitude": 46.2705,
      "admin_name1": "Balakən"
    },
    {
      "place_name": "Qazbinə",
      "postal_code": "AZ 0821",
      "country_code": "AZ",
      "latitude": 41.7121,
      "longitude": 46.3412,
      "admin_name1": "Balakən"
    },
    {
      "place_name": "Şərif",
      "postal_code": "AZ 0828",
      "country_code": "AZ",
      "latitude": 41.7379,
      "longitude": 46.2559,
      "admin_name1": "Balakən"
    },
    {
      "place_name": "Aşaği Çəmənli",
      "postal_code": "AZ 1211",
      "country_code": "AZ",
      "latitude": 39.6848,
      "longitude": 47.8153,
      "admin_name1": "Beyləqan"
    },
    {
      "place_name": "16 Sayli",
      "postal_code": "AZ 2016",
      "country_code": "AZ",
      "latitude": 40.6828,
      "longitude": 46.3606,
      "admin_name1": "Gəncə"
    },
    {
      "place_name": "Borsunlu",
      "postal_code": "AZ 2214",
      "country_code": "AZ",
      "latitude": 40.6502,
      "longitude": 46.6653,
      "admin_name1": "Goranboy"
    },
    {
      "place_name": "Inçə",
      "postal_code": "AZ 2319",
      "country_code": "AZ",
      "latitude": 40.5555,
      "longitude": 47.9742,
      "admin_name1": "Göyçay"
    },
    {
      "place_name": "Malli Şixli",
      "postal_code": "AZ 2326",
      "country_code": "AZ",
      "latitude": 40.5952,
      "longitude": 47.6761,
      "admin_name1": "Göyçay"
    },
    {
      "place_name": "Kürdmaşi",
      "postal_code": "AZ 3116",
      "country_code": "AZ",
      "latitude": 40.6684,
      "longitude": 48.0341,
      "admin_name1": "Ismayilli"
    },
    {
      "place_name": "Nərimanabad-1pş",
      "postal_code": "AZ 4224",
      "country_code": "AZ",
      "latitude": 38.7774,
      "longitude": 48.7711,
      "admin_name1": "Lənkəran"
    },
    {
      "place_name": "Mingəçevir",
      "postal_code": "AZ 4500",
      "country_code": "AZ",
      "latitude": 40.7639,
      "longitude": 47.0595,
      "admin_name1": "Mingəçevir"
    },
    {
      "place_name": "Soltan Nuxa",
      "postal_code": "AZ 3636",
      "country_code": "AZ",
      "latitude": 40.938,
      "longitude": 47.8511,
      "admin_name1": "Qəbələ"
    },
    {
      "place_name": "Alekseyevka",
      "postal_code": "AZ 4011",
      "country_code": "AZ",
      "latitude": 41.3762,
      "longitude": 48.578,
      "admin_name1": "Quba"
    },
    {
      "place_name": "Hil",
      "postal_code": "AZ 3820",
      "country_code": "AZ",
      "latitude": 41.4677,
      "longitude": 48.3444,
      "admin_name1": "Qusar"
    },
    {
      "place_name": "Şirvanovka",
      "postal_code": "AZ 3834",
      "country_code": "AZ",
      "latitude": 41.696,
      "longitude": 48.4888,
      "admin_name1": "Qusar"
    },
    {
      "place_name": "Salyan",
      "postal_code": "AZ 5200",
      "country_code": "AZ",
      "latitude": 39.5962,
      "longitude": 48.9848,
      "admin_name1": "Salyan"
    },
    {
      "place_name": "Xidirli",
      "postal_code": "AZ 5216",
      "country_code": "AZ",
      "latitude": 39.8432,
      "longitude": 49.3209,
      "admin_name1": "Salyan"
    },
    {
      "place_name": "Zəyəm Cirdaxan",
      "postal_code": "AZ 5729",
      "country_code": "AZ",
      "latitude": 40.8845,
      "longitude": 45.8153,
      "admin_name1": "Şəmkir"
    },
    {
      "place_name": "Mahmudlu",
      "postal_code": "AZ 5734",
      "country_code": "AZ",
      "latitude": 40.8529,
      "longitude": 46.1602,
      "admin_name1": "Şəmkir"
    },
    {
      "place_name": "Tər-Tər",
      "postal_code": "AZ 5900",
      "country_code": "AZ",
      "latitude": 40.4031,
      "longitude": 46.9727,
      "admin_name1": "Tər-Tər"
    },
    {
      "place_name": "Alakol",
      "postal_code": "AZ 6012",
      "country_code": "AZ",
      "latitude": 40.9068,
      "longitude": 45.7703,
      "admin_name1": "Tovuz"
    },
    {
      "place_name": "Əlibəyli",
      "postal_code": "AZ 6026",
      "country_code": "AZ",
      "latitude": 40.94,
      "longitude": 45.489,
      "admin_name1": "Tovuz"
    },
    {
      "place_name": "Qaziqumlaq",
      "postal_code": "AZ 6111",
      "country_code": "AZ",
      "latitude": 40.5364,
      "longitude": 47.5244,
      "admin_name1": "Ucar"
    },
    {
      "place_name": "Qəzyan",
      "postal_code": "AZ 6119",
      "country_code": "AZ",
      "latitude": 40.4595,
      "longitude": 47.7014,
      "admin_name1": "Ucar"
    },
    {
      "place_name": "Kənd Xudat",
      "postal_code": "AZ 2718",
      "country_code": "AZ",
      "latitude": 41.4841,
      "longitude": 48.7438,
      "admin_name1": "Xaçmaz"
    },
    {
      "place_name": "Haciselli",
      "postal_code": "AZ 6617",
      "country_code": "AZ",
      "latitude": 40.7178,
      "longitude": 47.1217,
      "admin_name1": "Yevlax"
    },
    {
      "place_name": "Kövər",
      "postal_code": "AZ 6621",
      "country_code": "AZ",
      "latitude": 40.5046,
      "longitude": 47.1132,
      "admin_name1": "Yevlax"
    },
    {
      "place_name": "1sayli",
      "postal_code": "AZ 6201",
      "country_code": "AZ",
      "latitude": 41.6316,
      "longitude": 46.6448,
      "admin_name1": "Zaqatala"
    },
    {
      "place_name": "Yuxari Tala",
      "postal_code": "AZ 6239",
      "country_code": "AZ",
      "latitude": 41.622,
      "longitude": 46.6635,
      "admin_name1": "Zaqatala"
    },
    {
      "place_name": "Gəlmə",
      "postal_code": "AZ 6315",
      "country_code": "AZ",
      "latitude": 40.218,
      "longitude": 47.6885,
      "admin_name1": "Zərdab"
    },
    {
      "place_name": "Güzdək-2",
      "postal_code": "AZ 0114",
      "country_code": "AZ",
      "latitude": 40.4879,
      "longitude": 49.7507,
      "admin_name1": "Abşeron"
    },
    {
      "place_name": "Həsənsu",
      "postal_code": "AZ 0518",
      "country_code": "AZ",
      "latitude": 41.0822,
      "longitude": 45.4925,
      "admin_name1": "Ağstafa"
    },
    {
      "place_name": "Şahağaci",
      "postal_code": "AZ 0722",
      "country_code": "AZ",
      "latitude": 38.5229,
      "longitude": 48.8251,
      "admin_name1": "Astara"
    },
    {
      "place_name": "Baki-5",
      "postal_code": "AZ 1005",
      "country_code": "AZ",
      "latitude": 40.3777,
      "longitude": 49.892,
      "admin_name1": "Baki"
    },
    {
      "place_name": "Baki-59",
      "postal_code": "AZ 1059",
      "country_code": "AZ",
      "latitude": 39.9179,
      "longitude": 49.2168,
      "admin_name1": "Baki"
    },
    {
      "place_name": "Baki-70",
      "postal_code": "AZ 1070",
      "country_code": "AZ",
      "latitude": 39.9179,
      "longitude": 49.2168,
      "admin_name1": "Baki"
    },
    {
      "place_name": "Baki-80",
      "postal_code": "AZ 1080",
      "country_code": "AZ",
      "latitude": 39.9179,
      "longitude": 49.2168,
      "admin_name1": "Baki"
    },
    {
      "place_name": "Baki-85",
      "postal_code": "AZ 1085",
      "country_code": "AZ",
      "latitude": 39.9179,
      "longitude": 49.2168,
      "admin_name1": "Baki"
    },
    {
      "place_name": "Baki-86",
      "postal_code": "AZ 1086",
      "country_code": "AZ",
      "latitude": 39.9179,
      "longitude": 49.2168,
      "admin_name1": "Baki"
    },
    {
      "place_name": "Baki-108",
      "postal_code": "AZ 1108",
      "country_code": "AZ",
      "latitude": 40.3777,
      "longitude": 49.892,
      "admin_name1": "Baki"
    },
    {
      "place_name": "Baki-125",
      "postal_code": "AZ 1125",
      "country_code": "AZ",
      "latitude": 40.3777,
      "longitude": 49.892,
      "admin_name1": "Baki"
    },
    {
      "place_name": "Mil-2",
      "postal_code": "AZ 1225",
      "country_code": "AZ",
      "latitude": 39.808,
      "longitude": 47.5591,
      "admin_name1": "Beyləqan"
    },
    {
      "place_name": "Şabran",
      "postal_code": "AZ 1700",
      "country_code": "AZ",
      "latitude": 41.2012,
      "longitude": 48.9871,
      "admin_name1": "Şabran"
    },
    {
      "place_name": "Əhmədbəyli",
      "postal_code": "AZ 1921",
      "country_code": "AZ",
      "latitude": 39.5656,
      "longitude": 47.5516,
      "admin_name1": "Füzuli"
    },
    {
      "place_name": "Arabaçi",
      "postal_code": "AZ 2112",
      "country_code": "AZ",
      "latitude": 40.545,
      "longitude": 45.5693,
      "admin_name1": "Gədəbəy"
    },
    {
      "place_name": "Dəliməmmədli",
      "postal_code": "AZ 2216",
      "country_code": "AZ",
      "latitude": 40.694,
      "longitude": 46.5717,
      "admin_name1": "Goranboy"
    },
    {
      "place_name": "Muzdurlar",
      "postal_code": "AZ 2233",
      "country_code": "AZ",
      "latitude": 40.6998,
      "longitude": 46.6053,
      "admin_name1": "Goranboy"
    },
    {
      "place_name": "Muğan",
      "postal_code": "AZ 2415",
      "country_code": "AZ",
      "latitude": 40.099,
      "longitude": 48.8189,
      "admin_name1": "Haciqabul"
    },
    {
      "place_name": "Əliqullar",
      "postal_code": "AZ 3018",
      "country_code": "AZ",
      "latitude": 39.8012,
      "longitude": 48.0174,
      "admin_name1": "Imişli"
    },
    {
      "place_name": "Rəsullu",
      "postal_code": "AZ 3034",
      "country_code": "AZ",
      "latitude": 39.8361,
      "longitude": 48.033,
      "admin_name1": "Imişli"
    },
    {
      "place_name": "Veravul",
      "postal_code": "AZ 4233",
      "country_code": "AZ",
      "latitude": 38.8156,
      "longitude": 48.7624,
      "admin_name1": "Lənkəran"
    },
    {
      "place_name": "Bunud",
      "postal_code": "AZ 3612",
      "country_code": "AZ",
      "latitude": 40.9191,
      "longitude": 47.9895,
      "admin_name1": "Qəbələ"
    },
    {
      "place_name": "Qəmərvan",
      "postal_code": "AZ 3619",
      "country_code": "AZ",
      "latitude": 41.061,
      "longitude": 47.7961,
      "admin_name1": "Qəbələ"
    },
    {
      "place_name": "Kəmərli",
      "postal_code": "AZ 3521",
      "country_code": "AZ",
      "latitude": 41.208,
      "longitude": 45.0853,
      "admin_name1": "Qazax"
    },
    {
      "place_name": "Talabi",
      "postal_code": "AZ 4030",
      "country_code": "AZ",
      "latitude": 41.267,
      "longitude": 48.6597,
      "admin_name1": "Quba"
    },
    {
      "place_name": "Mircəlalkənd",
      "postal_code": "AZ 4923",
      "country_code": "AZ",
      "latitude": 39.8912,
      "longitude": 48.4977,
      "admin_name1": "Saatli"
    },
    {
      "place_name": "Suqovuşan",
      "postal_code": "AZ 5435",
      "country_code": "AZ",
      "latitude": 39.9927,
      "longitude": 48.6572,
      "admin_name1": "Sabirabad"
    },
    {
      "place_name": "Xəlfəli",
      "postal_code": "AZ 5446",
      "country_code": "AZ",
      "latitude": 39.9559,
      "longitude": 48.6782,
      "admin_name1": "Sabirabad"
    },
    {
      "place_name": "Şəkikənd",
      "postal_code": "AZ 5531",
      "country_code": "AZ",
      "latitude": 41.0751,
      "longitude": 47.1556,
      "admin_name1": "Şəki"
    },
    {
      "place_name": "Şorsulu",
      "postal_code": "AZ 5228",
      "country_code": "AZ",
      "latitude": 39.4236,
      "longitude": 48.8246,
      "admin_name1": "Salyan"
    },
    {
      "place_name": "Qapanli",
      "postal_code": "AZ 5740",
      "country_code": "AZ",
      "latitude": 40.8689,
      "longitude": 46.2153,
      "admin_name1": "Şəmkir"
    },
    {
      "place_name": "Müşkür",
      "postal_code": "AZ 2727",
      "country_code": "AZ",
      "latitude": 41.4922,
      "longitude": 48.7807,
      "admin_name1": "Xaçmaz"
    },
    {
      "place_name": "Biçaqçi",
      "postal_code": "AZ 6312",
      "country_code": "AZ",
      "latitude": 40.3026,
      "longitude": 47.4724,
      "admin_name1": "Zərdab"
    },
    {
      "place_name": "Şərəfxanli",
      "postal_code": "AZ 0433",
      "country_code": "AZ",
      "latitude": 40.0512,
      "longitude": 47.1754,
      "admin_name1": "Ağcabədi"
    },
    {
      "place_name": "2 Sayli (Maşad)",
      "postal_code": "AZ 0302",
      "country_code": "AZ",
      "latitude": 40.647,
      "longitude": 47.4738,
      "admin_name1": "Ağdaş"
    },
    {
      "place_name": "Böyük Kəsik",
      "postal_code": "AZ 0514",
      "country_code": "AZ",
      "latitude": 41.3902,
      "longitude": 45.1876,
      "admin_name1": "Ağstafa"
    },
    {
      "place_name": "Pirhəsənli",
      "postal_code": "AZ 0629",
      "country_code": "AZ",
      "latitude": 40.5806,
      "longitude": 48.3604,
      "admin_name1": "Ağsu"
    },
    {
      "place_name": "Baki-6",
      "postal_code": "AZ 1006",
      "country_code": "AZ",
      "latitude": 40.3777,
      "longitude": 49.892,
      "admin_name1": "Baki"
    },
    {
      "place_name": "Baki-22",
      "postal_code": "AZ 1022",
      "country_code": "AZ",
      "latitude": 39.3138,
      "longitude": 49.2072,
      "admin_name1": "Baki"
    },
    {
      "place_name": "Baki-66",
      "postal_code": "AZ 1066",
      "country_code": "AZ",
      "latitude": 39.9179,
      "longitude": 49.2168,
      "admin_name1": "Baki"
    },
    {
      "place_name": "Baki-67",
      "postal_code": "AZ 1067",
      "country_code": "AZ",
      "latitude": 39.9179,
      "longitude": 49.2168,
      "admin_name1": "Baki"
    },
    {
      "place_name": "Baki-81",
      "postal_code": "AZ 1081",
      "country_code": "AZ",
      "latitude": 39.9179,
      "longitude": 49.2168,
      "admin_name1": "Baki"
    },
    {
      "place_name": "Baki-82",
      "postal_code": "AZ 1082",
      "country_code": "AZ",
      "latitude": 39.9179,
      "longitude": 49.2168,
      "admin_name1": "Baki"
    },
    {
      "place_name": "Baki-134",
      "postal_code": "AZ 1134",
      "country_code": "AZ",
      "latitude": 40.3777,
      "longitude": 49.892,
      "admin_name1": "Baki"
    },
    {
      "place_name": "Mahamalar",
      "postal_code": "AZ 0823",
      "country_code": "AZ",
      "latitude": 41.7366,
      "longitude": 46.4141,
      "admin_name1": "Balakən"
    },
    {
      "place_name": "Privolnoye",
      "postal_code": "AZ 1523",
      "country_code": "AZ",
      "latitude": 39.1292,
      "longitude": 48.5403,
      "admin_name1": "Cəlilabad"
    },
    {
      "place_name": "Şiləvəngə",
      "postal_code": "AZ 1525",
      "country_code": "AZ",
      "latitude": 39.2604,
      "longitude": 48.4367,
      "admin_name1": "Cəlilabad"
    },
    {
      "place_name": "Yuxari Daşkəsən",
      "postal_code": "AZ 1626",
      "country_code": "AZ",
      "latitude": 40.4936,
      "longitude": 46.0718,
      "admin_name1": "Daşkəsən"
    },
    {
      "place_name": "Çobankənd",
      "postal_code": "AZ 2116",
      "country_code": "AZ",
      "latitude": 40.5628,
      "longitude": 45.5832,
      "admin_name1": "Gədəbəy"
    },
    {
      "place_name": "18 Sayli",
      "postal_code": "AZ 2018",
      "country_code": "AZ",
      "latitude": 40.6828,
      "longitude": 46.3606,
      "admin_name1": "Gəncə"
    },
    {
      "place_name": "19 Sayli",
      "postal_code": "AZ 2019",
      "country_code": "AZ",
      "latitude": 40.6828,
      "longitude": 46.3606,
      "admin_name1": "Gəncə"
    },
    {
      "place_name": "Müşkürlü",
      "postal_code": "AZ 2329",
      "country_code": "AZ",
      "latitude": 40.581,
      "longitude": 47.8044,
      "admin_name1": "Göyçay"
    },
    {
      "place_name": "Məmmədli",
      "postal_code": "AZ 3028",
      "country_code": "AZ",
      "latitude": 39.7764,
      "longitude": 48.0642,
      "admin_name1": "Imişli"
    },
    {
      "place_name": "Mamusta",
      "postal_code": "AZ 4223",
      "country_code": "AZ",
      "latitude": 38.6585,
      "longitude": 48.845,
      "admin_name1": "Lənkəran"
    },
    {
      "place_name": "Şilavar",
      "postal_code": "AZ 4243",
      "country_code": "AZ",
      "latitude": 38.7511,
      "longitude": 48.8296,
      "admin_name1": "Lənkəran"
    },
    {
      "place_name": "Yeddioymaq-1",
      "postal_code": "AZ 4449",
      "country_code": "AZ",
      "latitude": 39.037,
      "longitude": 48.6835,
      "admin_name1": "Masalli"
    },
    {
      "place_name": "Vəndam",
      "postal_code": "AZ 3628",
      "country_code": "AZ",
      "latitude": 40.946,
      "longitude": 47.9436,
      "admin_name1": "Qəbələ"
    },
    {
      "place_name": "Kupçal",
      "postal_code": "AZ 4022",
      "country_code": "AZ",
      "latitude": 41.3312,
      "longitude": 48.3829,
      "admin_name1": "Quba"
    },
    {
      "place_name": "Aydinbulaq",
      "postal_code": "AZ 5535",
      "country_code": "AZ",
      "latitude": 40.994,
      "longitude": 47.2802,
      "admin_name1": "Şəki"
    },
    {
      "place_name": "Mədrəsə",
      "postal_code": "AZ 5617",
      "country_code": "AZ",
      "latitude": 40.6129,
      "longitude": 48.5615,
      "admin_name1": "Şamaxi"
    },
    {
      "place_name": "Aşaği Seyfəli",
      "postal_code": "AZ 5711",
      "country_code": "AZ",
      "latitude": 40.7609,
      "longitude": 46.1275,
      "admin_name1": "Şəmkir"
    },
    {
      "place_name": "Çənlibel",
      "postal_code": "AZ 5712",
      "country_code": "AZ",
      "latitude": 40.7469,
      "longitude": 45.8802,
      "admin_name1": "Şəmkir"
    },
    {
      "place_name": "Yuxari Ağasibəyli",
      "postal_code": "AZ 5134",
      "country_code": "AZ",
      "latitude": 40.7555,
      "longitude": 46.5038,
      "admin_name1": "Samux"
    },
    {
      "place_name": "Haciqərvənd",
      "postal_code": "AZ 5918",
      "country_code": "AZ",
      "latitude": 40.3694,
      "longitude": 46.9564,
      "admin_name1": "Tər-Tər"
    },
    {
      "place_name": "Xanoba   Gomruk",
      "postal_code": "AZ 2734",
      "country_code": "AZ",
      "latitude": 41.5754,
      "longitude": 48.6449,
      "admin_name1": "Xaçmaz"
    },
    {
      "place_name": "Məhəmmmədli",
      "postal_code": "AZ 0125",
      "country_code": "AZ",
      "latitude": 40.5085,
      "longitude": 49.7657,
      "admin_name1": "Abşeron"
    },
    {
      "place_name": "Mexkalon",
      "postal_code": "AZ 0129",
      "country_code": "AZ",
      "latitude": 40.5085,
      "longitude": 49.7657,
      "admin_name1": "Abşeron"
    },
    {
      "place_name": "Pərioğullar",
      "postal_code": "AZ 0426",
      "country_code": "AZ",
      "latitude": 40.0601,
      "longitude": 47.4194,
      "admin_name1": "Ağcabədi"
    },
    {
      "place_name": "Yuxari Qəsil",
      "postal_code": "AZ 0333",
      "country_code": "AZ",
      "latitude": 40.651,
      "longitude": 47.5176,
      "admin_name1": "Ağdaş"
    },
    {
      "place_name": "Baki-18",
      "postal_code": "AZ 1018",
      "country_code": "AZ",
      "latitude": 39.9179,
      "longitude": 49.2168,
      "admin_name1": "Baki"
    },
    {
      "place_name": "Baki-151",
      "postal_code": "AZ 1151",
      "country_code": "AZ",
      "latitude": 40.3777,
      "longitude": 49.892,
      "admin_name1": "Baki"
    },
    {
      "place_name": "Lənbəran",
      "postal_code": "AZ 0927",
      "country_code": "AZ",
      "latitude": 40.2191,
      "longitude": 47.3124,
      "admin_name1": "Bərdə"
    },
    {
      "place_name": "Əsgərabad",
      "postal_code": "AZ 1316",
      "country_code": "AZ",
      "latitude": 39.4308,
      "longitude": 48.5718,
      "admin_name1": "Biləsuvar"
    },
    {
      "place_name": "Pirəbədil",
      "postal_code": "AZ 1718",
      "country_code": "AZ",
      "latitude": 41.2081,
      "longitude": 48.8013,
      "admin_name1": "Şabran"
    },
    {
      "place_name": "22 Sayli",
      "postal_code": "AZ 2022",
      "country_code": "AZ",
      "latitude": 40.6828,
      "longitude": 46.3606,
      "admin_name1": "Gəncə"
    },
    {
      "place_name": "Hazir Əhmədli",
      "postal_code": "AZ 2222",
      "country_code": "AZ",
      "latitude": 40.6298,
      "longitude": 46.6754,
      "admin_name1": "Goranboy"
    },
    {
      "place_name": "Taliş",
      "postal_code": "AZ 2418",
      "country_code": "AZ",
      "latitude": 40.0655,
      "longitude": 48.6877,
      "admin_name1": "Haciqabul"
    },
    {
      "place_name": "Pirasora",
      "postal_code": "AZ 4328",
      "country_code": "AZ",
      "latitude": 38.719,
      "longitude": 48.3771,
      "admin_name1": "Lerik"
    },
    {
      "place_name": "Masalli Vağzal",
      "postal_code": "AZ 4430",
      "country_code": "AZ",
      "latitude": 39.002,
      "longitude": 48.6685,
      "admin_name1": "Masalli"
    },
    {
      "place_name": "Tüklə",
      "postal_code": "AZ 4436",
      "country_code": "AZ",
      "latitude": 38.9208,
      "longitude": 48.6684,
      "admin_name1": "Masalli"
    },
    {
      "place_name": "Pirəli",
      "postal_code": "AZ 3625",
      "country_code": "AZ",
      "latitude": 40.902,
      "longitude": 47.8192,
      "admin_name1": "Qəbələ"
    },
    {
      "place_name": "Hüseynbəyli",
      "postal_code": "AZ 3534",
      "country_code": "AZ",
      "latitude": 41.1144,
      "longitude": 45.3641,
      "admin_name1": "Qazax"
    },
    {
      "place_name": "Varxankənd",
      "postal_code": "AZ 4930",
      "country_code": "AZ",
      "latitude": 39.8945,
      "longitude": 48.4589,
      "admin_name1": "Saatli"
    },
    {
      "place_name": "Baş Layiski",
      "postal_code": "AZ 5516",
      "country_code": "AZ",
      "latitude": 41.1509,
      "longitude": 47.165,
      "admin_name1": "Şəki"
    },
    {
      "place_name": "Bağirli",
      "postal_code": "AZ 5612",
      "country_code": "AZ",
      "latitude": 40.4567,
      "longitude": 48.5953,
      "admin_name1": "Şamaxi"
    },
    {
      "place_name": "Qasimallar",
      "postal_code": "AZ 5742",
      "country_code": "AZ",
      "latitude": 40.8611,
      "longitude": 46.055,
      "admin_name1": "Şəmkir"
    },
    {
      "place_name": "Qarabörk",
      "postal_code": "AZ 6116",
      "country_code": "AZ",
      "latitude": 40.485,
      "longitude": 47.6627,
      "admin_name1": "Ucar"
    },
    {
      "place_name": "Muxtadir",
      "postal_code": "AZ 2723",
      "country_code": "AZ",
      "latitude": 41.5898,
      "longitude": 48.7356,
      "admin_name1": "Xaçmaz"
    },
    {
      "place_name": "Pirquluoba",
      "postal_code": "AZ 2728",
      "country_code": "AZ",
      "latitude": 41.5551,
      "longitude": 48.6597,
      "admin_name1": "Xaçmaz"
    },
    {
      "place_name": "Xocavənd",
      "postal_code": "AZ 2800",
      "country_code": "AZ",
      "latitude": 39.795,
      "longitude": 47.1117,
      "admin_name1": "Xocavənd"
    },
    {
      "place_name": "Nemətabad",
      "postal_code": "AZ 6627",
      "country_code": "AZ",
      "latitude": 40.61,
      "longitude": 47.0403,
      "admin_name1": "Yevlax"
    },
    {
      "place_name": "Mehdiabad",
      "postal_code": "AZ 0118",
      "country_code": "AZ",
      "latitude": 40.4969,
      "longitude": 49.8517,
      "admin_name1": "Abşeron"
    },
    {
      "place_name": "Digah",
      "postal_code": "AZ 0127",
      "country_code": "AZ",
      "latitude": 40.4926,
      "longitude": 49.8748,
      "admin_name1": "Abşeron"
    },
    {
      "place_name": "Hüsülü",
      "postal_code": "AZ 0416",
      "country_code": "AZ",
      "latitude": 40.0694,
      "longitude": 47.2995,
      "admin_name1": "Ağcabədi"
    },
    {
      "place_name": "Qaradolaq",
      "postal_code": "AZ 0420",
      "country_code": "AZ",
      "latitude": 39.9277,
      "longitude": 47.4677,
      "admin_name1": "Ağcabədi"
    },
    {
      "place_name": "Maşxan",
      "postal_code": "AZ 0716",
      "country_code": "AZ",
      "latitude": 38.5492,
      "longitude": 48.8203,
      "admin_name1": "Astara"
    },
    {
      "place_name": "Baki-1",
      "postal_code": "AZ 1001",
      "country_code": "AZ",
      "latitude": 40.3777,
      "longitude": 49.892,
      "admin_name1": "Baki"
    },
    {
      "place_name": "Baki-39",
      "postal_code": "AZ 1039",
      "country_code": "AZ",
      "latitude": 39.9179,
      "longitude": 49.2168,
      "admin_name1": "Baki"
    },
    {
      "place_name": "Baki-60",
      "postal_code": "AZ 1060",
      "country_code": "AZ",
      "latitude": 39.9179,
      "longitude": 49.2168,
      "admin_name1": "Baki"
    },
    {
      "place_name": "Baki-131",
      "postal_code": "AZ 1131",
      "country_code": "AZ",
      "latitude": 40.3777,
      "longitude": 49.892,
      "admin_name1": "Baki"
    },
    {
      "place_name": "Baki-144",
      "postal_code": "AZ 1144",
      "country_code": "AZ",
      "latitude": 40.3777,
      "longitude": 49.892,
      "admin_name1": "Baki"
    },
    {
      "place_name": "Əlinəzərli",
      "postal_code": "AZ 1219",
      "country_code": "AZ",
      "latitude": 39.7627,
      "longitude": 47.6959,
      "admin_name1": "Beyləqan"
    },
    {
      "place_name": "Qəhrəmanli",
      "postal_code": "AZ 1224",
      "country_code": "AZ",
      "latitude": 39.808,
      "longitude": 47.5591,
      "admin_name1": "Beyləqan"
    },
    {
      "place_name": "13 Sayli",
      "postal_code": "AZ 2013",
      "country_code": "AZ",
      "latitude": 40.6828,
      "longitude": 46.3606,
      "admin_name1": "Gəncə"
    },
    {
      "place_name": "21 Sayli",
      "postal_code": "AZ 2021",
      "country_code": "AZ",
      "latitude": 40.6828,
      "longitude": 46.3606,
      "admin_name1": "Gəncə"
    },
    {
      "place_name": "Aşiqli",
      "postal_code": "AZ 2511",
      "country_code": "AZ",
      "latitude": 40.5358,
      "longitude": 46.3348,
      "admin_name1": "Göy-Göl"
    },
    {
      "place_name": "Haciqabul",
      "postal_code": "AZ 2400",
      "country_code": "AZ",
      "latitude": 40.0387,
      "longitude": 48.9429,
      "admin_name1": "Haciqabul"
    },
    {
      "place_name": "Qaralar",
      "postal_code": "AZ 3024",
      "country_code": "AZ",
      "latitude": 39.8262,
      "longitude": 48.0848,
      "admin_name1": "Imişli"
    },
    {
      "place_name": "Şürük",
      "postal_code": "AZ 4231",
      "country_code": "AZ",
      "latitude": 38.7752,
      "longitude": 48.7894,
      "admin_name1": "Lənkəran"
    },
    {
      "place_name": "Piran",
      "postal_code": "AZ 4327",
      "country_code": "AZ",
      "latitude": 38.7307,
      "longitude": 48.6558,
      "admin_name1": "Lerik"
    },
    {
      "place_name": "Züvüc",
      "postal_code": "AZ 4336",
      "country_code": "AZ",
      "latitude": 38.8627,
      "longitude": 48.3346,
      "admin_name1": "Lerik"
    },
    {
      "place_name": "Təzə Alvadi",
      "postal_code": "AZ 4434",
      "country_code": "AZ",
      "latitude": 39.0872,
      "longitude": 48.6026,
      "admin_name1": "Masalli"
    },
    {
      "place_name": "Zalam",
      "postal_code": "AZ 3629",
      "country_code": "AZ",
      "latitude": 40.8419,
      "longitude": 47.8096,
      "admin_name1": "Qəbələ"
    },
    {
      "place_name": "Qum",
      "postal_code": "AZ 3423",
      "country_code": "AZ",
      "latitude": 41.4586,
      "longitude": 46.9127,
      "admin_name1": "Qax"
    },
    {
      "place_name": "Qazax",
      "postal_code": "AZ 3500",
      "country_code": "AZ",
      "latitude": 41.0925,
      "longitude": 45.3656,
      "admin_name1": "Qazax"
    },
    {
      "place_name": "Kuzun",
      "postal_code": "AZ 3827",
      "country_code": "AZ",
      "latitude": 41.335,
      "longitude": 48.1414,
      "admin_name1": "Qusar"
    },
    {
      "place_name": "Cavad",
      "postal_code": "AZ 5415",
      "country_code": "AZ",
      "latitude": 40.0418,
      "longitude": 48.4694,
      "admin_name1": "Sabirabad"
    },
    {
      "place_name": "Kiş",
      "postal_code": "AZ 5525",
      "country_code": "AZ",
      "latitude": 41.1233,
      "longitude": 47.1802,
      "admin_name1": "Şəki"
    },
    {
      "place_name": "Qizmeydan",
      "postal_code": "AZ 5611",
      "country_code": "AZ",
      "latitude": 40.7745,
      "longitude": 48.7416,
      "admin_name1": "Şamaxi"
    },
    {
      "place_name": "Düyərli",
      "postal_code": "AZ 5716",
      "country_code": "AZ",
      "latitude": 40.9166,
      "longitude": 45.8481,
      "admin_name1": "Şəmkir"
    },
    {
      "place_name": "Şiştəpə",
      "postal_code": "AZ 5726",
      "country_code": "AZ",
      "latitude": 40.846,
      "longitude": 45.9283,
      "admin_name1": "Şəmkir"
    },
    {
      "place_name": "Dəllər Daşbulaq",
      "postal_code": "AZ 5745",
      "country_code": "AZ",
      "latitude": 40.9029,
      "longitude": 46.0444,
      "admin_name1": "Şəmkir"
    },
    {
      "place_name": "Ələsgərli",
      "postal_code": "AZ 5928",
      "country_code": "AZ",
      "latitude": 40.3416,
      "longitude": 46.9785,
      "admin_name1": "Tər-Tər"
    },
    {
      "place_name": "Xələc",
      "postal_code": "AZ 6127",
      "country_code": "AZ",
      "latitude": 40.3426,
      "longitude": 47.683,
      "admin_name1": "Ucar"
    },
    {
      "place_name": "Giləzi",
      "postal_code": "AZ 8011",
      "country_code": "AZ",
      "latitude": 40.8739,
      "longitude": 49.3438,
      "admin_name1": "Xizi"
    },
    {
      "place_name": "Xaldan",
      "postal_code": "AZ 6619",
      "country_code": "AZ",
      "latitude": 40.7131,
      "longitude": 47.2291,
      "admin_name1": "Yevlax"
    },
    {
      "place_name": "Qaraməmmədli",
      "postal_code": "AZ 6623",
      "country_code": "AZ",
      "latitude": 40.4771,
      "longitude": 47.0541,
      "admin_name1": "Yevlax"
    },
    {
      "place_name": "Gülövşə",
      "postal_code": "AZ 6634",
      "country_code": "AZ",
      "latitude": 40.7436,
      "longitude": 47.1838,
      "admin_name1": "Yevlax"
    },
    {
      "place_name": "Novxani",
      "postal_code": "AZ 0119",
      "country_code": "AZ",
      "latitude": 40.5291,
      "longitude": 49.7819,
      "admin_name1": "Abşeron"
    },
    {
      "place_name": "Saray-1pş",
      "postal_code": "AZ 0121",
      "country_code": "AZ",
      "latitude": 40.5085,
      "longitude": 49.7657,
      "admin_name1": "Abşeron"
    },
    {
      "place_name": "Şənlik",
      "postal_code": "AZ 0429",
      "country_code": "AZ",
      "latitude": 40.1322,
      "longitude": 47.4324,
      "admin_name1": "Ağcabədi"
    },
    {
      "place_name": "Baki-3",
      "postal_code": "AZ 1003",
      "country_code": "AZ",
      "latitude": 40.3777,
      "longitude": 49.892,
      "admin_name1": "Baki"
    },
    {
      "place_name": "Baki-20",
      "postal_code": "AZ 1020",
      "country_code": "AZ",
      "latitude": 39.3138,
      "longitude": 49.2072,
      "admin_name1": "Baki"
    },
    {
      "place_name": "Baki-30",
      "postal_code": "AZ 1030",
      "country_code": "AZ",
      "latitude": 39.9179,
      "longitude": 49.2168,
      "admin_name1": "Baki"
    },
    {
      "place_name": "Baki-35",
      "postal_code": "AZ 1035",
      "country_code": "AZ",
      "latitude": 39.9179,
      "longitude": 49.2168,
      "admin_name1": "Baki"
    },
    {
      "place_name": "Baki-69",
      "postal_code": "AZ 1069",
      "country_code": "AZ",
      "latitude": 39.9179,
      "longitude": 49.2168,
      "admin_name1": "Baki"
    },
    {
      "place_name": "Baki-154",
      "postal_code": "AZ 1154",
      "country_code": "AZ",
      "latitude": 40.3777,
      "longitude": 49.892,
      "admin_name1": "Baki"
    },
    {
      "place_name": "Binnətli",
      "postal_code": "AZ 1213",
      "country_code": "AZ",
      "latitude": 39.7627,
      "longitude": 47.6959,
      "admin_name1": "Beyləqan"
    },
    {
      "place_name": "Alar",
      "postal_code": "AZ 1512",
      "country_code": "AZ",
      "latitude": 39.3164,
      "longitude": 48.5349,
      "admin_name1": "Cəlilabad"
    },
    {
      "place_name": "Dəvəçi Vağzal",
      "postal_code": "AZ 1715",
      "country_code": "AZ",
      "latitude": 41.2168,
      "longitude": 48.8801,
      "admin_name1": "Şabran"
    },
    {
      "place_name": "Əmirxanli",
      "postal_code": "AZ 1716",
      "country_code": "AZ",
      "latitude": 41.1282,
      "longitude": 48.9258,
      "admin_name1": "Şabran"
    },
    {
      "place_name": "Şahnəzərli",
      "postal_code": "AZ 1721",
      "country_code": "AZ",
      "latitude": 41.2857,
      "longitude": 48.8783,
      "admin_name1": "Şabran"
    },
    {
      "place_name": "Babi",
      "postal_code": "AZ 1915",
      "country_code": "AZ",
      "latitude": 39.5527,
      "longitude": 47.5921,
      "admin_name1": "Füzuli"
    },
    {
      "place_name": "Şəfəq",
      "postal_code": "AZ 2239",
      "country_code": "AZ",
      "latitude": 40.4523,
      "longitude": 46.6423,
      "admin_name1": "Goranboy"
    },
    {
      "place_name": "Kürdşaban",
      "postal_code": "AZ 2320",
      "country_code": "AZ",
      "latitude": 40.5325,
      "longitude": 47.7522,
      "admin_name1": "Göyçay"
    },
    {
      "place_name": "Bəhrəmtəpə",
      "postal_code": "AZ 3014",
      "country_code": "AZ",
      "latitude": 39.7467,
      "longitude": 47.9589,
      "admin_name1": "Imişli"
    },
    {
      "place_name": "Diyalli",
      "postal_code": "AZ 3115",
      "country_code": "AZ",
      "latitude": 40.7699,
      "longitude": 48.2298,
      "admin_name1": "Ismayilli"
    },
    {
      "place_name": "Quşencə",
      "postal_code": "AZ 3122",
      "country_code": "AZ",
      "latitude": 40.7861,
      "longitude": 48.1838,
      "admin_name1": "Ismayilli"
    },
    {
      "place_name": "Lerik",
      "postal_code": "AZ 4300",
      "country_code": "AZ",
      "latitude": 38.7739,
      "longitude": 48.415,
      "admin_name1": "Lerik"
    },
    {
      "place_name": "Bambaşi",
      "postal_code": "AZ 4411",
      "country_code": "AZ",
      "latitude": 39.0087,
      "longitude": 48.6685,
      "admin_name1": "Masalli"
    },
    {
      "place_name": "Qəriblər",
      "postal_code": "AZ 4442",
      "country_code": "AZ",
      "latitude": 38.9981,
      "longitude": 48.594,
      "admin_name1": "Masalli"
    },
    {
      "place_name": "Hacitəpə",
      "postal_code": "AZ 4446",
      "country_code": "AZ",
      "latitude": 39.1358,
      "longitude": 48.7076,
      "admin_name1": "Masalli"
    },
    {
      "place_name": "Şixli-1",
      "postal_code": "AZ 3529",
      "country_code": "AZ",
      "latitude": 41.164,
      "longitude": 45.2402,
      "admin_name1": "Qazax"
    },
    {
      "place_name": "Əniq",
      "postal_code": "AZ 3816",
      "country_code": "AZ",
      "latitude": 41.3329,
      "longitude": 48.2197,
      "admin_name1": "Qusar"
    },
    {
      "place_name": "Şəki",
      "postal_code": "AZ 5500",
      "country_code": "AZ",
      "latitude": 41.1919,
      "longitude": 47.1706,
      "admin_name1": "Şəki"
    },
    {
      "place_name": "Həsənli",
      "postal_code": "AZ 5214",
      "country_code": "AZ",
      "latitude": 39.736,
      "longitude": 49.0516,
      "admin_name1": "Salyan"
    },
    {
      "place_name": "Muxtariyyət",
      "postal_code": "AZ 5722",
      "country_code": "AZ",
      "latitude": 40.8187,
      "longitude": 46.1051,
      "admin_name1": "Şəmkir"
    },
    {
      "place_name": "Zazali",
      "postal_code": "AZ 5122",
      "country_code": "AZ",
      "latitude": 40.6957,
      "longitude": 46.5117,
      "admin_name1": "Samux"
    },
    {
      "place_name": "1 Sayli Rş",
      "postal_code": "AZ 5301",
      "country_code": "AZ",
      "latitude": 41.0781,
      "longitude": 49.1156,
      "admin_name1": "Siyəzən"
    },
    {
      "place_name": "Seydimli",
      "postal_code": "AZ 5927",
      "country_code": "AZ",
      "latitude": 40.3706,
      "longitude": 46.9324,
      "admin_name1": "Tər-Tər"
    },
    {
      "place_name": "Pirəzə",
      "postal_code": "AZ 0328",
      "country_code": "AZ",
      "latitude": 40.4131,
      "longitude": 47.3463,
      "admin_name1": "Ağdaş"
    },
    {
      "place_name": "Aşaği Kəsəmən",
      "postal_code": "AZ 0513",
      "country_code": "AZ",
      "latitude": 41.1532,
      "longitude": 45.4892,
      "admin_name1": "Ağstafa"
    },
    {
      "place_name": "Baki-44",
      "postal_code": "AZ 1044",
      "country_code": "AZ",
      "latitude": 39.9415,
      "longitude": 48.5493,
      "admin_name1": "Baki"
    },
    {
      "place_name": "Baki-84",
      "postal_code": "AZ 1084",
      "country_code": "AZ",
      "latitude": 39.9179,
      "longitude": 49.2168,
      "admin_name1": "Baki"
    },
    {
      "place_name": "Baki-145",
      "postal_code": "AZ 1145",
      "country_code": "AZ",
      "latitude": 40.3777,
      "longitude": 49.892,
      "admin_name1": "Baki"
    },
    {
      "place_name": "Allahyarli",
      "postal_code": "AZ 1214",
      "country_code": "AZ",
      "latitude": 39.7225,
      "longitude": 47.5725,
      "admin_name1": "Beyləqan"
    },
    {
      "place_name": "Biləsuvar",
      "postal_code": "AZ 1300",
      "country_code": "AZ",
      "latitude": 39.5868,
      "longitude": 48.54,
      "admin_name1": "Biləsuvar"
    },
    {
      "place_name": "Bağbanlar",
      "postal_code": "AZ 1312",
      "country_code": "AZ",
      "latitude": 39.4921,
      "longitude": 48.5627,
      "admin_name1": "Biləsuvar"
    },
    {
      "place_name": "Ağdaş",
      "postal_code": "AZ 1511",
      "country_code": "AZ",
      "latitude": 39.1181,
      "longitude": 48.4961,
      "admin_name1": "Cəlilabad"
    },
    {
      "place_name": "Qabaqtəpə",
      "postal_code": "AZ 1621",
      "country_code": "AZ",
      "latitude": 40.4787,
      "longitude": 45.9068,
      "admin_name1": "Daşkəsən"
    },
    {
      "place_name": "Imişli",
      "postal_code": "AZ 3000",
      "country_code": "AZ",
      "latitude": 39.8709,
      "longitude": 48.0599,
      "admin_name1": "Imişli"
    },
    {
      "place_name": "Şahverdili",
      "postal_code": "AZ 3035",
      "country_code": "AZ",
      "latitude": 39.7962,
      "longitude": 47.9879,
      "admin_name1": "Imişli"
    },
    {
      "place_name": "Qalagah",
      "postal_code": "AZ 3118",
      "country_code": "AZ",
      "latitude": 40.7144,
      "longitude": 47.9364,
      "admin_name1": "Ismayilli"
    },
    {
      "place_name": "Tircan",
      "postal_code": "AZ 3127",
      "country_code": "AZ",
      "latitude": 40.7377,
      "longitude": 48.331,
      "admin_name1": "Ismayilli"
    },
    {
      "place_name": "Sumağali",
      "postal_code": "AZ 3136",
      "country_code": "AZ",
      "latitude": 40.6491,
      "longitude": 48.04,
      "admin_name1": "Ismayilli"
    },
    {
      "place_name": "Yeddioymaq",
      "postal_code": "AZ 4438",
      "country_code": "AZ",
      "latitude": 39.0289,
      "longitude": 48.768,
      "admin_name1": "Masalli"
    },
    {
      "place_name": "Mirzəbəyli",
      "postal_code": "AZ 3622",
      "country_code": "AZ",
      "latitude": 40.9189,
      "longitude": 47.725,
      "admin_name1": "Qəbələ"
    },
    {
      "place_name": "Qax Ingiloy",
      "postal_code": "AZ 3419",
      "country_code": "AZ",
      "latitude": 41.4241,
      "longitude": 46.9386,
      "admin_name1": "Qax"
    },
    {
      "place_name": "Cəfərli",
      "postal_code": "AZ 3516",
      "country_code": "AZ",
      "latitude": 41.0335,
      "longitude": 45.2419,
      "admin_name1": "Qazax"
    },
    {
      "place_name": "Orta Salahli",
      "postal_code": "AZ 3528",
      "country_code": "AZ",
      "latitude": 41.1891,
      "longitude": 45.3248,
      "admin_name1": "Qazax"
    },
    {
      "place_name": "Qobustan",
      "postal_code": "AZ 3700",
      "country_code": "AZ",
      "latitude": 40.5336,
      "longitude": 48.9282,
      "admin_name1": "Qobustan"
    },
    {
      "place_name": "Nabur",
      "postal_code": "AZ 3715",
      "country_code": "AZ",
      "latitude": 40.6316,
      "longitude": 48.9177,
      "admin_name1": "Qobustan"
    },
    {
      "place_name": "Rustov",
      "postal_code": "AZ 4028",
      "country_code": "AZ",
      "latitude": 41.2501,
      "longitude": 48.5771,
      "admin_name1": "Quba"
    },
    {
      "place_name": "Aşaği Ləyər",
      "postal_code": "AZ 3811",
      "country_code": "AZ",
      "latitude": 41.453,
      "longitude": 48.2958,
      "admin_name1": "Qusar"
    },
    {
      "place_name": "Kuzun Qişlaq",
      "postal_code": "AZ 3826",
      "country_code": "AZ",
      "latitude": 41.4013,
      "longitude": 48.2429,
      "admin_name1": "Qusar"
    },
    {
      "place_name": "Piral",
      "postal_code": "AZ 3833",
      "country_code": "AZ",
      "latitude": 41.495,
      "longitude": 48.2857,
      "admin_name1": "Qusar"
    },
    {
      "place_name": "Haciqasimli",
      "postal_code": "AZ 4916",
      "country_code": "AZ",
      "latitude": 39.9135,
      "longitude": 48.244,
      "admin_name1": "Saatli"
    },
    {
      "place_name": "Axtaçi",
      "postal_code": "AZ 5412",
      "country_code": "AZ",
      "latitude": 40.0163,
      "longitude": 48.7175,
      "admin_name1": "Sabirabad"
    },
    {
      "place_name": "Qalağayin",
      "postal_code": "AZ 5423",
      "country_code": "AZ",
      "latitude": 39.9812,
      "longitude": 48.4796,
      "admin_name1": "Sabirabad"
    },
    {
      "place_name": "Quruzma",
      "postal_code": "AZ 5425",
      "country_code": "AZ",
      "latitude": 40.0896,
      "longitude": 48.6096,
      "admin_name1": "Sabirabad"
    },
    {
      "place_name": "Qoxmuq",
      "postal_code": "AZ 5526",
      "country_code": "AZ",
      "latitude": 41.2113,
      "longitude": 47.1407,
      "admin_name1": "Şəki"
    },
    {
      "place_name": "Şamaxi",
      "postal_code": "AZ 5600",
      "country_code": "AZ",
      "latitude": 40.6314,
      "longitude": 48.6414,
      "admin_name1": "Şamaxi"
    },
    {
      "place_name": "Qovlarsari",
      "postal_code": "AZ 5118",
      "country_code": "AZ",
      "latitude": 40.7864,
      "longitude": 46.3461,
      "admin_name1": "Samux"
    },
    {
      "place_name": "Meyvəli",
      "postal_code": "AZ 6626",
      "country_code": "AZ",
      "latitude": 40.7562,
      "longitude": 47.2726,
      "admin_name1": "Yevlax"
    },
    {
      "place_name": "Pirəkəşkül",
      "postal_code": "AZ 0120",
      "country_code": "AZ",
      "latitude": 40.4843,
      "longitude": 49.5925,
      "admin_name1": "Abşeron"
    },
    {
      "place_name": "Minəxorlu",
      "postal_code": "AZ 0424",
      "country_code": "AZ",
      "latitude": 40.0601,
      "longitude": 47.4194,
      "admin_name1": "Ağcabədi"
    },
    {
      "place_name": "Xindiristan",
      "postal_code": "AZ 0227",
      "country_code": "AZ",
      "latitude": 40.125,
      "longitude": 47.1026,
      "admin_name1": "Ağdam"
    },
    {
      "place_name": "Baki-31",
      "postal_code": "AZ 1031",
      "country_code": "AZ",
      "latitude": 39.9179,
      "longitude": 49.2168,
      "admin_name1": "Baki"
    },
    {
      "place_name": "Baki-72",
      "postal_code": "AZ 1072",
      "country_code": "AZ",
      "latitude": 39.9179,
      "longitude": 49.2168,
      "admin_name1": "Baki"
    },
    {
      "place_name": "Baki-150",
      "postal_code": "AZ 1150",
      "country_code": "AZ",
      "latitude": 40.3777,
      "longitude": 49.892,
      "admin_name1": "Baki"
    },
    {
      "place_name": "Mazimçay (Dgk)",
      "postal_code": "AZ 0833",
      "country_code": "AZ",
      "latitude": 41.7325,
      "longitude": 46.3129,
      "admin_name1": "Balakən"
    },
    {
      "place_name": "Kəbirli",
      "postal_code": "AZ 1222",
      "country_code": "AZ",
      "latitude": 39.8519,
      "longitude": 47.5344,
      "admin_name1": "Beyləqan"
    },
    {
      "place_name": "Tatallar",
      "postal_code": "AZ 1230",
      "country_code": "AZ",
      "latitude": 39.7403,
      "longitude": 47.68,
      "admin_name1": "Beyləqan"
    },
    {
      "place_name": "Zeyvə",
      "postal_code": "AZ 1725",
      "country_code": "AZ",
      "latitude": 41.1979,
      "longitude": 48.7409,
      "admin_name1": "Şabran"
    },
    {
      "place_name": "Qarasu",
      "postal_code": "AZ 2413",
      "country_code": "AZ",
      "latitude": 40.1618,
      "longitude": 48.6777,
      "admin_name1": "Haciqabul"
    },
    {
      "place_name": "Soltanmuradli",
      "postal_code": "AZ 3037",
      "country_code": "AZ",
      "latitude": 39.8042,
      "longitude": 48.0746,
      "admin_name1": "Imişli"
    },
    {
      "place_name": "Xəlilli",
      "postal_code": "AZ 3131",
      "country_code": "AZ",
      "latitude": 40.6164,
      "longitude": 48.1984,
      "admin_name1": "Ismayilli"
    },
    {
      "place_name": "Lənkəran",
      "postal_code": "AZ 4200",
      "country_code": "AZ",
      "latitude": 38.7543,
      "longitude": 48.8506,
      "admin_name1": "Lənkəran"
    },
    {
      "place_name": "Hirkan",
      "postal_code": "AZ 4217",
      "country_code": "AZ",
      "latitude": 38.6604,
      "longitude": 48.8121,
      "admin_name1": "Lənkəran"
    },
    {
      "place_name": "Kərgəlan",
      "postal_code": "AZ 4221",
      "country_code": "AZ",
      "latitude": 38.7381,
      "longitude": 48.8079,
      "admin_name1": "Lənkəran"
    },
    {
      "place_name": "Vilvan",
      "postal_code": "AZ 4234",
      "country_code": "AZ",
      "latitude": 38.8257,
      "longitude": 48.7431,
      "admin_name1": "Lənkəran"
    },
    {
      "place_name": "Şingədulan",
      "postal_code": "AZ 4331",
      "country_code": "AZ",
      "latitude": 38.8595,
      "longitude": 48.397,
      "admin_name1": "Lerik"
    },
    {
      "place_name": "Xirmandali",
      "postal_code": "AZ 4421",
      "country_code": "AZ",
      "latitude": 39.1619,
      "longitude": 48.7175,
      "admin_name1": "Masalli"
    },
    {
      "place_name": "Qəbələ",
      "postal_code": "AZ 3600",
      "country_code": "AZ",
      "latitude": 40.9825,
      "longitude": 47.8491,
      "admin_name1": "Qəbələ"
    },
    {
      "place_name": "Dədə Qorqud",
      "postal_code": "AZ 4913",
      "country_code": "AZ",
      "latitude": 39.8708,
      "longitude": 48.3903,
      "admin_name1": "Saatli"
    },
    {
      "place_name": "Zəngənə",
      "postal_code": "AZ 5441",
      "country_code": "AZ",
      "latitude": 40.0934,
      "longitude": 48.4135,
      "admin_name1": "Sabirabad"
    },
    {
      "place_name": "Kürsəngi",
      "postal_code": "AZ 5219",
      "country_code": "AZ",
      "latitude": 39.6879,
      "longitude": 49.0526,
      "admin_name1": "Salyan"
    },
    {
      "place_name": "Corat",
      "postal_code": "AZ 5021",
      "country_code": "AZ",
      "latitude": 40.5718,
      "longitude": 49.7051,
      "admin_name1": "Sumqayit"
    },
    {
      "place_name": "Qaraxanli",
      "postal_code": "AZ 6030",
      "country_code": "AZ",
      "latitude": 41.0436,
      "longitude": 45.6553,
      "admin_name1": "Tovuz"
    },
    {
      "place_name": "Xatinli",
      "postal_code": "AZ 6033",
      "country_code": "AZ",
      "latitude": 41.0439,
      "longitude": 45.6478,
      "admin_name1": "Tovuz"
    },
    {
      "place_name": "Aran 1",
      "postal_code": "AZ 6611",
      "country_code": "AZ",
      "latitude": 40.7182,
      "longitude": 47.1452,
      "admin_name1": "Yevlax"
    },
    {
      "place_name": "Qoyunbinəsi",
      "postal_code": "AZ 6624",
      "country_code": "AZ",
      "latitude": 40.513,
      "longitude": 47.0586,
      "admin_name1": "Yevlax"
    },
    {
      "place_name": "Qimir",
      "postal_code": "AZ 6227",
      "country_code": "AZ",
      "latitude": 41.5293,
      "longitude": 46.6778,
      "admin_name1": "Zaqatala"
    },
    {
      "place_name": "Yengiyan",
      "postal_code": "AZ 6237",
      "country_code": "AZ",
      "latitude": 41.4646,
      "longitude": 46.5734,
      "admin_name1": "Zaqatala"
    },
    {
      "place_name": "Ceyranbatan",
      "postal_code": "AZ 0112",
      "country_code": "AZ",
      "latitude": 40.5419,
      "longitude": 49.6607,
      "admin_name1": "Abşeron"
    },
    {
      "place_name": "Əfətli",
      "postal_code": "AZ 0217",
      "country_code": "AZ",
      "latitude": 40.0094,
      "longitude": 47.0858,
      "admin_name1": "Ağdam"
    },
    {
      "place_name": "Baki-53",
      "postal_code": "AZ 1053",
      "country_code": "AZ",
      "latitude": 39.9179,
      "longitude": 49.2168,
      "admin_name1": "Baki"
    },
    {
      "place_name": "Baki-73",
      "postal_code": "AZ 1073",
      "country_code": "AZ",
      "latitude": 39.9179,
      "longitude": 49.2168,
      "admin_name1": "Baki"
    },
    {
      "place_name": "Baki-77",
      "postal_code": "AZ 1077",
      "country_code": "AZ",
      "latitude": 39.9179,
      "longitude": 49.2168,
      "admin_name1": "Baki"
    },
    {
      "place_name": "Baki-121",
      "postal_code": "AZ 1121",
      "country_code": "AZ",
      "latitude": 40.3777,
      "longitude": 49.892,
      "admin_name1": "Baki"
    },
    {
      "place_name": "Baki-142",
      "postal_code": "AZ 1142",
      "country_code": "AZ",
      "latitude": 40.3777,
      "longitude": 49.892,
      "admin_name1": "Baki"
    },
    {
      "place_name": "Yuxari Aran",
      "postal_code": "AZ 1232",
      "country_code": "AZ",
      "latitude": 39.7327,
      "longitude": 47.6576,
      "admin_name1": "Beyləqan"
    },
    {
      "place_name": "Nəsimikənd",
      "postal_code": "AZ 1320",
      "country_code": "AZ",
      "latitude": 39.8385,
      "longitude": 48.6133,
      "admin_name1": "Biləsuvar"
    },
    {
      "place_name": "Gəndob",
      "postal_code": "AZ 1717",
      "country_code": "AZ",
      "latitude": 41.2168,
      "longitude": 48.8801,
      "admin_name1": "Şabran"
    },
    {
      "place_name": "Qarayazi",
      "postal_code": "AZ 2318",
      "country_code": "AZ",
      "latitude": 40.6281,
      "longitude": 47.9813,
      "admin_name1": "Göyçay"
    },
    {
      "place_name": "Qaraməryəm",
      "postal_code": "AZ 2323",
      "country_code": "AZ",
      "latitude": 40.6127,
      "longitude": 48.015,
      "admin_name1": "Göyçay"
    },
    {
      "place_name": "Qurbanəfəndi",
      "postal_code": "AZ 3129",
      "country_code": "AZ",
      "latitude": 40.8752,
      "longitude": 48.1051,
      "admin_name1": "Ismayilli"
    },
    {
      "place_name": "Mollakənd",
      "postal_code": "AZ 3320",
      "country_code": "AZ",
      "latitude": 40.1169,
      "longitude": 48.1039,
      "admin_name1": "Kürdəmir"
    },
    {
      "place_name": "Neftçala",
      "postal_code": "AZ 4700",
      "country_code": "AZ",
      "latitude": 39.3768,
      "longitude": 49.247,
      "admin_name1": "Neftçala"
    },
    {
      "place_name": "Çuxur Qəbələ",
      "postal_code": "AZ 3613",
      "country_code": "AZ",
      "latitude": 40.8907,
      "longitude": 47.6944,
      "admin_name1": "Qəbələ"
    },
    {
      "place_name": "Təklə",
      "postal_code": "AZ 3719",
      "country_code": "AZ",
      "latitude": 40.588,
      "longitude": 48.8455,
      "admin_name1": "Qobustan"
    },
    {
      "place_name": "Amsar",
      "postal_code": "AZ 4013",
      "country_code": "AZ",
      "latitude": 41.3289,
      "longitude": 48.5403,
      "admin_name1": "Quba"
    },
    {
      "place_name": "Xucbala",
      "postal_code": "AZ 4019",
      "country_code": "AZ",
      "latitude": 41.4149,
      "longitude": 48.4661,
      "admin_name1": "Quba"
    },
    {
      "place_name": "Qusar",
      "postal_code": "AZ 3800",
      "country_code": "AZ",
      "latitude": 41.4275,
      "longitude": 48.4302,
      "admin_name1": "Qusar"
    },
    {
      "place_name": "Oxud",
      "postal_code": "AZ 5527",
      "country_code": "AZ",
      "latitude": 41.2374,
      "longitude": 47.1586,
      "admin_name1": "Şəki"
    },
    {
      "place_name": "Biləcik",
      "postal_code": "AZ 5534",
      "country_code": "AZ",
      "latitude": 41.3322,
      "longitude": 46.9437,
      "admin_name1": "Şəki"
    },
    {
      "place_name": "Baş Göynük-2",
      "postal_code": "AZ 5537",
      "country_code": "AZ",
      "latitude": 41.0751,
      "longitude": 47.1556,
      "admin_name1": "Şəki"
    },
    {
      "place_name": "Arbatan",
      "postal_code": "AZ 5211",
      "country_code": "AZ",
      "latitude": 39.5782,
      "longitude": 48.9488,
      "admin_name1": "Salyan"
    },
    {
      "place_name": "Mirikənd",
      "postal_code": "AZ 5621",
      "country_code": "AZ",
      "latitude": 40.6457,
      "longitude": 48.5445,
      "admin_name1": "Şamaxi"
    },
    {
      "place_name": "Sərkar-2",
      "postal_code": "AZ 5129",
      "country_code": "AZ",
      "latitude": 40.8294,
      "longitude": 46.3758,
      "admin_name1": "Samux"
    },
    {
      "place_name": "Yuxari Şilyan",
      "postal_code": "AZ 6124",
      "country_code": "AZ",
      "latitude": 40.3312,
      "longitude": 47.8125,
      "admin_name1": "Ucar"
    },
    {
      "place_name": "Xudat",
      "postal_code": "AZ 2717",
      "country_code": "AZ",
      "latitude": 41.6305,
      "longitude": 48.6816,
      "admin_name1": "Xaçmaz"
    },
    {
      "place_name": "Qaraçaycek",
      "postal_code": "AZ 2719",
      "country_code": "AZ",
      "latitude": 41.3887,
      "longitude": 48.7733,
      "admin_name1": "Xaçmaz"
    },
    {
      "place_name": "Uzun Oba",
      "postal_code": "AZ 2729",
      "country_code": "AZ",
      "latitude": 41.5898,
      "longitude": 48.7356,
      "admin_name1": "Xaçmaz"
    },
    {
      "place_name": "Xizi",
      "postal_code": "AZ 8000",
      "country_code": "AZ",
      "latitude": 40.9085,
      "longitude": 49.0748,
      "admin_name1": "Xizi"
    },
    {
      "place_name": "Köçəsgər",
      "postal_code": "AZ 0521",
      "country_code": "AZ",
      "latitude": 41.0575,
      "longitude": 45.5211,
      "admin_name1": "Ağstafa"
    },
    {
      "place_name": "Səncərədi",
      "postal_code": "AZ 0719",
      "country_code": "AZ",
      "latitude": 38.4688,
      "longitude": 48.8086,
      "admin_name1": "Astara"
    },
    {
      "place_name": "Baki-12",
      "postal_code": "AZ 1012",
      "country_code": "AZ",
      "latitude": 39.9179,
      "longitude": 49.2168,
      "admin_name1": "Baki"
    },
    {
      "place_name": "Baki-34",
      "postal_code": "AZ 1034",
      "country_code": "AZ",
      "latitude": 39.9179,
      "longitude": 49.2168,
      "admin_name1": "Baki"
    },
    {
      "place_name": "Baki-127",
      "postal_code": "AZ 1127",
      "country_code": "AZ",
      "latitude": 40.3777,
      "longitude": 49.892,
      "admin_name1": "Baki"
    },
    {
      "place_name": "Katex",
      "postal_code": "AZ 0815",
      "country_code": "AZ",
      "latitude": 41.656,
      "longitude": 46.5516,
      "admin_name1": "Balakən"
    },
    {
      "place_name": "Talalar",
      "postal_code": "AZ 0829",
      "country_code": "AZ",
      "latitude": 41.7132,
      "longitude": 46.3763,
      "admin_name1": "Balakən"
    },
    {
      "place_name": "Gəncə",
      "postal_code": "AZ 2000",
      "country_code": "AZ",
      "latitude": 40.6828,
      "longitude": 46.3606,
      "admin_name1": "Gəncə"
    },
    {
      "place_name": "17 Sayli",
      "postal_code": "AZ 2017",
      "country_code": "AZ",
      "latitude": 40.6828,
      "longitude": 46.3606,
      "admin_name1": "Gəncə"
    },
    {
      "place_name": "Tap Qaraqoyunlu",
      "postal_code": "AZ 2240",
      "country_code": "AZ",
      "latitude": 40.4312,
      "longitude": 46.7705,
      "admin_name1": "Goranboy"
    },
    {
      "place_name": "Alxasafa",
      "postal_code": "AZ 2311",
      "country_code": "AZ",
      "latitude": 40.5834,
      "longitude": 47.8416,
      "admin_name1": "Göyçay"
    },
    {
      "place_name": "Göy-Göl",
      "postal_code": "AZ 2500",
      "country_code": "AZ",
      "latitude": 40.617,
      "longitude": 46.3129,
      "admin_name1": "Göy-Göl"
    },
    {
      "place_name": "Üçtəpə",
      "postal_code": "AZ 2527",
      "country_code": "AZ",
      "latitude": 40.6198,
      "longitude": 46.3183,
      "admin_name1": "Göy-Göl"
    },
    {
      "place_name": "Padar Qəsəbə",
      "postal_code": "AZ 2421",
      "country_code": "AZ",
      "latitude": 40.0817,
      "longitude": 48.8907,
      "admin_name1": "Haciqabul"
    },
    {
      "place_name": "Ismayilli",
      "postal_code": "AZ 3100",
      "country_code": "AZ",
      "latitude": 40.7848,
      "longitude": 48.1514,
      "admin_name1": "Ismayilli"
    },
    {
      "place_name": "Hacihətəmli",
      "postal_code": "AZ 3113",
      "country_code": "AZ",
      "latitude": 40.7,
      "longitude": 47.9059,
      "admin_name1": "Ismayilli"
    },
    {
      "place_name": "Vel",
      "postal_code": "AZ 4232",
      "country_code": "AZ",
      "latitude": 38.6763,
      "longitude": 48.8702,
      "admin_name1": "Lənkəran"
    },
    {
      "place_name": "Kələxan",
      "postal_code": "AZ 4320",
      "country_code": "AZ",
      "latitude": 38.6472,
      "longitude": 48.3404,
      "admin_name1": "Lerik"
    },
    {
      "place_name": "Həsənabad",
      "postal_code": "AZ 4717",
      "country_code": "AZ",
      "latitude": 39.3367,
      "longitude": 49.2141,
      "admin_name1": "Neftçala"
    },
    {
      "place_name": "Yuxari Qaramanli",
      "postal_code": "AZ 4728",
      "country_code": "AZ",
      "latitude": 39.4767,
      "longitude": 49.0251,
      "admin_name1": "Neftçala"
    },
    {
      "place_name": "Qirmizi Qəsəbə",
      "postal_code": "AZ 4024",
      "country_code": "AZ",
      "latitude": 41.3716,
      "longitude": 48.5176,
      "admin_name1": "Quba"
    },
    {
      "place_name": "Həzrə",
      "postal_code": "AZ 3819",
      "country_code": "AZ",
      "latitude": 41.5046,
      "longitude": 48.2502,
      "admin_name1": "Qusar"
    },
    {
      "place_name": "Cəfərabad",
      "postal_code": "AZ 5519",
      "country_code": "AZ",
      "latitude": 41.0195,
      "longitude": 47.1547,
      "admin_name1": "Şəki"
    },
    {
      "place_name": "Şorsu",
      "postal_code": "AZ 5532",
      "country_code": "AZ",
      "latitude": 41.1598,
      "longitude": 46.9905,
      "admin_name1": "Şəki"
    },
    {
      "place_name": "Şəkərli",
      "postal_code": "AZ 5233",
      "country_code": "AZ",
      "latitude": 39.6942,
      "longitude": 49.0668,
      "admin_name1": "Salyan"
    },
    {
      "place_name": "Çarhan",
      "postal_code": "AZ 5623",
      "country_code": "AZ",
      "latitude": 40.5523,
      "longitude": 48.6469,
      "admin_name1": "Şamaxi"
    },
    {
      "place_name": "Plankənd",
      "postal_code": "AZ 5723",
      "country_code": "AZ",
      "latitude": 40.8815,
      "longitude": 46.1391,
      "admin_name1": "Şəmkir"
    },
    {
      "place_name": "Yeni Həyat",
      "postal_code": "AZ 5739",
      "country_code": "AZ",
      "latitude": 40.7812,
      "longitude": 46.0957,
      "admin_name1": "Şəmkir"
    },
    {
      "place_name": "Ziyadli",
      "postal_code": "AZ 5123",
      "country_code": "AZ",
      "latitude": 40.7711,
      "longitude": 46.3644,
      "admin_name1": "Samux"
    },
    {
      "place_name": "Zarat",
      "postal_code": "AZ 5315",
      "country_code": "AZ",
      "latitude": 40.9491,
      "longitude": 49.2821,
      "admin_name1": "Siyəzən"
    },
    {
      "place_name": "Yuxari Öysüzlü",
      "postal_code": "AZ 6040",
      "country_code": "AZ",
      "latitude": 40.9455,
      "longitude": 45.546,
      "admin_name1": "Tovuz"
    },
    {
      "place_name": "Hülövlü",
      "postal_code": "AZ 2716",
      "country_code": "AZ",
      "latitude": 41.404,
      "longitude": 48.8101,
      "admin_name1": "Xaçmaz"
    },
    {
      "place_name": "Yalama",
      "postal_code": "AZ 2730",
      "country_code": "AZ",
      "latitude": 41.7594,
      "longitude": 48.5798,
      "admin_name1": "Xaçmaz"
    },
    {
      "place_name": "Xankəndi",
      "postal_code": "AZ 2600",
      "country_code": "AZ",
      "latitude": 39.8177,
      "longitude": 46.7528,
      "admin_name1": "Xankəndi"
    },
    {
      "place_name": "Hökməli",
      "postal_code": "AZ 0115",
      "country_code": "AZ",
      "latitude": 40.4311,
      "longitude": 49.7372,
      "admin_name1": "Abşeron"
    },
    {
      "place_name": "Yeniqaradolaq",
      "postal_code": "AZ 0431",
      "country_code": "AZ",
      "latitude": 39.9876,
      "longitude": 47.3022,
      "admin_name1": "Ağcabədi"
    },
    {
      "place_name": "Ərəbmehdibəy",
      "postal_code": "AZ 0616",
      "country_code": "AZ",
      "latitude": 40.5439,
      "longitude": 48.1855,
      "admin_name1": "Ağsu"
    },
    {
      "place_name": "Baki-37",
      "postal_code": "AZ 1037",
      "country_code": "AZ",
      "latitude": 39.9179,
      "longitude": 49.2168,
      "admin_name1": "Baki"
    },
    {
      "place_name": "Baki-65",
      "postal_code": "AZ 1065",
      "country_code": "AZ",
      "latitude": 39.9179,
      "longitude": 49.2168,
      "admin_name1": "Baki"
    },
    {
      "place_name": "Baki-96",
      "postal_code": "AZ 1096",
      "country_code": "AZ",
      "latitude": 39.9179,
      "longitude": 49.2168,
      "admin_name1": "Baki"
    },
    {
      "place_name": "Baki-126",
      "postal_code": "AZ 1126",
      "country_code": "AZ",
      "latitude": 40.3777,
      "longitude": 49.892,
      "admin_name1": "Baki"
    },
    {
      "place_name": "Baki-133",
      "postal_code": "AZ 1133",
      "country_code": "AZ",
      "latitude": 40.3777,
      "longitude": 49.892,
      "admin_name1": "Baki"
    },
    {
      "place_name": "Baki-135",
      "postal_code": "AZ 1135",
      "country_code": "AZ",
      "latitude": 40.3777,
      "longitude": 49.892,
      "admin_name1": "Baki"
    },
    {
      "place_name": "Bərdə-1",
      "postal_code": "AZ 0901",
      "country_code": "AZ",
      "latitude": 40.3758,
      "longitude": 47.1262,
      "admin_name1": "Bərdə"
    },
    {
      "place_name": "Kətəlparaq",
      "postal_code": "AZ 0922",
      "country_code": "AZ",
      "latitude": 40.2826,
      "longitude": 47.1146,
      "admin_name1": "Bərdə"
    },
    {
      "place_name": "Uzuntəpə",
      "postal_code": "AZ 1527",
      "country_code": "AZ",
      "latitude": 39.2184,
      "longitude": 48.6068,
      "admin_name1": "Cəlilabad"
    },
    {
      "place_name": "11 Sayli",
      "postal_code": "AZ 2011",
      "country_code": "AZ",
      "latitude": 40.6828,
      "longitude": 46.3606,
      "admin_name1": "Gəncə"
    },
    {
      "place_name": "Aşaği Ağcakənd",
      "postal_code": "AZ 2212",
      "country_code": "AZ",
      "latitude": 40.4179,
      "longitude": 46.5648,
      "admin_name1": "Goranboy"
    },
    {
      "place_name": "Qizil Hacili 1",
      "postal_code": "AZ 2232",
      "country_code": "AZ",
      "latitude": 40.5896,
      "longitude": 46.6364,
      "admin_name1": "Goranboy"
    },
    {
      "place_name": "Balçili",
      "postal_code": "AZ 2516",
      "country_code": "AZ",
      "latitude": 40.6883,
      "longitude": 46.2723,
      "admin_name1": "Göy-Göl"
    },
    {
      "place_name": "Yeni Zod",
      "postal_code": "AZ 2528",
      "country_code": "AZ",
      "latitude": 40.4914,
      "longitude": 46.3542,
      "admin_name1": "Göy-Göl"
    },
    {
      "place_name": "Qaradonlu",
      "postal_code": "AZ 3022",
      "country_code": "AZ",
      "latitude": 39.79,
      "longitude": 48.0626,
      "admin_name1": "Imişli"
    },
    {
      "place_name": "Aşiqbayramli",
      "postal_code": "AZ 3112",
      "country_code": "AZ",
      "latitude": 40.7136,
      "longitude": 48.0466,
      "admin_name1": "Ismayilli"
    },
    {
      "place_name": "Separadi",
      "postal_code": "AZ 4228",
      "country_code": "AZ",
      "latitude": 38.8671,
      "longitude": 48.7161,
      "admin_name1": "Lənkəran"
    },
    {
      "place_name": "Hacialili",
      "postal_code": "AZ 3616",
      "country_code": "AZ",
      "latitude": 40.8431,
      "longitude": 47.7297,
      "admin_name1": "Qəbələ"
    },
    {
      "place_name": "Zaragan",
      "postal_code": "AZ 3630",
      "country_code": "AZ",
      "latitude": 40.9321,
      "longitude": 47.8046,
      "admin_name1": "Qəbələ"
    },
    {
      "place_name": "Böyük Əmilli",
      "postal_code": "AZ 3635",
      "country_code": "AZ",
      "latitude": 40.938,
      "longitude": 47.8511,
      "admin_name1": "Qəbələ"
    },
    {
      "place_name": "Yasab",
      "postal_code": "AZ 3836",
      "country_code": "AZ",
      "latitude": 41.4926,
      "longitude": 48.3203,
      "admin_name1": "Qusar"
    },
    {
      "place_name": "Şəhriyar",
      "postal_code": "AZ 5436",
      "country_code": "AZ",
      "latitude": 39.9445,
      "longitude": 48.7138,
      "admin_name1": "Sabirabad"
    },
    {
      "place_name": "Günəşli",
      "postal_code": "AZ 5616",
      "country_code": "AZ",
      "latitude": 40.6505,
      "longitude": 48.6541,
      "admin_name1": "Şamaxi"
    },
    {
      "place_name": "Irmaşli",
      "postal_code": "AZ 5718",
      "country_code": "AZ",
      "latitude": 40.8431,
      "longitude": 45.8911,
      "admin_name1": "Şəmkir"
    },
    {
      "place_name": "Şəmkir Vağzal",
      "postal_code": "AZ 5725",
      "country_code": "AZ",
      "latitude": 40.8692,
      "longitude": 46.0447,
      "admin_name1": "Şəmkir"
    },
    {
      "place_name": "Əliuşaği",
      "postal_code": "AZ 5125",
      "country_code": "AZ",
      "latitude": 40.6946,
      "longitude": 46.4747,
      "admin_name1": "Samux"
    },
    {
      "place_name": "Sariqamiş",
      "postal_code": "AZ 5128",
      "country_code": "AZ",
      "latitude": 40.8261,
      "longitude": 46.3354,
      "admin_name1": "Samux"
    },
    {
      "place_name": "Məsrif",
      "postal_code": "AZ 5316",
      "country_code": "AZ",
      "latitude": 41.0977,
      "longitude": 48.9578,
      "admin_name1": "Siyəzən"
    },
    {
      "place_name": "Qaynaq",
      "postal_code": "AZ 5924",
      "country_code": "AZ",
      "latitude": 40.264,
      "longitude": 47.0136,
      "admin_name1": "Tər-Tər"
    },
    {
      "place_name": "Sarov",
      "postal_code": "AZ 5926",
      "country_code": "AZ",
      "latitude": 40.4768,
      "longitude": 46.9483,
      "admin_name1": "Tər-Tər"
    },
    {
      "place_name": "Dönük Qirixli",
      "postal_code": "AZ 6023",
      "country_code": "AZ",
      "latitude": 40.9632,
      "longitude": 45.6033,
      "admin_name1": "Tovuz"
    },
    {
      "place_name": "Çarxi",
      "postal_code": "AZ 2712",
      "country_code": "AZ",
      "latitude": 41.392,
      "longitude": 48.8696,
      "admin_name1": "Xaçmaz"
    },
    {
      "place_name": "Xanabad",
      "postal_code": "AZ 6620",
      "country_code": "AZ",
      "latitude": 39.97,
      "longitude": 46.8186,
      "admin_name1": "Yevlax"
    },
    {
      "place_name": "Zəngilan",
      "postal_code": "AZ 6400",
      "country_code": "AZ",
      "latitude": 39.0837,
      "longitude": 46.6599,
      "admin_name1": "Zəngilan"
    },
    {
      "place_name": "Car",
      "postal_code": "AZ 6214",
      "country_code": "AZ",
      "latitude": 41.6629,
      "longitude": 46.6776,
      "admin_name1": "Zaqatala"
    },
    {
      "place_name": "Yarməmmədbaği",
      "postal_code": "AZ 6325",
      "country_code": "AZ",
      "latitude": 40.1826,
      "longitude": 47.6079,
      "admin_name1": "Zərdab"
    },
    {
      "place_name": "Boyad",
      "postal_code": "AZ 0412",
      "country_code": "AZ",
      "latitude": 40.0302,
      "longitude": 47.3447,
      "admin_name1": "Ağcabədi"
    },
    {
      "place_name": "Üç Oğlan",
      "postal_code": "AZ 0246",
      "country_code": "AZ",
      "latitude": 40.0619,
      "longitude": 47.0684,
      "admin_name1": "Ağdam"
    },
    {
      "place_name": "Xətai",
      "postal_code": "AZ 0519",
      "country_code": "AZ",
      "latitude": 41.1268,
      "longitude": 45.458,
      "admin_name1": "Ağstafa"
    },
    {
      "place_name": "Çiyni",
      "postal_code": "AZ 0615",
      "country_code": "AZ",
      "latitude": 40.523,
      "longitude": 48.2458,
      "admin_name1": "Ağsu"
    },
    {
      "place_name": "Baki-9",
      "postal_code": "AZ 1009",
      "country_code": "AZ",
      "latitude": 40.3777,
      "longitude": 49.892,
      "admin_name1": "Baki"
    },
    {
      "place_name": "Baki-10",
      "postal_code": "AZ 1010",
      "country_code": "AZ",
      "latitude": 39.9179,
      "longitude": 49.2168,
      "admin_name1": "Baki"
    },
    {
      "place_name": "Baki-88",
      "postal_code": "AZ 1088",
      "country_code": "AZ",
      "latitude": 39.9179,
      "longitude": 49.2168,
      "admin_name1": "Baki"
    },
    {
      "place_name": "Baki-128",
      "postal_code": "AZ 1128",
      "country_code": "AZ",
      "latitude": 40.3777,
      "longitude": 49.892,
      "admin_name1": "Baki"
    },
    {
      "place_name": "Dövrüşlü",
      "postal_code": "AZ 1323",
      "country_code": "AZ",
      "latitude": 39.8385,
      "longitude": 48.6133,
      "admin_name1": "Biləsuvar"
    },
    {
      "place_name": "Ağaliq",
      "postal_code": "AZ 1711",
      "country_code": "AZ",
      "latitude": 41.2168,
      "longitude": 48.8801,
      "admin_name1": "Şabran"
    },
    {
      "place_name": "Gər-Gər",
      "postal_code": "AZ 2123",
      "country_code": "AZ",
      "latitude": 40.629,
      "longitude": 45.4758,
      "admin_name1": "Gədəbəy"
    },
    {
      "place_name": "Xinali",
      "postal_code": "AZ 2225",
      "country_code": "AZ",
      "latitude": 40.7266,
      "longitude": 46.7217,
      "admin_name1": "Goranboy"
    },
    {
      "place_name": "Toğana",
      "postal_code": "AZ 2525",
      "country_code": "AZ",
      "latitude": 40.6198,
      "longitude": 46.3183,
      "admin_name1": "Göy-Göl"
    },
    {
      "place_name": "Atakişili",
      "postal_code": "AZ 3329",
      "country_code": "AZ",
      "latitude": 40.3498,
      "longitude": 48.171,
      "admin_name1": "Kürdəmir"
    },
    {
      "place_name": "10 Sayli",
      "postal_code": "AZ 4510",
      "country_code": "AZ",
      "latitude": 40.7639,
      "longitude": 47.0595,
      "admin_name1": "Mingəçevir"
    },
    {
      "place_name": "Qumlaq",
      "postal_code": "AZ 4821",
      "country_code": "AZ",
      "latitude": 41.0248,
      "longitude": 47.4878,
      "admin_name1": "Oğuz"
    },
    {
      "place_name": "Nic-1",
      "postal_code": "AZ 3623",
      "country_code": "AZ",
      "latitude": 40.902,
      "longitude": 47.8192,
      "admin_name1": "Qəbələ"
    },
    {
      "place_name": "Qaşqaçay",
      "postal_code": "AZ 3421",
      "country_code": "AZ",
      "latitude": 41.387,
      "longitude": 47.0394,
      "admin_name1": "Qax"
    },
    {
      "place_name": "Turacli",
      "postal_code": "AZ 3426",
      "country_code": "AZ",
      "latitude": 41.4152,
      "longitude": 46.7742,
      "admin_name1": "Qax"
    },
    {
      "place_name": "Ağköynək",
      "postal_code": "AZ 3511",
      "country_code": "AZ",
      "latitude": 41.0824,
      "longitude": 45.3374,
      "admin_name1": "Qazax"
    },
    {
      "place_name": "Xanliqlar",
      "postal_code": "AZ 3520",
      "country_code": "AZ",
      "latitude": 41.0657,
      "longitude": 45.2964,
      "admin_name1": "Qazax"
    },
    {
      "place_name": "Çiçi",
      "postal_code": "AZ 4014",
      "country_code": "AZ",
      "latitude": 41.2124,
      "longitude": 48.6776,
      "admin_name1": "Quba"
    },
    {
      "place_name": "Vəl-Vələ",
      "postal_code": "AZ 4031",
      "country_code": "AZ",
      "latitude": 41.3655,
      "longitude": 48.6359,
      "admin_name1": "Quba"
    },
    {
      "place_name": "Azadkənd",
      "postal_code": "AZ 4911",
      "country_code": "AZ",
      "latitude": 39.7906,
      "longitude": 48.5566,
      "admin_name1": "Saatli"
    },
    {
      "place_name": "Sabirabad",
      "postal_code": "AZ 5400",
      "country_code": "AZ",
      "latitude": 40.0087,
      "longitude": 48.477,
      "admin_name1": "Sabirabad"
    },
    {
      "place_name": "Baş Zəyzit",
      "postal_code": "AZ 5517",
      "country_code": "AZ",
      "latitude": 41.1903,
      "longitude": 47.247,
      "admin_name1": "Şəki"
    },
    {
      "place_name": "Qarabağli",
      "postal_code": "AZ 5220",
      "country_code": "AZ",
      "latitude": 39.7675,
      "longitude": 48.9679,
      "admin_name1": "Salyan"
    },
    {
      "place_name": "Kür",
      "postal_code": "AZ 5720",
      "country_code": "AZ",
      "latitude": 40.9058,
      "longitude": 46.1852,
      "admin_name1": "Şəmkir"
    },
    {
      "place_name": "Abulbəyli",
      "postal_code": "AZ 6011",
      "country_code": "AZ",
      "latitude": 40.9961,
      "longitude": 45.607,
      "admin_name1": "Tovuz"
    },
    {
      "place_name": "Müsüslü",
      "postal_code": "AZ 6125",
      "country_code": "AZ",
      "latitude": 40.4539,
      "longitude": 47.9073,
      "admin_name1": "Ucar"
    },
    {
      "place_name": "Şəfəqli",
      "postal_code": "AZ 6523",
      "country_code": "AZ",
      "latitude": 38.9003,
      "longitude": 48.1591,
      "admin_name1": "Yardimli"
    },
    {
      "place_name": "Aran 2",
      "postal_code": "AZ 6612",
      "country_code": "AZ",
      "latitude": 40.7182,
      "longitude": 47.1452,
      "admin_name1": "Yevlax"
    },
    {
      "place_name": "Hürüuşaği",
      "postal_code": "AZ 6616",
      "country_code": "AZ",
      "latitude": 40.7204,
      "longitude": 47.0206,
      "admin_name1": "Yevlax"
    },
    {
      "place_name": "Malbinəsi",
      "postal_code": "AZ 6625",
      "country_code": "AZ",
      "latitude": 40.5048,
      "longitude": 47.0824,
      "admin_name1": "Yevlax"
    },
    {
      "place_name": "Yeni Suvağil",
      "postal_code": "AZ 6236",
      "country_code": "AZ",
      "latitude": 41.4817,
      "longitude": 46.7059,
      "admin_name1": "Zaqatala"
    },
    {
      "place_name": "Qolqəti",
      "postal_code": "AZ 0324",
      "country_code": "AZ",
      "latitude": 40.676,
      "longitude": 47.4744,
      "admin_name1": "Ağdaş"
    },
    {
      "place_name": "Astara Gomruk",
      "postal_code": "AZ 0704",
      "country_code": "AZ",
      "latitude": 38.456,
      "longitude": 48.875,
      "admin_name1": "Astara"
    },
    {
      "place_name": "Baki-29",
      "postal_code": "AZ 1029",
      "country_code": "AZ",
      "latitude": 39.3138,
      "longitude": 49.2072,
      "admin_name1": "Baki"
    },
    {
      "place_name": "Baki-68",
      "postal_code": "AZ 1068",
      "country_code": "AZ",
      "latitude": 39.9179,
      "longitude": 49.2168,
      "admin_name1": "Baki"
    },
    {
      "place_name": "Baki-71",
      "postal_code": "AZ 1071",
      "country_code": "AZ",
      "latitude": 39.9179,
      "longitude": 49.2168,
      "admin_name1": "Baki"
    },
    {
      "place_name": "Baki-74",
      "postal_code": "AZ 1074",
      "country_code": "AZ",
      "latitude": 39.9179,
      "longitude": 49.2168,
      "admin_name1": "Baki"
    },
    {
      "place_name": "Baki-92",
      "postal_code": "AZ 1092",
      "country_code": "AZ",
      "latitude": 39.9179,
      "longitude": 49.2168,
      "admin_name1": "Baki"
    },
    {
      "place_name": "Baki-136",
      "postal_code": "AZ 1136",
      "country_code": "AZ",
      "latitude": 40.3777,
      "longitude": 49.892,
      "admin_name1": "Baki"
    },
    {
      "place_name": "Baki-152",
      "postal_code": "AZ 1152",
      "country_code": "AZ",
      "latitude": 40.3777,
      "longitude": 49.892,
      "admin_name1": "Baki"
    },
    {
      "place_name": "Bərdə-2",
      "postal_code": "AZ 0902",
      "country_code": "AZ",
      "latitude": 40.3758,
      "longitude": 47.1262,
      "admin_name1": "Bərdə"
    },
    {
      "place_name": "Dünyamallar",
      "postal_code": "AZ 1217",
      "country_code": "AZ",
      "latitude": 39.7728,
      "longitude": 47.7589,
      "admin_name1": "Beyləqan"
    },
    {
      "place_name": "Duzqishlaq",
      "postal_code": "AZ 2211",
      "country_code": "AZ",
      "latitude": 40.6282,
      "longitude": 46.6432,
      "admin_name1": "Goranboy"
    },
    {
      "place_name": "Alpoud",
      "postal_code": "AZ 2312",
      "country_code": "AZ",
      "latitude": 40.5834,
      "longitude": 47.8416,
      "admin_name1": "Göyçay"
    },
    {
      "place_name": "Meyniman",
      "postal_code": "AZ 2414",
      "country_code": "AZ",
      "latitude": 40.03,
      "longitude": 48.7682,
      "admin_name1": "Haciqabul"
    },
    {
      "place_name": "Gülyan",
      "postal_code": "AZ 3130",
      "country_code": "AZ",
      "latitude": 40.6491,
      "longitude": 48.04,
      "admin_name1": "Ismayilli"
    },
    {
      "place_name": "Gərmətük",
      "postal_code": "AZ 4214",
      "country_code": "AZ",
      "latitude": 38.7214,
      "longitude": 48.8328,
      "admin_name1": "Lənkəran"
    },
    {
      "place_name": "Osaküçə",
      "postal_code": "AZ 4226",
      "country_code": "AZ",
      "latitude": 38.8094,
      "longitude": 48.7021,
      "admin_name1": "Lənkəran"
    },
    {
      "place_name": "Xil",
      "postal_code": "AZ 4420",
      "country_code": "AZ",
      "latitude": 38.974,
      "longitude": 48.7241,
      "admin_name1": "Masalli"
    },
    {
      "place_name": "Təzəkənd10.4.44.35",
      "postal_code": "AZ 4435",
      "country_code": "AZ",
      "latitude": 39.002,
      "longitude": 48.6685,
      "admin_name1": "Masalli"
    },
    {
      "place_name": "Dizaxli",
      "postal_code": "AZ 3614",
      "country_code": "AZ",
      "latitude": 40.8525,
      "longitude": 47.6781,
      "admin_name1": "Qəbələ"
    },
    {
      "place_name": "Cəlayer",
      "postal_code": "AZ 3413",
      "country_code": "AZ",
      "latitude": 41.4234,
      "longitude": 46.8704,
      "admin_name1": "Qax"
    },
    {
      "place_name": "Kosalar",
      "postal_code": "AZ 3523",
      "country_code": "AZ",
      "latitude": 41.1331,
      "longitude": 45.358,
      "admin_name1": "Qazax"
    },
    {
      "place_name": "Nərimanov Qəsəbəsi",
      "postal_code": "AZ 3533",
      "country_code": "AZ",
      "latitude": 41.1935,
      "longitude": 45.2188,
      "admin_name1": "Qazax"
    },
    {
      "place_name": "Ərəbşalbaş",
      "postal_code": "AZ 3713",
      "country_code": "AZ",
      "latitude": 40.6183,
      "longitude": 48.7613,
      "admin_name1": "Qobustan"
    },
    {
      "place_name": "Hacihüseynli",
      "postal_code": "AZ 4033",
      "country_code": "AZ",
      "latitude": 41.3655,
      "longitude": 48.6359,
      "admin_name1": "Quba"
    },
    {
      "place_name": "Axisxa",
      "postal_code": "AZ 5411",
      "country_code": "AZ",
      "latitude": 40.0855,
      "longitude": 48.5398,
      "admin_name1": "Sabirabad"
    },
    {
      "place_name": "Həşimxanli",
      "postal_code": "AZ 5420",
      "country_code": "AZ",
      "latitude": 40.0093,
      "longitude": 48.6077,
      "admin_name1": "Sabirabad"
    },
    {
      "place_name": "Baş Göynük",
      "postal_code": "AZ 5514",
      "country_code": "AZ",
      "latitude": 41.3258,
      "longitude": 47.1136,
      "admin_name1": "Şəki"
    },
    {
      "place_name": "Köbər Zəyzid",
      "postal_code": "AZ 5540",
      "country_code": "AZ",
      "latitude": 41.137,
      "longitude": 47.1682,
      "admin_name1": "Şəki"
    },
    {
      "place_name": "Marişli",
      "postal_code": "AZ 5223",
      "country_code": "AZ",
      "latitude": 39.5646,
      "longitude": 48.9226,
      "admin_name1": "Salyan"
    },
    {
      "place_name": "Qaracəmirli",
      "postal_code": "AZ 5721",
      "country_code": "AZ",
      "latitude": 40.8501,
      "longitude": 46.2166,
      "admin_name1": "Şəmkir"
    },
    {
      "place_name": "Tovuz",
      "postal_code": "AZ 6000",
      "country_code": "AZ",
      "latitude": 40.9925,
      "longitude": 45.6284,
      "admin_name1": "Tovuz"
    },
    {
      "place_name": "Düz Qirixli",
      "postal_code": "AZ 6025",
      "country_code": "AZ",
      "latitude": 40.9632,
      "longitude": 45.6033,
      "admin_name1": "Tovuz"
    },
    {
      "place_name": "Dədəli",
      "postal_code": "AZ 2713",
      "country_code": "AZ",
      "latitude": 41.575,
      "longitude": 48.7663,
      "admin_name1": "Xaçmaz"
    },
    {
      "place_name": "Bəhmədli",
      "postal_code": "AZ 6213",
      "country_code": "AZ",
      "latitude": 41.5671,
      "longitude": 46.6177,
      "admin_name1": "Zaqatala"
    },
    {
      "place_name": "Əliabad-1",
      "postal_code": "AZ 6219",
      "country_code": "AZ",
      "latitude": 41.5671,
      "longitude": 46.6177,
      "admin_name1": "Zaqatala"
    },
    {
      "place_name": "Səfdəxal",
      "postal_code": "AZ 6324",
      "country_code": "AZ",
      "latitude": 40.1772,
      "longitude": 47.6744,
      "admin_name1": "Zərdab"
    },
    {
      "place_name": "Goradil",
      "postal_code": "AZ 0122",
      "country_code": "AZ",
      "latitude": 40.5486,
      "longitude": 49.8297,
      "admin_name1": "Abşeron"
    },
    {
      "place_name": "Masazir-2",
      "postal_code": "AZ 0123",
      "country_code": "AZ",
      "latitude": 40.5085,
      "longitude": 49.7657,
      "admin_name1": "Abşeron"
    },
    {
      "place_name": "Mahrizli",
      "postal_code": "AZ 0234",
      "country_code": "AZ",
      "latitude": 40.0415,
      "longitude": 47.0599,
      "admin_name1": "Ağdam"
    },
    {
      "place_name": "Dəhnəxəlil",
      "postal_code": "AZ 0331",
      "country_code": "AZ",
      "latitude": 40.6802,
      "longitude": 47.5207,
      "admin_name1": "Ağdaş"
    },
    {
      "place_name": "Sadixli",
      "postal_code": "AZ 0529",
      "country_code": "AZ",
      "latitude": 41.107,
      "longitude": 45.6362,
      "admin_name1": "Ağstafa"
    },
    {
      "place_name": "Baki-27",
      "postal_code": "AZ 1027",
      "country_code": "AZ",
      "latitude": 39.3138,
      "longitude": 49.2072,
      "admin_name1": "Baki"
    },
    {
      "place_name": "Baki-45",
      "postal_code": "AZ 1045",
      "country_code": "AZ",
      "latitude": 39.9415,
      "longitude": 48.5493,
      "admin_name1": "Baki"
    },
    {
      "place_name": "Baki-78",
      "postal_code": "AZ 1078",
      "country_code": "AZ",
      "latitude": 39.9179,
      "longitude": 49.2168,
      "admin_name1": "Baki"
    },
    {
      "place_name": "Baki-129",
      "postal_code": "AZ 1129",
      "country_code": "AZ",
      "latitude": 40.3777,
      "longitude": 49.892,
      "admin_name1": "Baki"
    },
    {
      "place_name": "Baki-140",
      "postal_code": "AZ 1140",
      "country_code": "AZ",
      "latitude": 40.3777,
      "longitude": 49.892,
      "admin_name1": "Baki"
    },
    {
      "place_name": "Baki-141",
      "postal_code": "AZ 1141",
      "country_code": "AZ",
      "latitude": 40.3777,
      "longitude": 49.892,
      "admin_name1": "Baki"
    },
    {
      "place_name": "Balakən",
      "postal_code": "AZ 0800",
      "country_code": "AZ",
      "latitude": 41.7263,
      "longitude": 46.4048,
      "admin_name1": "Balakən"
    },
    {
      "place_name": "Saribulaq",
      "postal_code": "AZ 0826",
      "country_code": "AZ",
      "latitude": 41.679,
      "longitude": 46.3025,
      "admin_name1": "Balakən"
    },
    {
      "place_name": "Yeni Şərif",
      "postal_code": "AZ 0831",
      "country_code": "AZ",
      "latitude": 41.7379,
      "longitude": 46.2559,
      "admin_name1": "Balakən"
    },
    {
      "place_name": "Qaradəmirçi",
      "postal_code": "AZ 0924",
      "country_code": "AZ",
      "latitude": 40.3161,
      "longitude": 47.1701,
      "admin_name1": "Bərdə"
    },
    {
      "place_name": "Daşburun",
      "postal_code": "AZ 1216",
      "country_code": "AZ",
      "latitude": 39.7627,
      "longitude": 47.6959,
      "admin_name1": "Beyləqan"
    },
    {
      "place_name": "Ağalikənd",
      "postal_code": "AZ 1311",
      "country_code": "AZ",
      "latitude": 39.4275,
      "longitude": 48.4541,
      "admin_name1": "Biləsuvar"
    },
    {
      "place_name": "Komanli",
      "postal_code": "AZ 1519",
      "country_code": "AZ",
      "latitude": 39.0846,
      "longitude": 48.5508,
      "admin_name1": "Cəlilabad"
    },
    {
      "place_name": "Dağbilici",
      "postal_code": "AZ 1714",
      "country_code": "AZ",
      "latitude": 41.2168,
      "longitude": 48.8801,
      "admin_name1": "Şabran"
    },
    {
      "place_name": "Çanaqçi",
      "postal_code": "AZ 2111",
      "country_code": "AZ",
      "latitude": 40.4126,
      "longitude": 46.1323,
      "admin_name1": "Gədəbəy"
    },
    {
      "place_name": "Böyük Qaramurad",
      "postal_code": "AZ 2114",
      "country_code": "AZ",
      "latitude": 40.5763,
      "longitude": 45.6373,
      "admin_name1": "Gədəbəy"
    },
    {
      "place_name": "23 Sayli",
      "postal_code": "AZ 2023",
      "country_code": "AZ",
      "latitude": 40.6828,
      "longitude": 46.3606,
      "admin_name1": "Gəncə"
    },
    {
      "place_name": "Qaraman",
      "postal_code": "AZ 2322",
      "country_code": "AZ",
      "latitude": 40.6024,
      "longitude": 47.8133,
      "admin_name1": "Göyçay"
    },
    {
      "place_name": "Yeniarx",
      "postal_code": "AZ 2332",
      "country_code": "AZ",
      "latitude": 40.5713,
      "longitude": 47.6697,
      "admin_name1": "Göyçay"
    },
    {
      "place_name": "Aranli",
      "postal_code": "AZ 3012",
      "country_code": "AZ",
      "latitude": 39.6981,
      "longitude": 48.1035,
      "admin_name1": "Imişli"
    },
    {
      "place_name": "Göbəktala",
      "postal_code": "AZ 3039",
      "country_code": "AZ",
      "latitude": 39.8102,
      "longitude": 48.0072,
      "admin_name1": "Imişli"
    },
    {
      "place_name": "Qalaçiq",
      "postal_code": "AZ 3117",
      "country_code": "AZ",
      "latitude": 40.9602,
      "longitude": 48.045,
      "admin_name1": "Ismayilli"
    },
    {
      "place_name": "Kəlbəcər",
      "postal_code": "AZ 3200",
      "country_code": "AZ",
      "latitude": 40.1098,
      "longitude": 46.0445,
      "admin_name1": "Kəlbəcər"
    },
    {
      "place_name": "Muradxan",
      "postal_code": "AZ 3321",
      "country_code": "AZ",
      "latitude": 40.1903,
      "longitude": 48.1461,
      "admin_name1": "Kürdəmir"
    },
    {
      "place_name": "Rvo",
      "postal_code": "AZ 4227",
      "country_code": "AZ",
      "latitude": 38.7172,
      "longitude": 48.7469,
      "admin_name1": "Lənkəran"
    },
    {
      "place_name": "Boradigah",
      "postal_code": "AZ 4413",
      "country_code": "AZ",
      "latitude": 38.9301,
      "longitude": 48.7092,
      "admin_name1": "Masalli"
    },
    {
      "place_name": "Musaküçə",
      "postal_code": "AZ 4431",
      "country_code": "AZ",
      "latitude": 39.011,
      "longitude": 48.6957,
      "admin_name1": "Masalli"
    },
    {
      "place_name": "Aşaği Qaramanli",
      "postal_code": "AZ 4711",
      "country_code": "AZ",
      "latitude": 39.4299,
      "longitude": 49.0409,
      "admin_name1": "Neftçala"
    },
    {
      "place_name": "Bucaq",
      "postal_code": "AZ 4814",
      "country_code": "AZ",
      "latitude": 41.078,
      "longitude": 47.3698,
      "admin_name1": "Oğuz"
    },
    {
      "place_name": "Siniq Körpü (Dgk)",
      "postal_code": "AZ 3525",
      "country_code": "AZ",
      "latitude": 41.164,
      "longitude": 45.2402,
      "admin_name1": "Qazax"
    },
    {
      "place_name": "Quxur Oba",
      "postal_code": "AZ 3830",
      "country_code": "AZ",
      "latitude": 41.5725,
      "longitude": 48.4237,
      "admin_name1": "Qusar"
    },
    {
      "place_name": "Böyük Dəhnə",
      "postal_code": "AZ 5518",
      "country_code": "AZ",
      "latitude": 40.9733,
      "longitude": 47.114,
      "admin_name1": "Şəki"
    },
    {
      "place_name": "Nağaraxana",
      "postal_code": "AZ 5618",
      "country_code": "AZ",
      "latitude": 40.7422,
      "longitude": 48.6341,
      "admin_name1": "Şamaxi"
    },
    {
      "place_name": "Küçəkənd",
      "postal_code": "AZ 6114",
      "country_code": "AZ",
      "latitude": 40.4756,
      "longitude": 47.8,
      "admin_name1": "Ucar"
    },
    {
      "place_name": "Qimil Qişlaq",
      "postal_code": "AZ 2720",
      "country_code": "AZ",
      "latitude": 41.5898,
      "longitude": 48.7356,
      "admin_name1": "Xaçmaz"
    },
    {
      "place_name": "Köryədi",
      "postal_code": "AZ 6518",
      "country_code": "AZ",
      "latitude": 38.9174,
      "longitude": 48.2787,
      "admin_name1": "Yardimli"
    },
    {
      "place_name": "Gələbədin",
      "postal_code": "AZ 0413",
      "country_code": "AZ",
      "latitude": 40.1387,
      "longitude": 47.2514,
      "admin_name1": "Ağcabədi"
    },
    {
      "place_name": "Bozavand",
      "postal_code": "AZ 0612",
      "country_code": "AZ",
      "latitude": 40.5049,
      "longitude": 48.3762,
      "admin_name1": "Ağsu"
    },
    {
      "place_name": "Kicabə",
      "postal_code": "AZ 0715",
      "country_code": "AZ",
      "latitude": 38.5487,
      "longitude": 48.8242,
      "admin_name1": "Astara"
    },
    {
      "place_name": "Baki-7",
      "postal_code": "AZ 1007",
      "country_code": "AZ",
      "latitude": 40.3777,
      "longitude": 49.892,
      "admin_name1": "Baki"
    },
    {
      "place_name": "Baki-93",
      "postal_code": "AZ 1093",
      "country_code": "AZ",
      "latitude": 39.9179,
      "longitude": 49.2168,
      "admin_name1": "Baki"
    },
    {
      "place_name": "Baki-100",
      "postal_code": "AZ 1100",
      "country_code": "AZ",
      "latitude": 40.3777,
      "longitude": 49.892,
      "admin_name1": "Baki"
    },
    {
      "place_name": "Baki-138",
      "postal_code": "AZ 1138",
      "country_code": "AZ",
      "latitude": 40.3777,
      "longitude": 49.892,
      "admin_name1": "Baki"
    },
    {
      "place_name": "Baki-149",
      "postal_code": "AZ 1149",
      "country_code": "AZ",
      "latitude": 40.3777,
      "longitude": 49.892,
      "admin_name1": "Baki"
    },
    {
      "place_name": "Bərdə",
      "postal_code": "AZ 0900",
      "country_code": "AZ",
      "latitude": 40.3758,
      "longitude": 47.1262,
      "admin_name1": "Bərdə"
    },
    {
      "place_name": "Mirzəcəfərli",
      "postal_code": "AZ 0931",
      "country_code": "AZ",
      "latitude": 40.4733,
      "longitude": 47.1629,
      "admin_name1": "Bərdə"
    },
    {
      "place_name": "Samux",
      "postal_code": "AZ 0938",
      "country_code": "AZ",
      "latitude": 40.7649,
      "longitude": 46.4087,
      "admin_name1": "Bərdə"
    },
    {
      "place_name": "Yenidaşkənd",
      "postal_code": "AZ 0943",
      "country_code": "AZ",
      "latitude": 40.3238,
      "longitude": 47.1275,
      "admin_name1": "Bərdə"
    },
    {
      "place_name": "Beyləqan",
      "postal_code": "AZ 1200",
      "country_code": "AZ",
      "latitude": 39.7756,
      "longitude": 47.6186,
      "admin_name1": "Beyləqan"
    },
    {
      "place_name": "Aşiqli-1",
      "postal_code": "AZ 1215",
      "country_code": "AZ",
      "latitude": 39.7627,
      "longitude": 47.6959,
      "admin_name1": "Beyləqan"
    },
    {
      "place_name": "Milabad",
      "postal_code": "AZ 1226",
      "country_code": "AZ",
      "latitude": 39.6863,
      "longitude": 47.645,
      "admin_name1": "Beyləqan"
    },
    {
      "place_name": "Kərimbəyli",
      "postal_code": "AZ 1930",
      "country_code": "AZ",
      "latitude": 39.5085,
      "longitude": 47.4167,
      "admin_name1": "Füzuli"
    },
    {
      "place_name": "Boluslu",
      "postal_code": "AZ 2215",
      "country_code": "AZ",
      "latitude": 40.6326,
      "longitude": 46.8551,
      "admin_name1": "Goranboy"
    },
    {
      "place_name": "Faxrali",
      "postal_code": "AZ 2218",
      "country_code": "AZ",
      "latitude": 40.7465,
      "longitude": 46.5592,
      "admin_name1": "Goranboy"
    },
    {
      "place_name": "Qarabaqqal",
      "postal_code": "AZ 2321",
      "country_code": "AZ",
      "latitude": 40.6335,
      "longitude": 47.7908,
      "admin_name1": "Göyçay"
    },
    {
      "place_name": "Potu",
      "postal_code": "AZ 2330",
      "country_code": "AZ",
      "latitude": 40.6153,
      "longitude": 47.7409,
      "admin_name1": "Göyçay"
    },
    {
      "place_name": "Lahic",
      "postal_code": "AZ 3123",
      "country_code": "AZ",
      "latitude": 40.8462,
      "longitude": 48.3823,
      "admin_name1": "Ismayilli"
    },
    {
      "place_name": "Karrar",
      "postal_code": "AZ 3316",
      "country_code": "AZ",
      "latitude": 40.2824,
      "longitude": 48.3657,
      "admin_name1": "Kürdəmir"
    },
    {
      "place_name": "Siğirli",
      "postal_code": "AZ 3323",
      "country_code": "AZ",
      "latitude": 40.2676,
      "longitude": 48.4092,
      "admin_name1": "Kürdəmir"
    },
    {
      "place_name": "Topalhəsənli",
      "postal_code": "AZ 3327",
      "country_code": "AZ",
      "latitude": 40.3845,
      "longitude": 48.1957,
      "admin_name1": "Kürdəmir"
    },
    {
      "place_name": "Istisu",
      "postal_code": "AZ 4219",
      "country_code": "AZ",
      "latitude": 38.794,
      "longitude": 48.736,
      "admin_name1": "Lənkəran"
    },
    {
      "place_name": "Qarğaliq",
      "postal_code": "AZ 4425",
      "country_code": "AZ",
      "latitude": 39.0777,
      "longitude": 48.7468,
      "admin_name1": "Masalli"
    },
    {
      "place_name": "Şərəfə",
      "postal_code": "AZ 4433",
      "country_code": "AZ",
      "latitude": 39.0661,
      "longitude": 48.6821,
      "admin_name1": "Masalli"
    },
    {
      "place_name": "Qirmizikənd",
      "postal_code": "AZ 4724",
      "country_code": "AZ",
      "latitude": 39.3424,
      "longitude": 48.7632,
      "admin_name1": "Neftçala"
    },
    {
      "place_name": "Şixli-2",
      "postal_code": "AZ 3530",
      "country_code": "AZ",
      "latitude": 41.3116,
      "longitude": 45.0992,
      "admin_name1": "Qazax"
    },
    {
      "place_name": "Vladimirovka",
      "postal_code": "AZ 4032",
      "country_code": "AZ",
      "latitude": 41.3983,
      "longitude": 48.5483,
      "admin_name1": "Quba"
    },
    {
      "place_name": "Imamqulukənd",
      "postal_code": "AZ 3824",
      "country_code": "AZ",
      "latitude": 41.4013,
      "longitude": 48.2429,
      "admin_name1": "Qusar"
    },
    {
      "place_name": "Əlisoltanli",
      "postal_code": "AZ 4914",
      "country_code": "AZ",
      "latitude": 39.9023,
      "longitude": 48.3391,
      "admin_name1": "Saatli"
    },
    {
      "place_name": "Kürkəndi",
      "postal_code": "AZ 5422",
      "country_code": "AZ",
      "latitude": 40.0262,
      "longitude": 48.4821,
      "admin_name1": "Sabirabad"
    },
    {
      "place_name": "Əliyaqublu",
      "postal_code": "AZ 5717",
      "country_code": "AZ",
      "latitude": 40.8354,
      "longitude": 46.0834,
      "admin_name1": "Şəmkir"
    },
    {
      "place_name": "Qilincbəyli",
      "postal_code": "AZ 5743",
      "country_code": "AZ",
      "latitude": 40.8173,
      "longitude": 46.2212,
      "admin_name1": "Şəmkir"
    },
    {
      "place_name": "Seyidlər",
      "postal_code": "AZ 5121",
      "country_code": "AZ",
      "latitude": 40.8494,
      "longitude": 46.2966,
      "admin_name1": "Samux"
    },
    {
      "place_name": "Bəyimsarov",
      "postal_code": "AZ 5912",
      "country_code": "AZ",
      "latitude": 40.4768,
      "longitude": 46.9483,
      "admin_name1": "Tər-Tər"
    },
    {
      "place_name": "Aşaği Öysüzlü",
      "postal_code": "AZ 6016",
      "country_code": "AZ",
      "latitude": 40.9727,
      "longitude": 45.5909,
      "admin_name1": "Tovuz"
    },
    {
      "place_name": "Nurallar",
      "postal_code": "AZ 6629",
      "country_code": "AZ",
      "latitude": 40.4771,
      "longitude": 47.0541,
      "admin_name1": "Yevlax"
    },
    {
      "place_name": "Danaçi",
      "postal_code": "AZ 6216",
      "country_code": "AZ",
      "latitude": 41.5506,
      "longitude": 46.4217,
      "admin_name1": "Zaqatala"
    },
    {
      "place_name": "At Yali",
      "postal_code": "AZ 0130",
      "country_code": "AZ",
      "latitude": 40.4982,
      "longitude": 49.7582,
      "admin_name1": "Abşeron"
    },
    {
      "place_name": "Yenicə",
      "postal_code": "AZ 0332",
      "country_code": "AZ",
      "latitude": 40.5419,
      "longitude": 47.4851,
      "admin_name1": "Ağdaş"
    },
    {
      "place_name": "Ərəb",
      "postal_code": "AZ 0340",
      "country_code": "AZ",
      "latitude": 40.6714,
      "longitude": 47.5892,
      "admin_name1": "Ağdaş"
    },
    {
      "place_name": "Baki-48",
      "postal_code": "AZ 1048",
      "country_code": "AZ",
      "latitude": 39.9415,
      "longitude": 48.5493,
      "admin_name1": "Baki"
    },
    {
      "place_name": "Baki-49",
      "postal_code": "AZ 1049",
      "country_code": "AZ",
      "latitude": 39.9415,
      "longitude": 48.5493,
      "admin_name1": "Baki"
    },
    {
      "place_name": "Baki-75",
      "postal_code": "AZ 1075",
      "country_code": "AZ",
      "latitude": 39.9179,
      "longitude": 49.2168,
      "admin_name1": "Baki"
    },
    {
      "place_name": "Cəlilabad",
      "postal_code": "AZ 1500",
      "country_code": "AZ",
      "latitude": 39.2096,
      "longitude": 48.4919,
      "admin_name1": "Cəlilabad"
    },
    {
      "place_name": "Hamarqişlaq",
      "postal_code": "AZ 1517",
      "country_code": "AZ",
      "latitude": 39.1694,
      "longitude": 48.4692,
      "admin_name1": "Cəlilabad"
    },
    {
      "place_name": "Qarakazimli",
      "postal_code": "AZ 1520",
      "country_code": "AZ",
      "latitude": 39.3071,
      "longitude": 48.2769,
      "admin_name1": "Cəlilabad"
    },
    {
      "place_name": "Nizami",
      "postal_code": "AZ 2235",
      "country_code": "AZ",
      "latitude": 40.6628,
      "longitude": 46.5235,
      "admin_name1": "Goranboy"
    },
    {
      "place_name": "Mollacəlilli",
      "postal_code": "AZ 2521",
      "country_code": "AZ",
      "latitude": 40.5925,
      "longitude": 46.3708,
      "admin_name1": "Göy-Göl"
    },
    {
      "place_name": "Nadel",
      "postal_code": "AZ 2522",
      "country_code": "AZ",
      "latitude": 40.7399,
      "longitude": 46.29,
      "admin_name1": "Göy-Göl"
    },
    {
      "place_name": "Atbulaq",
      "postal_code": "AZ 2412",
      "country_code": "AZ",
      "latitude": 39.9731,
      "longitude": 49.2624,
      "admin_name1": "Haciqabul"
    },
    {
      "place_name": "Ağaməmmədli",
      "postal_code": "AZ 3011",
      "country_code": "AZ",
      "latitude": 39.9589,
      "longitude": 47.99,
      "admin_name1": "Imişli"
    },
    {
      "place_name": "Mollaisaqli",
      "postal_code": "AZ 3135",
      "country_code": "AZ",
      "latitude": 40.6817,
      "longitude": 47.8816,
      "admin_name1": "Ismayilli"
    },
    {
      "place_name": "Vizəzəmin",
      "postal_code": "AZ 4335",
      "country_code": "AZ",
      "latitude": 38.7709,
      "longitude": 48.5192,
      "admin_name1": "Lerik"
    },
    {
      "place_name": "Kolatan",
      "postal_code": "AZ 4423",
      "country_code": "AZ",
      "latitude": 39.0259,
      "longitude": 48.7223,
      "admin_name1": "Masalli"
    },
    {
      "place_name": "Qizilavar",
      "postal_code": "AZ 4427",
      "country_code": "AZ",
      "latitude": 38.9647,
      "longitude": 48.6793,
      "admin_name1": "Masalli"
    },
    {
      "place_name": "Tüntül",
      "postal_code": "AZ 3627",
      "country_code": "AZ",
      "latitude": 40.93,
      "longitude": 47.8811,
      "admin_name1": "Qəbələ"
    },
    {
      "place_name": "Nohurqişlaq",
      "postal_code": "AZ 3632",
      "country_code": "AZ",
      "latitude": 40.944,
      "longitude": 47.8976,
      "admin_name1": "Qəbələ"
    },
    {
      "place_name": "Yuxari Zeyxur",
      "postal_code": "AZ 3838",
      "country_code": "AZ",
      "latitude": 41.5692,
      "longitude": 48.3817,
      "admin_name1": "Qusar"
    },
    {
      "place_name": "Xanlarkənd",
      "postal_code": "AZ 4917",
      "country_code": "AZ",
      "latitude": 39.8873,
      "longitude": 48.617,
      "admin_name1": "Saatli"
    },
    {
      "place_name": "Qara Nuru",
      "postal_code": "AZ 4918",
      "country_code": "AZ",
      "latitude": 39.9238,
      "longitude": 48.4993,
      "admin_name1": "Saatli"
    },
    {
      "place_name": "Saatlikənd",
      "postal_code": "AZ 4927",
      "country_code": "AZ",
      "latitude": 39.8912,
      "longitude": 48.4977,
      "admin_name1": "Saatli"
    },
    {
      "place_name": "Aşaği Göynük",
      "postal_code": "AZ 5511",
      "country_code": "AZ",
      "latitude": 41.2848,
      "longitude": 47.0227,
      "admin_name1": "Şəki"
    },
    {
      "place_name": "Nabran",
      "postal_code": "AZ 2724",
      "country_code": "AZ",
      "latitude": 41.7609,
      "longitude": 48.6926,
      "admin_name1": "Xaçmaz"
    },
    {
      "place_name": "Çayüzü",
      "postal_code": "AZ 6515",
      "country_code": "AZ",
      "latitude": 38.9238,
      "longitude": 48.2325,
      "admin_name1": "Yardimli"
    },
    {
      "place_name": "Qandax",
      "postal_code": "AZ 6225",
      "country_code": "AZ",
      "latitude": 41.4755,
      "longitude": 46.5413,
      "admin_name1": "Zaqatala"
    },
    {
      "place_name": "Mazix",
      "postal_code": "AZ 6230",
      "country_code": "AZ",
      "latitude": 41.6583,
      "longitude": 46.5816,
      "admin_name1": "Zaqatala"
    },
    {
      "place_name": "Yuxari Çardaxlar",
      "postal_code": "AZ 6238",
      "country_code": "AZ",
      "latitude": 41.5889,
      "longitude": 46.7552,
      "admin_name1": "Zaqatala"
    },
    {
      "place_name": "Məmmədqasimli",
      "postal_code": "AZ 6321",
      "country_code": "AZ",
      "latitude": 40.2022,
      "longitude": 47.5915,
      "admin_name1": "Zərdab"
    },
    {
      "place_name": "Səməd Vurğun",
      "postal_code": "AZ 0528",
      "country_code": "AZ",
      "latitude": 40.919,
      "longitude": 46.1906,
      "admin_name1": "Ağstafa"
    },
    {
      "place_name": "Növcü",
      "postal_code": "AZ 0625",
      "country_code": "AZ",
      "latitude": 40.5187,
      "longitude": 48.2595,
      "admin_name1": "Ağsu"
    },
    {
      "place_name": "Baki-2",
      "postal_code": "AZ 1002",
      "country_code": "AZ",
      "latitude": 40.3777,
      "longitude": 49.892,
      "admin_name1": "Baki"
    },
    {
      "place_name": "Baki-50",
      "postal_code": "AZ 1050",
      "country_code": "AZ",
      "latitude": 39.9179,
      "longitude": 49.2168,
      "admin_name1": "Baki"
    },
    {
      "place_name": "Baki-79",
      "postal_code": "AZ 1079",
      "country_code": "AZ",
      "latitude": 39.9179,
      "longitude": 49.2168,
      "admin_name1": "Baki"
    },
    {
      "place_name": "Baki-117",
      "postal_code": "AZ 1117",
      "country_code": "AZ",
      "latitude": 40.3777,
      "longitude": 49.892,
      "admin_name1": "Baki"
    },
    {
      "place_name": "Baki-123",
      "postal_code": "AZ 1123",
      "country_code": "AZ",
      "latitude": 40.3777,
      "longitude": 49.892,
      "admin_name1": "Baki"
    },
    {
      "place_name": "Meşəşambul",
      "postal_code": "AZ 0824",
      "country_code": "AZ",
      "latitude": 41.7129,
      "longitude": 46.2905,
      "admin_name1": "Balakən"
    },
    {
      "place_name": "Bərdə St",
      "postal_code": "AZ 0912",
      "country_code": "AZ",
      "latitude": 40.4064,
      "longitude": 47.1376,
      "admin_name1": "Bərdə"
    },
    {
      "place_name": "Cəngan",
      "postal_code": "AZ 1513",
      "country_code": "AZ",
      "latitude": 39.1827,
      "longitude": 48.3233,
      "admin_name1": "Cəlilabad"
    },
    {
      "place_name": "Dəvəçikənd",
      "postal_code": "AZ 1720",
      "country_code": "AZ",
      "latitude": 41.2418,
      "longitude": 48.8096,
      "admin_name1": "Şabran"
    },
    {
      "place_name": "Dəyirmandağ",
      "postal_code": "AZ 2118",
      "country_code": "AZ",
      "latitude": 40.5592,
      "longitude": 45.6957,
      "admin_name1": "Gədəbəy"
    },
    {
      "place_name": "Alnabat",
      "postal_code": "AZ 2120",
      "country_code": "AZ",
      "latitude": 40.629,
      "longitude": 45.4758,
      "admin_name1": "Gədəbəy"
    },
    {
      "place_name": "Miskinli",
      "postal_code": "AZ 2138",
      "country_code": "AZ",
      "latitude": 40.8293,
      "longitude": 46.1176,
      "admin_name1": "Gədəbəy"
    },
    {
      "place_name": "Biğir",
      "postal_code": "AZ 2314",
      "country_code": "AZ",
      "latitude": 40.6052,
      "longitude": 47.8499,
      "admin_name1": "Göyçay"
    },
    {
      "place_name": "Ləkçiplaq",
      "postal_code": "AZ 2325",
      "country_code": "AZ",
      "latitude": 40.581,
      "longitude": 47.8044,
      "admin_name1": "Göyçay"
    },
    {
      "place_name": "Mirti",
      "postal_code": "AZ 2328",
      "country_code": "AZ",
      "latitude": 40.5691,
      "longitude": 47.8525,
      "admin_name1": "Göyçay"
    },
    {
      "place_name": "Çaykənd",
      "postal_code": "AZ 2512",
      "country_code": "AZ",
      "latitude": 40.6121,
      "longitude": 46.3035,
      "admin_name1": "Göy-Göl"
    },
    {
      "place_name": "Bəcrəvan",
      "postal_code": "AZ 3013",
      "country_code": "AZ",
      "latitude": 39.8012,
      "longitude": 48.0174,
      "admin_name1": "Imişli"
    },
    {
      "place_name": "Karrar Qəsəbə",
      "postal_code": "AZ 3314",
      "country_code": "AZ",
      "latitude": 40.3042,
      "longitude": 48.1924,
      "admin_name1": "Kürdəmir"
    },
    {
      "place_name": "Girdəni",
      "postal_code": "AZ 4215",
      "country_code": "AZ",
      "latitude": 38.7972,
      "longitude": 48.7861,
      "admin_name1": "Lənkəran"
    },
    {
      "place_name": "Qosmalyan",
      "postal_code": "AZ 4322",
      "country_code": "AZ",
      "latitude": 38.6732,
      "longitude": 48.3704,
      "admin_name1": "Lerik"
    },
    {
      "place_name": "Monidigah",
      "postal_code": "AZ 4324",
      "country_code": "AZ",
      "latitude": 38.7242,
      "longitude": 48.4481,
      "admin_name1": "Lerik"
    },
    {
      "place_name": "Köhnə Alvadi",
      "postal_code": "AZ 4424",
      "country_code": "AZ",
      "latitude": 39.0549,
      "longitude": 48.6184,
      "admin_name1": "Masalli"
    },
    {
      "place_name": "Aslanbəyli",
      "postal_code": "AZ 3513",
      "country_code": "AZ",
      "latitude": 41.2315,
      "longitude": 45.1653,
      "admin_name1": "Qazax"
    },
    {
      "place_name": "Quba",
      "postal_code": "AZ 4000",
      "country_code": "AZ",
      "latitude": 41.3611,
      "longitude": 48.5134,
      "admin_name1": "Quba"
    },
    {
      "place_name": "Gündüzqala",
      "postal_code": "AZ 3818",
      "country_code": "AZ",
      "latitude": 41.5294,
      "longitude": 48.4321,
      "admin_name1": "Qusar"
    },
    {
      "place_name": "Qasimbəyli",
      "postal_code": "AZ 5427",
      "country_code": "AZ",
      "latitude": 40.0346,
      "longitude": 48.3392,
      "admin_name1": "Sabirabad"
    },
    {
      "place_name": "Qəzli",
      "postal_code": "AZ 5428",
      "country_code": "AZ",
      "latitude": 40.085,
      "longitude": 48.6089,
      "admin_name1": "Sabirabad"
    },
    {
      "place_name": "Sədan",
      "postal_code": "AZ 5314",
      "country_code": "AZ",
      "latitude": 41.0652,
      "longitude": 49.0391,
      "admin_name1": "Siyəzən"
    },
    {
      "place_name": "Əsrik Cirdaxan",
      "postal_code": "AZ 6028",
      "country_code": "AZ",
      "latitude": 40.864,
      "longitude": 45.6261,
      "admin_name1": "Tovuz"
    },
    {
      "place_name": "Bərgüşad",
      "postal_code": "AZ 6113",
      "country_code": "AZ",
      "latitude": 40.3956,
      "longitude": 47.8464,
      "admin_name1": "Ucar"
    },
    {
      "place_name": "Şahliq",
      "postal_code": "AZ 6128",
      "country_code": "AZ",
      "latitude": 40.4692,
      "longitude": 47.4907,
      "admin_name1": "Ucar"
    },
    {
      "place_name": "Arus",
      "postal_code": "AZ 6512",
      "country_code": "AZ",
      "latitude": 38.9504,
      "longitude": 48.3245,
      "admin_name1": "Yardimli"
    },
    {
      "place_name": "Vərgədüz",
      "postal_code": "AZ 6526",
      "country_code": "AZ",
      "latitude": 38.8989,
      "longitude": 48.3175,
      "admin_name1": "Yardimli"
    },
    {
      "place_name": "Çobankol",
      "postal_code": "AZ 6215",
      "country_code": "AZ",
      "latitude": 41.5364,
      "longitude": 46.7022,
      "admin_name1": "Zaqatala"
    },
    {
      "place_name": "Gəgəli",
      "postal_code": "AZ 0618",
      "country_code": "AZ",
      "latitude": 40.5385,
      "longitude": 48.4942,
      "admin_name1": "Ağsu"
    },
    {
      "place_name": "Qaraqoyunlu",
      "postal_code": "AZ 0623",
      "country_code": "AZ",
      "latitude": 40.5404,
      "longitude": 48.2995,
      "admin_name1": "Ağsu"
    },
    {
      "place_name": "Pensər",
      "postal_code": "AZ 0717",
      "country_code": "AZ",
      "latitude": 38.6097,
      "longitude": 48.8175,
      "admin_name1": "Astara"
    },
    {
      "place_name": "Baki-16",
      "postal_code": "AZ 1016",
      "country_code": "AZ",
      "latitude": 39.9179,
      "longitude": 49.2168,
      "admin_name1": "Baki"
    },
    {
      "place_name": "Baki-23",
      "postal_code": "AZ 1023",
      "country_code": "AZ",
      "latitude": 39.3138,
      "longitude": 49.2072,
      "admin_name1": "Baki"
    },
    {
      "place_name": "Baki-41",
      "postal_code": "AZ 1041",
      "country_code": "AZ",
      "latitude": 39.9415,
      "longitude": 48.5493,
      "admin_name1": "Baki"
    },
    {
      "place_name": "Baki-111",
      "postal_code": "AZ 1111",
      "country_code": "AZ",
      "latitude": 40.3777,
      "longitude": 49.892,
      "admin_name1": "Baki"
    },
    {
      "place_name": "Baki-118",
      "postal_code": "AZ 1118",
      "country_code": "AZ",
      "latitude": 40.3777,
      "longitude": 49.892,
      "admin_name1": "Baki"
    },
    {
      "place_name": "Baki-132",
      "postal_code": "AZ 1132",
      "country_code": "AZ",
      "latitude": 40.3777,
      "longitude": 49.892,
      "admin_name1": "Baki"
    },
    {
      "place_name": "Gərəkli",
      "postal_code": "AZ 0811",
      "country_code": "AZ",
      "latitude": 41.7618,
      "longitude": 46.3274,
      "admin_name1": "Balakən"
    },
    {
      "place_name": "Hacalli",
      "postal_code": "AZ 0918",
      "country_code": "AZ",
      "latitude": 40.4781,
      "longitude": 47.0623,
      "admin_name1": "Bərdə"
    },
    {
      "place_name": "Qoşabulaq",
      "postal_code": "AZ 2133",
      "country_code": "AZ",
      "latitude": 40.7442,
      "longitude": 45.7407,
      "admin_name1": "Gədəbəy"
    },
    {
      "place_name": "Sarixanli",
      "postal_code": "AZ 3036",
      "country_code": "AZ",
      "latitude": 39.8232,
      "longitude": 47.9227,
      "admin_name1": "Imişli"
    },
    {
      "place_name": "Qalinçaq",
      "postal_code": "AZ 3119",
      "country_code": "AZ",
      "latitude": 40.8179,
      "longitude": 48.0901,
      "admin_name1": "Ismayilli"
    },
    {
      "place_name": "Zar (Gənjə)",
      "postal_code": "AZ 3218",
      "country_code": "AZ",
      "latitude": 40.1098,
      "longitude": 46.0445,
      "admin_name1": "Kəlbəcər"
    },
    {
      "place_name": "Bürcəli",
      "postal_code": "AZ 4235",
      "country_code": "AZ",
      "latitude": 38.6642,
      "longitude": 48.7951,
      "admin_name1": "Lənkəran"
    },
    {
      "place_name": "Hişkədərə",
      "postal_code": "AZ 4419",
      "country_code": "AZ",
      "latitude": 38.911,
      "longitude": 48.6997,
      "admin_name1": "Masalli"
    },
    {
      "place_name": "Xol Qarabucaq",
      "postal_code": "AZ 4720",
      "country_code": "AZ",
      "latitude": 39.3087,
      "longitude": 48.8182,
      "admin_name1": "Neftçala"
    },
    {
      "place_name": "Kürd",
      "postal_code": "AZ 3618",
      "country_code": "AZ",
      "latitude": 40.8063,
      "longitude": 47.6896,
      "admin_name1": "Qəbələ"
    },
    {
      "place_name": "Daş Salahli",
      "postal_code": "AZ 3518",
      "country_code": "AZ",
      "latitude": 41.14,
      "longitude": 45.2683,
      "admin_name1": "Qazax"
    },
    {
      "place_name": "Yuxari Salahli",
      "postal_code": "AZ 3532",
      "country_code": "AZ",
      "latitude": 41.2435,
      "longitude": 45.2669,
      "admin_name1": "Qazax"
    },
    {
      "place_name": "Nügədi-2",
      "postal_code": "AZ 4027",
      "country_code": "AZ",
      "latitude": 41.2695,
      "longitude": 48.4946,
      "admin_name1": "Quba"
    },
    {
      "place_name": "Qubadli",
      "postal_code": "AZ 3900",
      "country_code": "AZ",
      "latitude": 39.3444,
      "longitude": 46.5818,
      "admin_name1": "Qubadli"
    },
    {
      "place_name": "Düztahir",
      "postal_code": "AZ 3814",
      "country_code": "AZ",
      "latitude": 41.4095,
      "longitude": 48.1529,
      "admin_name1": "Qusar"
    },
    {
      "place_name": "Qaraçalar",
      "postal_code": "AZ 4919",
      "country_code": "AZ",
      "latitude": 39.887,
      "longitude": 48.311,
      "admin_name1": "Saatli"
    },
    {
      "place_name": "Nizamikənd",
      "postal_code": "AZ 5434",
      "country_code": "AZ",
      "latitude": 39.9927,
      "longitude": 48.6572,
      "admin_name1": "Sabirabad"
    },
    {
      "place_name": "Cumaykənd",
      "postal_code": "AZ 5521",
      "country_code": "AZ",
      "latitude": 41.1233,
      "longitude": 47.1802,
      "admin_name1": "Şəki"
    },
    {
      "place_name": "Xalac",
      "postal_code": "AZ 5215",
      "country_code": "AZ",
      "latitude": 39.75,
      "longitude": 49.0411,
      "admin_name1": "Salyan"
    },
    {
      "place_name": "Çuxuryurd",
      "postal_code": "AZ 5614",
      "country_code": "AZ",
      "latitude": 40.7118,
      "longitude": 48.6319,
      "admin_name1": "Şamaxi"
    },
    {
      "place_name": "Göylər",
      "postal_code": "AZ 5615",
      "country_code": "AZ",
      "latitude": 40.6505,
      "longitude": 48.6541,
      "admin_name1": "Şamaxi"
    },
    {
      "place_name": "Ipək Yolu",
      "postal_code": "AZ 5732",
      "country_code": "AZ",
      "latitude": 40.8648,
      "longitude": 46.0708,
      "admin_name1": "Şəmkir"
    },
    {
      "place_name": "Səhlabad",
      "postal_code": "AZ 5929",
      "country_code": "AZ",
      "latitude": 40.3919,
      "longitude": 46.9946,
      "admin_name1": "Tər-Tər"
    },
    {
      "place_name": "Əyyublu",
      "postal_code": "AZ 6014",
      "country_code": "AZ",
      "latitude": 40.9655,
      "longitude": 45.6572,
      "admin_name1": "Tovuz"
    },
    {
      "place_name": "Yuxari Qarxun",
      "postal_code": "AZ 6636",
      "country_code": "AZ",
      "latitude": 40.6152,
      "longitude": 47.1924,
      "admin_name1": "Yevlax"
    },
    {
      "place_name": "Abşeron",
      "postal_code": "AZ 0100",
      "country_code": "AZ",
      "latitude": 40.4982,
      "longitude": 49.7582,
      "admin_name1": "Abşeron"
    },
    {
      "place_name": "Aşaği Güzdək",
      "postal_code": "AZ 0111",
      "country_code": "AZ",
      "latitude": 40.4813,
      "longitude": 49.6656,
      "admin_name1": "Abşeron"
    },
    {
      "place_name": "Çəmənli",
      "postal_code": "AZ 0216",
      "country_code": "AZ",
      "latitude": 40.0706,
      "longitude": 47.0428,
      "admin_name1": "Ağdam"
    },
    {
      "place_name": "Şuvi",
      "postal_code": "AZ 0724",
      "country_code": "AZ",
      "latitude": 38.4952,
      "longitude": 48.7621,
      "admin_name1": "Astara"
    },
    {
      "place_name": "Baki-14",
      "postal_code": "AZ 1014",
      "country_code": "AZ",
      "latitude": 39.9179,
      "longitude": 49.2168,
      "admin_name1": "Baki"
    },
    {
      "place_name": "Baki-91",
      "postal_code": "AZ 1091",
      "country_code": "AZ",
      "latitude": 39.9179,
      "longitude": 49.2168,
      "admin_name1": "Baki"
    },
    {
      "place_name": "Baki-106",
      "postal_code": "AZ 1106",
      "country_code": "AZ",
      "latitude": 40.3777,
      "longitude": 49.892,
      "admin_name1": "Baki"
    },
    {
      "place_name": "Baki-119",
      "postal_code": "AZ 1119",
      "country_code": "AZ",
      "latitude": 40.3777,
      "longitude": 49.892,
      "admin_name1": "Baki"
    },
    {
      "place_name": "Eyvazallar",
      "postal_code": "AZ 1218",
      "country_code": "AZ",
      "latitude": 39.8705,
      "longitude": 47.637,
      "admin_name1": "Beyləqan"
    },
    {
      "place_name": "Aşaği Cürəli",
      "postal_code": "AZ 1313",
      "country_code": "AZ",
      "latitude": 39.479,
      "longitude": 48.5086,
      "admin_name1": "Biləsuvar"
    },
    {
      "place_name": "Ismətli",
      "postal_code": "AZ 1318",
      "country_code": "AZ",
      "latitude": 39.5303,
      "longitude": 48.5301,
      "admin_name1": "Biləsuvar"
    },
    {
      "place_name": "Qoşatəpə Gömrük (Dgk)",
      "postal_code": "AZ 1325",
      "country_code": "AZ",
      "latitude": 39.8385,
      "longitude": 48.6133,
      "admin_name1": "Biləsuvar"
    },
    {
      "place_name": "Zəhmət",
      "postal_code": "AZ 2144",
      "country_code": "AZ",
      "latitude": 40.6171,
      "longitude": 45.7497,
      "admin_name1": "Gədəbəy"
    },
    {
      "place_name": "Səfikürd",
      "postal_code": "AZ 2237",
      "country_code": "AZ",
      "latitude": 40.5434,
      "longitude": 46.7747,
      "admin_name1": "Goranboy"
    },
    {
      "place_name": "Veyisli",
      "postal_code": "AZ 2241",
      "country_code": "AZ",
      "latitude": 40.5828,
      "longitude": 46.7253,
      "admin_name1": "Goranboy"
    },
    {
      "place_name": "Qirixli",
      "postal_code": "AZ 2517",
      "country_code": "AZ",
      "latitude": 40.6121,
      "longitude": 46.3035,
      "admin_name1": "Göy-Göl"
    },
    {
      "place_name": "Qarasaqqal",
      "postal_code": "AZ 3332",
      "country_code": "AZ",
      "latitude": 40.3815,
      "longitude": 48.2869,
      "admin_name1": "Kürdəmir"
    },
    {
      "place_name": "Ərkivan",
      "postal_code": "AZ 4415",
      "country_code": "AZ",
      "latitude": 39.0171,
      "longitude": 48.6431,
      "admin_name1": "Masalli"
    },
    {
      "place_name": "Məmmədabad",
      "postal_code": "AZ 4922",
      "country_code": "AZ",
      "latitude": 39.8615,
      "longitude": 48.4691,
      "admin_name1": "Saatli"
    },
    {
      "place_name": "Qaratəpə",
      "postal_code": "AZ 5426",
      "country_code": "AZ",
      "latitude": 39.9645,
      "longitude": 48.6145,
      "admin_name1": "Sabirabad"
    },
    {
      "place_name": "Yolçubəyli",
      "postal_code": "AZ 5440",
      "country_code": "AZ",
      "latitude": 40.058,
      "longitude": 48.3901,
      "admin_name1": "Sabirabad"
    },
    {
      "place_name": "Sabirkənd",
      "postal_code": "AZ 5724",
      "country_code": "AZ",
      "latitude": 40.8981,
      "longitude": 45.923,
      "admin_name1": "Şəmkir"
    },
    {
      "place_name": "Qirmizi Samux",
      "postal_code": "AZ 5117",
      "country_code": "AZ",
      "latitude": 40.9397,
      "longitude": 46.3789,
      "admin_name1": "Samux"
    },
    {
      "place_name": "Haci Zeynalabdin",
      "postal_code": "AZ 5022",
      "country_code": "AZ",
      "latitude": 40.6233,
      "longitude": 49.5586,
      "admin_name1": "Sumqayit"
    },
    {
      "place_name": "Azadqaraqoyunlu",
      "postal_code": "AZ 5911",
      "country_code": "AZ",
      "latitude": 40.4228,
      "longitude": 46.9344,
      "admin_name1": "Tər-Tər"
    },
    {
      "place_name": "Qarağaci",
      "postal_code": "AZ 5923",
      "country_code": "AZ",
      "latitude": 40.4637,
      "longitude": 47.1475,
      "admin_name1": "Tər-Tər"
    },
    {
      "place_name": "Azafli",
      "postal_code": "AZ 6017",
      "country_code": "AZ",
      "latitude": 40.9655,
      "longitude": 45.6572,
      "admin_name1": "Tovuz"
    },
    {
      "place_name": "Dondar Quşcu",
      "postal_code": "AZ 6022",
      "country_code": "AZ",
      "latitude": 40.9539,
      "longitude": 45.6194,
      "admin_name1": "Tovuz"
    },
    {
      "place_name": "Təzə Şilyan",
      "postal_code": "AZ 6123",
      "country_code": "AZ",
      "latitude": 40.4078,
      "longitude": 47.9383,
      "admin_name1": "Ucar"
    },
    {
      "place_name": "Alekseevka",
      "postal_code": "AZ 2711",
      "country_code": "AZ",
      "latitude": 41.4944,
      "longitude": 48.6669,
      "admin_name1": "Xaçmaz"
    },
    {
      "place_name": "Göyəm",
      "postal_code": "AZ 6222",
      "country_code": "AZ",
      "latitude": 41.62,
      "longitude": 46.6053,
      "admin_name1": "Zaqatala"
    },
    {
      "place_name": "Gözbarax",
      "postal_code": "AZ 6223",
      "country_code": "AZ",
      "latitude": 41.5218,
      "longitude": 46.7416,
      "admin_name1": "Zaqatala"
    },
    {
      "place_name": "Əlvənd",
      "postal_code": "AZ 6322",
      "country_code": "AZ",
      "latitude": 40.1078,
      "longitude": 47.8747,
      "admin_name1": "Zərdab"
    },
    {
      "place_name": "Fatmayi",
      "postal_code": "AZ 0113",
      "country_code": "AZ",
      "latitude": 40.5301,
      "longitude": 49.8449,
      "admin_name1": "Abşeron"
    },
    {
      "place_name": "Qobu",
      "postal_code": "AZ 0117",
      "country_code": "AZ",
      "latitude": 40.4047,
      "longitude": 49.7131,
      "admin_name1": "Abşeron"
    },
    {
      "place_name": "Saray-2",
      "postal_code": "AZ 0128",
      "country_code": "AZ",
      "latitude": 40.5085,
      "longitude": 49.7657,
      "admin_name1": "Abşeron"
    },
    {
      "place_name": "Aşaği Göycəli",
      "postal_code": "AZ 0512",
      "country_code": "AZ",
      "latitude": 41.1156,
      "longitude": 45.485,
      "admin_name1": "Ağstafa"
    },
    {
      "place_name": "Sadixli-1 Gomruk",
      "postal_code": "AZ 0533",
      "country_code": "AZ",
      "latitude": 41.0257,
      "longitude": 45.4495,
      "admin_name1": "Ağstafa"
    },
    {
      "place_name": "Baki-26",
      "postal_code": "AZ 1026",
      "country_code": "AZ",
      "latitude": 39.3138,
      "longitude": 49.2072,
      "admin_name1": "Baki"
    },
    {
      "place_name": "Baki-64",
      "postal_code": "AZ 1064",
      "country_code": "AZ",
      "latitude": 39.9179,
      "longitude": 49.2168,
      "admin_name1": "Baki"
    },
    {
      "place_name": "Baki-122",
      "postal_code": "AZ 1122",
      "country_code": "AZ",
      "latitude": 40.3777,
      "longitude": 49.892,
      "admin_name1": "Baki"
    },
    {
      "place_name": "Baki-146",
      "postal_code": "AZ 1146",
      "country_code": "AZ",
      "latitude": 40.3777,
      "longitude": 49.892,
      "admin_name1": "Baki"
    },
    {
      "place_name": "Baki-153",
      "postal_code": "AZ 1153",
      "country_code": "AZ",
      "latitude": 40.3777,
      "longitude": 49.892,
      "admin_name1": "Baki"
    },
    {
      "place_name": "Astanli",
      "postal_code": "AZ 1530",
      "country_code": "AZ",
      "latitude": 39.1948,
      "longitude": 48.4282,
      "admin_name1": "Cəlilabad"
    },
    {
      "place_name": "Abdulabad",
      "postal_code": "AZ 2411",
      "country_code": "AZ",
      "latitude": 40.0954,
      "longitude": 48.6588,
      "admin_name1": "Haciqabul"
    },
    {
      "place_name": "Cəyli",
      "postal_code": "AZ 3313",
      "country_code": "AZ",
      "latitude": 40.4353,
      "longitude": 48.267,
      "admin_name1": "Kürdəmir"
    },
    {
      "place_name": "Haftoni",
      "postal_code": "AZ 4216",
      "country_code": "AZ",
      "latitude": 38.7633,
      "longitude": 48.7622,
      "admin_name1": "Lənkəran"
    },
    {
      "place_name": "Sutəmurdov",
      "postal_code": "AZ 4244",
      "country_code": "AZ",
      "latitude": 38.7449,
      "longitude": 48.8614,
      "admin_name1": "Lənkəran"
    },
    {
      "place_name": "Çaxirli",
      "postal_code": "AZ 4414",
      "country_code": "AZ",
      "latitude": 39.0896,
      "longitude": 48.6654,
      "admin_name1": "Masalli"
    },
    {
      "place_name": "Səmidxan",
      "postal_code": "AZ 4443",
      "country_code": "AZ",
      "latitude": 39.037,
      "longitude": 48.6835,
      "admin_name1": "Masalli"
    },
    {
      "place_name": "Alatəmir",
      "postal_code": "AZ 3411",
      "country_code": "AZ",
      "latitude": 41.4234,
      "longitude": 46.8704,
      "admin_name1": "Qax"
    },
    {
      "place_name": "Qaymaqli",
      "postal_code": "AZ 3524",
      "country_code": "AZ",
      "latitude": 41.2242,
      "longitude": 45.1363,
      "admin_name1": "Qazax"
    },
    {
      "place_name": "Alpan",
      "postal_code": "AZ 4012",
      "country_code": "AZ",
      "latitude": 41.3866,
      "longitude": 48.4301,
      "admin_name1": "Quba"
    },
    {
      "place_name": "Aşaği Atuc",
      "postal_code": "AZ 4015",
      "country_code": "AZ",
      "latitude": 41.4475,
      "longitude": 48.5705,
      "admin_name1": "Quba"
    },
    {
      "place_name": "Qarayevkənd",
      "postal_code": "AZ 4920",
      "country_code": "AZ",
      "latitude": 39.9122,
      "longitude": 48.653,
      "admin_name1": "Saatli"
    },
    {
      "place_name": "Oravan",
      "postal_code": "AZ 5536",
      "country_code": "AZ",
      "latitude": 41.1482,
      "longitude": 47.3407,
      "admin_name1": "Şəki"
    },
    {
      "place_name": "Könüllü",
      "postal_code": "AZ 5719",
      "country_code": "AZ",
      "latitude": 40.7849,
      "longitude": 46.2426,
      "admin_name1": "Şəmkir"
    },
    {
      "place_name": "Zəyəm - 3g Muveqqeti",
      "postal_code": "AZ 5730",
      "country_code": "AZ",
      "latitude": 40.8648,
      "longitude": 46.0708,
      "admin_name1": "Şəmkir"
    },
    {
      "place_name": "Xuluf (Aşaği Keçili)",
      "postal_code": "AZ 5735",
      "country_code": "AZ",
      "latitude": 40.8648,
      "longitude": 46.0708,
      "admin_name1": "Şəmkir"
    },
    {
      "place_name": "Çoban Abdalli",
      "postal_code": "AZ 5111",
      "country_code": "AZ",
      "latitude": 40.7522,
      "longitude": 46.4355,
      "admin_name1": "Samux"
    },
    {
      "place_name": "Siyəzən",
      "postal_code": "AZ 5300",
      "country_code": "AZ",
      "latitude": 41.0781,
      "longitude": 49.1156,
      "admin_name1": "Siyəzən"
    }
  ]
]