[
  [
    {
      "place_name": "Hoeilaart",
      "postal_code": "1560",
      "country_code": "BE",
      "latitude": 50.7673,
      "longitude": 4.4683,
      "admin_name1": "Vlaanderen"
    },
    {
      "place_name": "Peutie",
      "postal_code": "1800",
      "country_code": "BE",
      "latitude": 50.93,
      "longitude": 4.4519,
      "admin_name1": "Vlaanderen"
    },
    {
      "place_name": "Malderen",
      "postal_code": "1840",
      "country_code": "BE",
      "latitude": 51.0208,
      "longitude": 4.2464,
      "admin_name1": "Vlaanderen"
    },
    {
      "place_name": "Leefdaal",
      "postal_code": "3061",
      "country_code": "BE",
      "latitude": 50.8476,
      "longitude": 4.5894,
      "admin_name1": "Vlaanderen"
    },
    {
      "place_name": "Zelem",
      "postal_code": "3545",
      "country_code": "BE",
      "latitude": 50.9774,
      "longitude": 5.1069,
      "admin_name1": "Vlaanderen"
    },
    {
      "place_name": "Heusden-Zolder",
      "postal_code": "3550",
      "country_code": "BE",
      "latitude": 51.0373,
      "longitude": 5.2965,
      "admin_name1": "Vlaanderen"
    },
    {
      "place_name": "Rekem",
      "postal_code": "3621",
      "country_code": "BE",
      "latitude": 50.9224,
      "longitude": 5.6938,
      "admin_name1": "Vlaanderen"
    },
    {
      "place_name": "Vucht",
      "postal_code": "3630",
      "country_code": "BE",
      "latitude": 50.9783,
      "longitude": 5.711,
      "admin_name1": "Vlaanderen"
    },
    {
      "place_name": "Kessenich",
      "postal_code": "3640",
      "country_code": "BE",
      "latitude": 51.1509,
      "longitude": 5.8233,
      "admin_name1": "Vlaanderen"
    },
    {
      "place_name": "Opglabbeek",
      "postal_code": "3660",
      "country_code": "BE",
      "latitude": 51.1394,
      "longitude": 5.5154,
      "admin_name1": "Vlaanderen"
    },
    {
      "place_name": "Schalkhoven",
      "postal_code": "3732",
      "country_code": "BE",
      "latitude": 50.8413,
      "longitude": 5.4495,
      "admin_name1": "Vlaanderen"
    },
    {
      "place_name": "Ulbeek",
      "postal_code": "3832",
      "country_code": "BE",
      "latitude": 50.8437,
      "longitude": 5.305,
      "admin_name1": "Vlaanderen"
    },
    {
      "place_name": "Vorsen",
      "postal_code": "3890",
      "country_code": "BE",
      "latitude": 50.7038,
      "longitude": 5.1708,
      "admin_name1": "Vlaanderen"
    },
    {
      "place_name": "Mielen-Boven-Aalst",
      "postal_code": "3891",
      "country_code": "BE",
      "latitude": 50.7564,
      "longitude": 5.2142,
      "admin_name1": "Vlaanderen"
    },
    {
      "place_name": "Sint-Huibrechts-Lille",
      "postal_code": "3910",
      "country_code": "BE",
      "latitude": 51.2227,
      "longitude": 5.4944,
      "admin_name1": "Vlaanderen"
    },
    {
      "place_name": "Ledeberg",
      "postal_code": "9050",
      "country_code": "BE",
      "latitude": 51.0386,
      "longitude": 3.7446,
      "admin_name1": "Vlaanderen"
    },
    {
      "place_name": "Kieldrecht",
      "postal_code": "9130",
      "country_code": "BE",
      "latitude": 51.2891,
      "longitude": 4.1759,
      "admin_name1": "Vlaanderen"
    },
    {
      "place_name": "Lokeren",
      "postal_code": "9160",
      "country_code": "BE",
      "latitude": 51.1036,
      "longitude": 3.9934,
      "admin_name1": "Vlaanderen"
    },
    {
      "place_name": "Herdersem",
      "postal_code": "9310",
      "country_code": "BE",
      "latitude": 50.9719,
      "longitude": 4.0667,
      "admin_name1": "Vlaanderen"
    },
    {
      "place_name": "Everbeek",
      "postal_code": "9660",
      "country_code": "BE",
      "latitude": 50.7626,
      "longitude": 3.8085,
      "admin_name1": "Vlaanderen"
    },
    {
      "place_name": "Eine",
      "postal_code": "9700",
      "country_code": "BE",
      "latitude": 50.8673,
      "longitude": 3.6182,
      "admin_name1": "Vlaanderen"
    },
    {
      "place_name": "Ename",
      "postal_code": "9700",
      "country_code": "BE",
      "latitude": 50.8585,
      "longitude": 3.6366,
      "admin_name1": "Vlaanderen"
    },
    {
      "place_name": "Wortegem-Petegem",
      "postal_code": "9790",
      "country_code": "BE",
      "latitude": 50.8465,
      "longitude": 3.5432,
      "admin_name1": "Vlaanderen"
    },
    {
      "place_name": "Gavere",
      "postal_code": "9890",
      "country_code": "BE",
      "latitude": 50.9292,
      "longitude": 3.6618,
      "admin_name1": "Vlaanderen"
    },
    {
      "place_name": "Westende",
      "postal_code": "8434",
      "country_code": "BE",
      "latitude": 51.1596,
      "longitude": 2.7687,
      "admin_name1": "Vlaanderen"
    },
    {
      "place_name": "Lombardsijde",
      "postal_code": "8434",
      "country_code": "BE",
      "latitude": 51.15,
      "longitude": 2.75,
      "admin_name1": "Vlaanderen"
    },
    {
      "place_name": "Bekegem",
      "postal_code": "8480",
      "country_code": "BE",
      "latitude": 51.1598,
      "longitude": 3.0457,
      "admin_name1": "Vlaanderen"
    },
    {
      "place_name": "Ichtegem",
      "postal_code": "8480",
      "country_code": "BE",
      "latitude": 51.0957,
      "longitude": 3.0155,
      "admin_name1": "Vlaanderen"
    },
    {
      "place_name": "Zarren",
      "postal_code": "8610",
      "country_code": "BE",
      "latitude": 51.0184,
      "longitude": 2.9581,
      "admin_name1": "Vlaanderen"
    },
    {
      "place_name": "Nieuwpoort",
      "postal_code": "8620",
      "country_code": "BE",
      "latitude": 51.1301,
      "longitude": 2.7513,
      "admin_name1": "Vlaanderen"
    },
    {
      "place_name": "Wulveringem",
      "postal_code": "8630",
      "country_code": "BE",
      "latitude": 51.0149,
      "longitude": 2.6545,
      "admin_name1": "Vlaanderen"
    },
    {
      "place_name": "De Panne",
      "postal_code": "8660",
      "country_code": "BE",
      "latitude": 51.0979,
      "longitude": 2.5937,
      "admin_name1": "Vlaanderen"
    },
    {
      "place_name": "Wielsbeke",
      "postal_code": "8710",
      "country_code": "BE",
      "latitude": 50.9,
      "longitude": 3.3667,
      "admin_name1": "Vlaanderen"
    },
    {
      "place_name": "Rumbeke",
      "postal_code": "8800",
      "country_code": "BE",
      "latitude": 50.9325,
      "longitude": 3.1672,
      "admin_name1": "Vlaanderen"
    },
    {
      "place_name": "Moorslede",
      "postal_code": "8890",
      "country_code": "BE",
      "latitude": 50.8919,
      "longitude": 3.0612,
      "admin_name1": "Vlaanderen"
    },
    {
      "place_name": "Langemark-Poelkapelle",
      "postal_code": "8920",
      "country_code": "BE",
      "latitude": 50.9197,
      "longitude": 2.913,
      "admin_name1": "Vlaanderen"
    },
    {
      "place_name": "La Hulpe",
      "postal_code": "1310",
      "country_code": "BE",
      "latitude": 50.7309,
      "longitude": 4.4858,
      "admin_name1": "Wallonie"
    },
    {
      "place_name": "Nodebais",
      "postal_code": "1320",
      "country_code": "BE",
      "latitude": 50.7728,
      "longitude": 4.7369,
      "admin_name1": "Wallonie"
    },
    {
      "place_name": "Grez-Doiceau",
      "postal_code": "1390",
      "country_code": "BE",
      "latitude": 50.739,
      "longitude": 4.6983,
      "admin_name1": "Wallonie"
    },
    {
      "place_name": "Nethen",
      "postal_code": "1390",
      "country_code": "BE",
      "latitude": 50.7832,
      "longitude": 4.675,
      "admin_name1": "Wallonie"
    },
    {
      "place_name": "Rebecq-Rognon",
      "postal_code": "1430",
      "country_code": "BE",
      "latitude": 50.6515,
      "longitude": 4.1068,
      "admin_name1": "Wallonie"
    },
    {
      "place_name": "Houtain-Le-Val",
      "postal_code": "1476",
      "country_code": "BE",
      "latitude": 50.5824,
      "longitude": 4.4126,
      "admin_name1": "Wallonie"
    },
    {
      "place_name": "Monceau-Sur-Sambre",
      "postal_code": "6031",
      "country_code": "BE",
      "latitude": 50.4169,
      "longitude": 4.3767,
      "admin_name1": "Wallonie"
    },
    {
      "place_name": "Montignies-Sur-Sambre",
      "postal_code": "6061",
      "country_code": "BE",
      "latitude": 50.4108,
      "longitude": 4.4911,
      "admin_name1": "Wallonie"
    },
    {
      "place_name": "Cour-Sur-Heure",
      "postal_code": "6120",
      "country_code": "BE",
      "latitude": 50.3012,
      "longitude": 4.3892,
      "admin_name1": "Wallonie"
    },
    {
      "place_name": "Baileux",
      "postal_code": "6464",
      "country_code": "BE",
      "latitude": 50.0288,
      "longitude": 4.3753,
      "admin_name1": "Wallonie"
    },
    {
      "place_name": "Fontaine-Valmont",
      "postal_code": "6567",
      "country_code": "BE",
      "latitude": 50.3199,
      "longitude": 4.2147,
      "admin_name1": "Wallonie"
    },
    {
      "place_name": "Saint-Symphorien",
      "postal_code": "7030",
      "country_code": "BE",
      "latitude": 50.439,
      "longitude": 4.0073,
      "admin_name1": "Wallonie"
    },
    {
      "place_name": "Bray",
      "postal_code": "7130",
      "country_code": "BE",
      "latitude": 50.4324,
      "longitude": 4.1059,
      "admin_name1": "Wallonie"
    },
    {
      "place_name": "Pommeroeul",
      "postal_code": "7322",
      "country_code": "BE",
      "latitude": 50.4619,
      "longitude": 3.7125,
      "admin_name1": "Wallonie"
    },
    {
      "place_name": "Pâturages",
      "postal_code": "7340",
      "country_code": "BE",
      "latitude": 50.4072,
      "longitude": 3.855,
      "admin_name1": "Wallonie"
    },
    {
      "place_name": "Roisin",
      "postal_code": "7387",
      "country_code": "BE",
      "latitude": 50.3324,
      "longitude": 3.6955,
      "admin_name1": "Wallonie"
    },
    {
      "place_name": "Willemeau",
      "postal_code": "7506",
      "country_code": "BE",
      "latitude": 50.5744,
      "longitude": 3.3503,
      "admin_name1": "Wallonie"
    },
    {
      "place_name": "Antoing",
      "postal_code": "7640",
      "country_code": "BE",
      "latitude": 50.5677,
      "longitude": 3.4492,
      "admin_name1": "Wallonie"
    },
    {
      "place_name": "Evregnies",
      "postal_code": "7730",
      "country_code": "BE",
      "latitude": 50.7126,
      "longitude": 3.2865,
      "admin_name1": "Wallonie"
    },
    {
      "place_name": "Cambron-Saint-Vincent",
      "postal_code": "7870",
      "country_code": "BE",
      "latitude": 50.5849,
      "longitude": 3.9219,
      "admin_name1": "Wallonie"
    },
    {
      "place_name": "Comblain-La-Tour",
      "postal_code": "4180",
      "country_code": "BE",
      "latitude": 50.4534,
      "longitude": 5.5691,
      "admin_name1": "Wallonie"
    },
    {
      "place_name": "Wansin",
      "postal_code": "4280",
      "country_code": "BE",
      "latitude": 50.6785,
      "longitude": 5.0191,
      "admin_name1": "Wallonie"
    },
    {
      "place_name": "Loncin",
      "postal_code": "4431",
      "country_code": "BE",
      "latitude": 50.6665,
      "longitude": 5.5051,
      "admin_name1": "Wallonie"
    },
    {
      "place_name": "Soheit-Tinlot",
      "postal_code": "4557",
      "country_code": "BE",
      "latitude": 50.4838,
      "longitude": 5.3886,
      "admin_name1": "Wallonie"
    },
    {
      "place_name": "Modave",
      "postal_code": "4577",
      "country_code": "BE",
      "latitude": 50.4461,
      "longitude": 5.2953,
      "admin_name1": "Wallonie"
    },
    {
      "place_name": "Outrelouxhe",
      "postal_code": "4577",
      "country_code": "BE",
      "latitude": 50.5034,
      "longitude": 5.3336,
      "admin_name1": "Wallonie"
    },
    {
      "place_name": "Fléron",
      "postal_code": "4620",
      "country_code": "BE",
      "latitude": 50.6152,
      "longitude": 5.6806,
      "admin_name1": "Wallonie"
    },
    {
      "place_name": "Housse",
      "postal_code": "4671",
      "country_code": "BE",
      "latitude": 50.6785,
      "longitude": 5.6911,
      "admin_name1": "Wallonie"
    },
    {
      "place_name": "Elsenborn",
      "postal_code": "4750",
      "country_code": "BE",
      "latitude": 50.458,
      "longitude": 6.2192,
      "admin_name1": "Wallonie"
    },
    {
      "place_name": "Meyerode",
      "postal_code": "4770",
      "country_code": "BE",
      "latitude": 50.3282,
      "longitude": 6.1878,
      "admin_name1": "Wallonie"
    },
    {
      "place_name": "Sart-Lez-Spa",
      "postal_code": "4845",
      "country_code": "BE",
      "latitude": 50.5287,
      "longitude": 5.8842,
      "admin_name1": "Wallonie"
    },
    {
      "place_name": "Plombières",
      "postal_code": "4850",
      "country_code": "BE",
      "latitude": 50.7366,
      "longitude": 5.9592,
      "admin_name1": "Wallonie"
    },
    {
      "place_name": "Dohan",
      "postal_code": "6836",
      "country_code": "BE",
      "latitude": 49.7958,
      "longitude": 5.1416,
      "admin_name1": "Wallonie"
    },
    {
      "place_name": "On",
      "postal_code": "6900",
      "country_code": "BE",
      "latitude": 50.1718,
      "longitude": 5.2894,
      "admin_name1": "Wallonie"
    },
    {
      "place_name": "Resteigne",
      "postal_code": "6927",
      "country_code": "BE",
      "latitude": 50.083,
      "longitude": 5.1769,
      "admin_name1": "Wallonie"
    },
    {
      "place_name": "Haut-Fays",
      "postal_code": "6929",
      "country_code": "BE",
      "latitude": 50.0016,
      "longitude": 5.0175,
      "admin_name1": "Wallonie"
    },
    {
      "place_name": "Tenneville",
      "postal_code": "6970",
      "country_code": "BE",
      "latitude": 50.095,
      "longitude": 5.5289,
      "admin_name1": "Wallonie"
    },
    {
      "place_name": "La Roche-En-Ardenne",
      "postal_code": "6980",
      "country_code": "BE",
      "latitude": 50.1836,
      "longitude": 5.5755,
      "admin_name1": "Wallonie"
    },
    {
      "place_name": "Samrée",
      "postal_code": "6982",
      "country_code": "BE",
      "latitude": 50.2104,
      "longitude": 5.6344,
      "admin_name1": "Wallonie"
    },
    {
      "place_name": "Erezée",
      "postal_code": "6997",
      "country_code": "BE",
      "latitude": 50.2929,
      "longitude": 5.5581,
      "admin_name1": "Wallonie"
    },
    {
      "place_name": "Bonsin",
      "postal_code": "5377",
      "country_code": "BE",
      "latitude": 50.3735,
      "longitude": 5.3809,
      "admin_name1": "Wallonie"
    },
    {
      "place_name": "Annevoie-Rouillon",
      "postal_code": "5537",
      "country_code": "BE",
      "latitude": 50.3478,
      "longitude": 4.8496,
      "admin_name1": "Wallonie"
    },
    {
      "place_name": "Naomé",
      "postal_code": "5555",
      "country_code": "BE",
      "latitude": 49.922,
      "longitude": 5.0895,
      "admin_name1": "Wallonie"
    },
    {
      "place_name": "Monceau-En-Ardenne",
      "postal_code": "5555",
      "country_code": "BE",
      "latitude": 49.9053,
      "longitude": 4.9877,
      "admin_name1": "Wallonie"
    },
    {
      "place_name": "Bourseigne-Vieille",
      "postal_code": "5575",
      "country_code": "BE",
      "latitude": 50.0226,
      "longitude": 4.8703,
      "admin_name1": "Wallonie"
    },
    {
      "place_name": "Achêne",
      "postal_code": "5590",
      "country_code": "BE",
      "latitude": 50.267,
      "longitude": 5.0454,
      "admin_name1": "Wallonie"
    },
    {
      "place_name": "Braibant",
      "postal_code": "5590",
      "country_code": "BE",
      "latitude": 50.3132,
      "longitude": 5.0613,
      "admin_name1": "Wallonie"
    },
    {
      "place_name": "Oignies-En-Thiérache",
      "postal_code": "5670",
      "country_code": "BE",
      "latitude": 50.0229,
      "longitude": 4.6394,
      "admin_name1": "Wallonie"
    },
    {
      "place_name": "Molenbeek-Saint-Jean",
      "postal_code": "1080",
      "country_code": "BE",
      "latitude": 50.8499,
      "longitude": 4.3125,
      "admin_name1": "Bruxelles-Capitale"
    },
    {
      "place_name": "Berchem-Sainte-Agathe",
      "postal_code": "1082",
      "country_code": "BE",
      "latitude": 50.8657,
      "longitude": 4.2956,
      "admin_name1": "Bruxelles-Capitale"
    },
    {
      "place_name": "Jette",
      "postal_code": "1090",
      "country_code": "BE",
      "latitude": 50.8731,
      "longitude": 4.3342,
      "admin_name1": "Bruxelles-Capitale"
    },
    {
      "place_name": "Antwerpen",
      "postal_code": "2020",
      "country_code": "BE",
      "latitude": 51.2199,
      "longitude": 4.4035,
      "admin_name1": "Vlaanderen"
    },
    {
      "place_name": "Wortel",
      "postal_code": "2323",
      "country_code": "BE",
      "latitude": 51.3983,
      "longitude": 4.7946,
      "admin_name1": "Vlaanderen"
    },
    {
      "place_name": "Schoten",
      "postal_code": "2900",
      "country_code": "BE",
      "latitude": 51.2525,
      "longitude": 4.5027,
      "admin_name1": "Vlaanderen"
    },
    {
      "place_name": "Opwijk",
      "postal_code": "1745",
      "country_code": "BE",
      "latitude": 50.9672,
      "longitude": 4.1844,
      "admin_name1": "Vlaanderen"
    },
    {
      "place_name": "Borchtlombeek",
      "postal_code": "1761",
      "country_code": "BE",
      "latitude": 50.8479,
      "longitude": 4.1388,
      "admin_name1": "Vlaanderen"
    },
    {
      "place_name": "Teralfene",
      "postal_code": "1790",
      "country_code": "BE",
      "latitude": 50.8919,
      "longitude": 4.099,
      "admin_name1": "Vlaanderen"
    },
    {
      "place_name": "Steenhuffel",
      "postal_code": "1840",
      "country_code": "BE",
      "latitude": 50.9954,
      "longitude": 4.2679,
      "admin_name1": "Vlaanderen"
    },
    {
      "place_name": "Meise",
      "postal_code": "1860",
      "country_code": "BE",
      "latitude": 50.9393,
      "longitude": 4.3266,
      "admin_name1": "Vlaanderen"
    },
    {
      "place_name": "Meerbeek",
      "postal_code": "3078",
      "country_code": "BE",
      "latitude": 50.8821,
      "longitude": 4.5897,
      "admin_name1": "Vlaanderen"
    },
    {
      "place_name": "Hever",
      "postal_code": "3191",
      "country_code": "BE",
      "latitude": 50.9954,
      "longitude": 4.5513,
      "admin_name1": "Vlaanderen"
    },
    {
      "place_name": "Testelt",
      "postal_code": "3272",
      "country_code": "BE",
      "latitude": 51.0108,
      "longitude": 4.9531,
      "admin_name1": "Vlaanderen"
    },
    {
      "place_name": "Webbekom",
      "postal_code": "3290",
      "country_code": "BE",
      "latitude": 50.9741,
      "longitude": 5.0403,
      "admin_name1": "Vlaanderen"
    },
    {
      "place_name": "Roosbeek",
      "postal_code": "3370",
      "country_code": "BE",
      "latitude": 50.8361,
      "longitude": 4.8628,
      "admin_name1": "Vlaanderen"
    },
    {
      "place_name": "Assent",
      "postal_code": "3460",
      "country_code": "BE",
      "latitude": 50.9519,
      "longitude": 5.0147,
      "admin_name1": "Vlaanderen"
    },
    {
      "place_name": "Nerem",
      "postal_code": "3700",
      "country_code": "BE",
      "latitude": 50.7635,
      "longitude": 5.5099,
      "admin_name1": "Vlaanderen"
    },
    {
      "place_name": "Haren",
      "postal_code": "3700",
      "country_code": "BE",
      "latitude": 50.793,
      "longitude": 5.3992,
      "admin_name1": "Vlaanderen"
    },
    {
      "place_name": "Kanne",
      "postal_code": "3770",
      "country_code": "BE",
      "latitude": 50.8133,
      "longitude": 5.6695,
      "admin_name1": "Vlaanderen"
    },
    {
      "place_name": "Wilderen",
      "postal_code": "3803",
      "country_code": "BE",
      "latitude": 50.8155,
      "longitude": 5.1423,
      "admin_name1": "Vlaanderen"
    },
    {
      "place_name": "Jeuk",
      "postal_code": "3890",
      "country_code": "BE",
      "latitude": 50.735,
      "longitude": 5.2099,
      "admin_name1": "Vlaanderen"
    },
    {
      "place_name": "Neerpelt",
      "postal_code": "3910",
      "country_code": "BE",
      "latitude": 51.2281,
      "longitude": 5.4427,
      "admin_name1": "Vlaanderen"
    },
    {
      "place_name": "Desteldonk",
      "postal_code": "9042",
      "country_code": "BE",
      "latitude": 51.1219,
      "longitude": 3.787,
      "admin_name1": "Vlaanderen"
    },
    {
      "place_name": "Sinaai-Waas",
      "postal_code": "9112",
      "country_code": "BE",
      "latitude": 51.1579,
      "longitude": 4.0409,
      "admin_name1": "Vlaanderen"
    },
    {
      "place_name": "Kallo",
      "postal_code": "9120",
      "country_code": "BE",
      "latitude": 51.2525,
      "longitude": 4.2755,
      "admin_name1": "Vlaanderen"
    },
    {
      "place_name": "Oudegem",
      "postal_code": "9200",
      "country_code": "BE",
      "latitude": 51.0102,
      "longitude": 4.0619,
      "admin_name1": "Vlaanderen"
    },
    {
      "place_name": "Moerzeke",
      "postal_code": "9220",
      "country_code": "BE",
      "latitude": 51.0691,
      "longitude": 4.1614,
      "admin_name1": "Vlaanderen"
    },
    {
      "place_name": "Lebbeke",
      "postal_code": "9280",
      "country_code": "BE",
      "latitude": 51.0046,
      "longitude": 4.1346,
      "admin_name1": "Vlaanderen"
    },
    {
      "place_name": "Moerbeke",
      "postal_code": "9500",
      "country_code": "BE",
      "latitude": 50.7525,
      "longitude": 3.9172,
      "admin_name1": "Vlaanderen"
    },
    {
      "place_name": "Zandbergen",
      "postal_code": "9506",
      "country_code": "BE",
      "latitude": 50.8028,
      "longitude": 3.9664,
      "admin_name1": "Vlaanderen"
    },
    {
      "place_name": "Deftinge",
      "postal_code": "9570",
      "country_code": "BE",
      "latitude": 50.7866,
      "longitude": 3.8398,
      "admin_name1": "Vlaanderen"
    },
    {
      "place_name": "Leeuwergem",
      "postal_code": "9620",
      "country_code": "BE",
      "latitude": 50.8872,
      "longitude": 3.8116,
      "admin_name1": "Vlaanderen"
    },
    {
      "place_name": "Strijpen",
      "postal_code": "9620",
      "country_code": "BE",
      "latitude": 50.868,
      "longitude": 3.788,
      "admin_name1": "Vlaanderen"
    },
    {
      "place_name": "Hundelgem",
      "postal_code": "9630",
      "country_code": "BE",
      "latitude": 50.8889,
      "longitude": 3.7512,
      "admin_name1": "Vlaanderen"
    },
    {
      "place_name": "Sint-Maria-Oudenhove",
      "postal_code": "9660",
      "country_code": "BE",
      "latitude": 50.833,
      "longitude": 3.638,
      "admin_name1": "Vlaanderen"
    },
    {
      "place_name": "Bevere",
      "postal_code": "9700",
      "country_code": "BE",
      "latitude": 50.8496,
      "longitude": 3.5873,
      "admin_name1": "Vlaanderen"
    },
    {
      "place_name": "Nevele",
      "postal_code": "9850",
      "country_code": "BE",
      "latitude": 51.0353,
      "longitude": 3.5457,
      "admin_name1": "Vlaanderen"
    },
    {
      "place_name": "Lievegem",
      "postal_code": "9930",
      "country_code": "BE",
      "latitude": 51.1199,
      "longitude": 3.565,
      "admin_name1": "Vlaanderen"
    },
    {
      "place_name": "Watervliet",
      "postal_code": "9988",
      "country_code": "BE",
      "latitude": 51.2749,
      "longitude": 3.626,
      "admin_name1": "Vlaanderen"
    },
    {
      "place_name": "Hoeke",
      "postal_code": "8340",
      "country_code": "BE",
      "latitude": 51.292,
      "longitude": 3.3349,
      "admin_name1": "Vlaanderen"
    },
    {
      "place_name": "Moere",
      "postal_code": "8470",
      "country_code": "BE",
      "latitude": 51.1226,
      "longitude": 2.9558,
      "admin_name1": "Vlaanderen"
    },
    {
      "place_name": "Heule",
      "postal_code": "8501",
      "country_code": "BE",
      "latitude": 50.8375,
      "longitude": 3.2382,
      "admin_name1": "Vlaanderen"
    },
    {
      "place_name": "Vichte",
      "postal_code": "8570",
      "country_code": "BE",
      "latitude": 50.8387,
      "longitude": 3.4013,
      "admin_name1": "Vlaanderen"
    },
    {
      "place_name": "De Moeren",
      "postal_code": "8630",
      "country_code": "BE",
      "latitude": 51.0437,
      "longitude": 2.5997,
      "admin_name1": "Vlaanderen"
    },
    {
      "place_name": "Vinkem",
      "postal_code": "8630",
      "country_code": "BE",
      "latitude": 51.0157,
      "longitude": 2.6616,
      "admin_name1": "Vlaanderen"
    },
    {
      "place_name": "Lo-Reninge",
      "postal_code": "8647",
      "country_code": "BE",
      "latitude": 50.9635,
      "longitude": 2.7704,
      "admin_name1": "Vlaanderen"
    },
    {
      "place_name": "Wervik",
      "postal_code": "8940",
      "country_code": "BE",
      "latitude": 50.7807,
      "longitude": 3.0385,
      "admin_name1": "Vlaanderen"
    },
    {
      "place_name": "Wijtschate",
      "postal_code": "8953",
      "country_code": "BE",
      "latitude": 50.7863,
      "longitude": 2.8837,
      "admin_name1": "Vlaanderen"
    },
    {
      "place_name": "Folx-Les-Caves",
      "postal_code": "1350",
      "country_code": "BE",
      "latitude": 50.6612,
      "longitude": 4.9378,
      "admin_name1": "Wallonie"
    },
    {
      "place_name": "Bornival",
      "postal_code": "1404",
      "country_code": "BE",
      "latitude": 50.6019,
      "longitude": 4.2765,
      "admin_name1": "Wallonie"
    },
    {
      "place_name": "Ways",
      "postal_code": "1474",
      "country_code": "BE",
      "latitude": 50.6111,
      "longitude": 4.4645,
      "admin_name1": "Wallonie"
    },
    {
      "place_name": "Landelies",
      "postal_code": "6111",
      "country_code": "BE",
      "latitude": 50.38,
      "longitude": 4.3508,
      "admin_name1": "Wallonie"
    },
    {
      "place_name": "Erpion",
      "postal_code": "6441",
      "country_code": "BE",
      "latitude": 50.2119,
      "longitude": 4.3556,
      "admin_name1": "Wallonie"
    },
    {
      "place_name": "Erbisoeul",
      "postal_code": "7050",
      "country_code": "BE",
      "latitude": 50.5152,
      "longitude": 3.8957,
      "admin_name1": "Wallonie"
    },
    {
      "place_name": "Frameries",
      "postal_code": "7080",
      "country_code": "BE",
      "latitude": 50.4058,
      "longitude": 3.896,
      "admin_name1": "Wallonie"
    },
    {
      "place_name": "Fauroeulx",
      "postal_code": "7120",
      "country_code": "BE",
      "latitude": 50.3704,
      "longitude": 4.1052,
      "admin_name1": "Wallonie"
    },
    {
      "place_name": "Morlanwelz-Mariemont",
      "postal_code": "7140",
      "country_code": "BE",
      "latitude": 50.455,
      "longitude": 4.2452,
      "admin_name1": "Wallonie"
    },
    {
      "place_name": "Familleureux",
      "postal_code": "7181",
      "country_code": "BE",
      "latitude": 50.5239,
      "longitude": 4.2103,
      "admin_name1": "Wallonie"
    },
    {
      "place_name": "Vaulx",
      "postal_code": "7536",
      "country_code": "BE",
      "latitude": 50.5941,
      "longitude": 3.4295,
      "admin_name1": "Wallonie"
    },
    {
      "place_name": "Vezon",
      "postal_code": "7538",
      "country_code": "BE",
      "latitude": 50.5692,
      "longitude": 3.5047,
      "admin_name1": "Wallonie"
    },
    {
      "place_name": "Mourcourt",
      "postal_code": "7543",
      "country_code": "BE",
      "latitude": 50.6532,
      "longitude": 3.4447,
      "admin_name1": "Wallonie"
    },
    {
      "place_name": "Brunehaut",
      "postal_code": "7620",
      "country_code": "BE",
      "latitude": 50.5374,
      "longitude": 3.4003,
      "admin_name1": "Wallonie"
    },
    {
      "place_name": "Bassenge",
      "postal_code": "4690",
      "country_code": "BE",
      "latitude": 50.7588,
      "longitude": 5.6099,
      "admin_name1": "Wallonie"
    },
    {
      "place_name": "Crombach",
      "postal_code": "4784",
      "country_code": "BE",
      "latitude": 50.26,
      "longitude": 6.0675,
      "admin_name1": "Wallonie"
    },
    {
      "place_name": "Cornesse",
      "postal_code": "4860",
      "country_code": "BE",
      "latitude": 50.5727,
      "longitude": 5.7961,
      "admin_name1": "Wallonie"
    },
    {
      "place_name": "Bellevaux-Ligneuville",
      "postal_code": "4960",
      "country_code": "BE",
      "latitude": 50.3895,
      "longitude": 6.0109,
      "admin_name1": "Wallonie"
    },
    {
      "place_name": "Vaux-Lez-Rosières",
      "postal_code": "6640",
      "country_code": "BE",
      "latitude": 49.913,
      "longitude": 5.5678,
      "admin_name1": "Wallonie"
    },
    {
      "place_name": "Bertogne",
      "postal_code": "6687",
      "country_code": "BE",
      "latitude": 50.0836,
      "longitude": 5.6669,
      "admin_name1": "Wallonie"
    },
    {
      "place_name": "Bihain",
      "postal_code": "6690",
      "country_code": "BE",
      "latitude": 50.2395,
      "longitude": 5.8085,
      "admin_name1": "Wallonie"
    },
    {
      "place_name": "Mussy-La-Ville",
      "postal_code": "6750",
      "country_code": "BE",
      "latitude": 49.5701,
      "longitude": 5.6619,
      "admin_name1": "Wallonie"
    },
    {
      "place_name": "Virton",
      "postal_code": "6760",
      "country_code": "BE",
      "latitude": 49.5682,
      "longitude": 5.5326,
      "admin_name1": "Wallonie"
    },
    {
      "place_name": "Dampicourt",
      "postal_code": "6767",
      "country_code": "BE",
      "latitude": 49.5543,
      "longitude": 5.4983,
      "admin_name1": "Wallonie"
    },
    {
      "place_name": "Sélange",
      "postal_code": "6781",
      "country_code": "BE",
      "latitude": 49.6093,
      "longitude": 5.8505,
      "admin_name1": "Wallonie"
    },
    {
      "place_name": "Neufchâteau",
      "postal_code": "6840",
      "country_code": "BE",
      "latitude": 49.8407,
      "longitude": 5.4353,
      "admin_name1": "Wallonie"
    },
    {
      "place_name": "Arville",
      "postal_code": "6870",
      "country_code": "BE",
      "latitude": 50.032,
      "longitude": 5.3167,
      "admin_name1": "Wallonie"
    },
    {
      "place_name": "Wellin",
      "postal_code": "6920",
      "country_code": "BE",
      "latitude": 50.0813,
      "longitude": 5.1141,
      "admin_name1": "Wallonie"
    },
    {
      "place_name": "Hives",
      "postal_code": "6984",
      "country_code": "BE",
      "latitude": 50.1507,
      "longitude": 5.5774,
      "admin_name1": "Wallonie"
    },
    {
      "place_name": "Namur",
      "postal_code": "5000",
      "country_code": "BE",
      "latitude": 50.4669,
      "longitude": 4.8675,
      "admin_name1": "Wallonie"
    },
    {
      "place_name": "Mozet",
      "postal_code": "5340",
      "country_code": "BE",
      "latitude": 50.4446,
      "longitude": 4.9854,
      "admin_name1": "Wallonie"
    },
    {
      "place_name": "Sosoye",
      "postal_code": "5537",
      "country_code": "BE",
      "latitude": 50.2955,
      "longitude": 4.7821,
      "admin_name1": "Wallonie"
    },
    {
      "place_name": "Heer",
      "postal_code": "5543",
      "country_code": "BE",
      "latitude": 50.1637,
      "longitude": 4.8321,
      "admin_name1": "Wallonie"
    },
    {
      "place_name": "Laforêt",
      "postal_code": "5550",
      "country_code": "BE",
      "latitude": 49.8635,
      "longitude": 4.9299,
      "admin_name1": "Wallonie"
    },
    {
      "place_name": "Petit-Fays",
      "postal_code": "5555",
      "country_code": "BE",
      "latitude": 49.9019,
      "longitude": 4.9681,
      "admin_name1": "Wallonie"
    },
    {
      "place_name": "Mesnil-Saint-Blaise",
      "postal_code": "5560",
      "country_code": "BE",
      "latitude": 50.1676,
      "longitude": 4.8849,
      "admin_name1": "Wallonie"
    },
    {
      "place_name": "Biesmerée",
      "postal_code": "5640",
      "country_code": "BE",
      "latitude": 50.2978,
      "longitude": 4.6804,
      "admin_name1": "Wallonie"
    },
    {
      "place_name": "Berzée",
      "postal_code": "5651",
      "country_code": "BE",
      "latitude": 50.2892,
      "longitude": 4.401,
      "admin_name1": "Wallonie"
    },
    {
      "place_name": "Thy-Le-Château",
      "postal_code": "5651",
      "country_code": "BE",
      "latitude": 50.282,
      "longitude": 4.4296,
      "admin_name1": "Wallonie"
    },
    {
      "place_name": "Gonrieux",
      "postal_code": "5660",
      "country_code": "BE",
      "latitude": 50.0366,
      "longitude": 4.4264,
      "admin_name1": "Wallonie"
    },
    {
      "place_name": "Le Mesnil",
      "postal_code": "5670",
      "country_code": "BE",
      "latitude": 50.0315,
      "longitude": 4.672,
      "admin_name1": "Wallonie"
    },
    {
      "place_name": "Houthem",
      "postal_code": "7781",
      "country_code": "BE",
      "latitude": 50.7869,
      "longitude": 2.9638,
      "admin_name1": "Wallonie"
    },
    {
      "place_name": "Lanquesaint",
      "postal_code": "7800",
      "country_code": "BE",
      "latitude": 50.6539,
      "longitude": 3.8043,
      "admin_name1": "Wallonie"
    },
    {
      "place_name": "Ligne",
      "postal_code": "7812",
      "country_code": "BE",
      "latitude": 50.6218,
      "longitude": 3.7059,
      "admin_name1": "Wallonie"
    },
    {
      "place_name": "Meslin-L'Evêque",
      "postal_code": "7822",
      "country_code": "BE",
      "latitude": 50.6486,
      "longitude": 3.8474,
      "admin_name1": "Wallonie"
    },
    {
      "place_name": "Omal",
      "postal_code": "4252",
      "country_code": "BE",
      "latitude": 50.656,
      "longitude": 5.1998,
      "admin_name1": "Wallonie"
    },
    {
      "place_name": "Hannut",
      "postal_code": "4280",
      "country_code": "BE",
      "latitude": 50.6714,
      "longitude": 5.079,
      "admin_name1": "Wallonie"
    },
    {
      "place_name": "Grâce-Berleur",
      "postal_code": "4460",
      "country_code": "BE",
      "latitude": 50.6403,
      "longitude": 5.5033,
      "admin_name1": "Wallonie"
    },
    {
      "place_name": "Clermont-Sous-Huy",
      "postal_code": "4480",
      "country_code": "BE",
      "latitude": 50.5696,
      "longitude": 5.3923,
      "admin_name1": "Wallonie"
    },
    {
      "place_name": "Glons",
      "postal_code": "4690",
      "country_code": "BE",
      "latitude": 50.7531,
      "longitude": 5.5458,
      "admin_name1": "Wallonie"
    },
    {
      "place_name": "Olen",
      "postal_code": "2250",
      "country_code": "BE",
      "latitude": 51.1439,
      "longitude": 4.8598,
      "admin_name1": "Vlaanderen"
    },
    {
      "place_name": "Meerle",
      "postal_code": "2328",
      "country_code": "BE",
      "latitude": 51.4723,
      "longitude": 4.8032,
      "admin_name1": "Vlaanderen"
    },
    {
      "place_name": "Lint",
      "postal_code": "2547",
      "country_code": "BE",
      "latitude": 51.1271,
      "longitude": 4.4967,
      "admin_name1": "Vlaanderen"
    },
    {
      "place_name": "Duffel",
      "postal_code": "2570",
      "country_code": "BE",
      "latitude": 51.0955,
      "longitude": 4.509,
      "admin_name1": "Vlaanderen"
    },
    {
      "place_name": "Heindonk",
      "postal_code": "2830",
      "country_code": "BE",
      "latitude": 51.067,
      "longitude": 4.4081,
      "admin_name1": "Vlaanderen"
    },
    {
      "place_name": "Herfelingen",
      "postal_code": "1540",
      "country_code": "BE",
      "latitude": 50.7482,
      "longitude": 4.0975,
      "admin_name1": "Vlaanderen"
    },
    {
      "place_name": "Sint-Laureins-Berchem",
      "postal_code": "1600",
      "country_code": "BE",
      "latitude": 50.7872,
      "longitude": 4.2001,
      "admin_name1": "Vlaanderen"
    },
    {
      "place_name": "Beersel",
      "postal_code": "1650",
      "country_code": "BE",
      "latitude": 50.7659,
      "longitude": 4.3002,
      "admin_name1": "Vlaanderen"
    },
    {
      "place_name": "Bogaarden",
      "postal_code": "1670",
      "country_code": "BE",
      "latitude": 50.7399,
      "longitude": 4.1359,
      "admin_name1": "Vlaanderen"
    },
    {
      "place_name": "Vossem",
      "postal_code": "3080",
      "country_code": "BE",
      "latitude": 50.8363,
      "longitude": 4.5604,
      "admin_name1": "Vlaanderen"
    },
    {
      "place_name": "Wezemaal",
      "postal_code": "3111",
      "country_code": "BE",
      "latitude": 50.9485,
      "longitude": 4.7554,
      "admin_name1": "Vlaanderen"
    },
    {
      "place_name": "Molenstede",
      "postal_code": "3294",
      "country_code": "BE",
      "latitude": 51.004,
      "longitude": 5.013,
      "admin_name1": "Vlaanderen"
    },
    {
      "place_name": "Meldert",
      "postal_code": "3320",
      "country_code": "BE",
      "latitude": 50.7881,
      "longitude": 4.8378,
      "admin_name1": "Vlaanderen"
    },
    {
      "place_name": "Paal",
      "postal_code": "3583",
      "country_code": "BE",
      "latitude": 51.0399,
      "longitude": 5.1723,
      "admin_name1": "Vlaanderen"
    },
    {
      "place_name": "Kolmont",
      "postal_code": "3700",
      "country_code": "BE",
      "latitude": 50.8042,
      "longitude": 5.4245,
      "admin_name1": "Vlaanderen"
    },
    {
      "place_name": "Groot-Loon",
      "postal_code": "3840",
      "country_code": "BE",
      "latitude": 50.7927,
      "longitude": 5.3634,
      "admin_name1": "Vlaanderen"
    },
    {
      "place_name": "Jesseren",
      "postal_code": "3840",
      "country_code": "BE",
      "latitude": 50.8058,
      "longitude": 5.3921,
      "admin_name1": "Vlaanderen"
    },
    {
      "place_name": "Heks",
      "postal_code": "3870",
      "country_code": "BE",
      "latitude": 50.7695,
      "longitude": 5.3581,
      "admin_name1": "Vlaanderen"
    },
    {
      "place_name": "Pelt",
      "postal_code": "3900",
      "country_code": "BE",
      "latitude": 51.2104,
      "longitude": 5.4156,
      "admin_name1": "Vlaanderen"
    },
    {
      "place_name": "Sint-Kruis-Winkel",
      "postal_code": "9042",
      "country_code": "BE",
      "latitude": 51.1558,
      "longitude": 3.8163,
      "admin_name1": "Vlaanderen"
    },
    {
      "place_name": "Tielrode",
      "postal_code": "9140",
      "country_code": "BE",
      "latitude": 51.113,
      "longitude": 4.1771,
      "admin_name1": "Vlaanderen"
    },
    {
      "place_name": "Mespelare",
      "postal_code": "9200",
      "country_code": "BE",
      "latitude": 50.9961,
      "longitude": 4.0688,
      "admin_name1": "Vlaanderen"
    },
    {
      "place_name": "Wetteren",
      "postal_code": "9230",
      "country_code": "BE",
      "latitude": 51.0053,
      "longitude": 3.8834,
      "admin_name1": "Vlaanderen"
    },
    {
      "place_name": "Ninove",
      "postal_code": "9400",
      "country_code": "BE",
      "latitude": 50.8278,
      "longitude": 4.0266,
      "admin_name1": "Vlaanderen"
    },
    {
      "place_name": "Vlekkem",
      "postal_code": "9420",
      "country_code": "BE",
      "latitude": 50.9359,
      "longitude": 3.9306,
      "admin_name1": "Vlaanderen"
    },
    {
      "place_name": "Ophasselt",
      "postal_code": "9500",
      "country_code": "BE",
      "latitude": 50.8173,
      "longitude": 3.8929,
      "admin_name1": "Vlaanderen"
    },
    {
      "place_name": "Zonnegem",
      "postal_code": "9520",
      "country_code": "BE",
      "latitude": 50.9268,
      "longitude": 3.9087,
      "admin_name1": "Vlaanderen"
    },
    {
      "place_name": "Etikhove",
      "postal_code": "9680",
      "country_code": "BE",
      "latitude": 50.8116,
      "longitude": 3.6249,
      "admin_name1": "Vlaanderen"
    },
    {
      "place_name": "Berchem",
      "postal_code": "9690",
      "country_code": "BE",
      "latitude": 50.779,
      "longitude": 3.5267,
      "admin_name1": "Vlaanderen"
    },
    {
      "place_name": "Kluisbergen",
      "postal_code": "9690",
      "country_code": "BE",
      "latitude": 50.779,
      "longitude": 3.5267,
      "admin_name1": "Vlaanderen"
    },
    {
      "place_name": "Kwaremont",
      "postal_code": "9690",
      "country_code": "BE",
      "latitude": 50.7768,
      "longitude": 3.5238,
      "admin_name1": "Vlaanderen"
    },
    {
      "place_name": "Gottem",
      "postal_code": "9800",
      "country_code": "BE",
      "latitude": 50.9642,
      "longitude": 3.4639,
      "admin_name1": "Vlaanderen"
    },
    {
      "place_name": "Meetkerke",
      "postal_code": "8377",
      "country_code": "BE",
      "latitude": 51.2354,
      "longitude": 3.1517,
      "admin_name1": "Vlaanderen"
    },
    {
      "place_name": "Eernegem",
      "postal_code": "8480",
      "country_code": "BE",
      "latitude": 51.1326,
      "longitude": 3.0256,
      "admin_name1": "Vlaanderen"
    },
    {
      "place_name": "Anzegem",
      "postal_code": "8570",
      "country_code": "BE",
      "latitude": 50.837,
      "longitude": 3.4779,
      "admin_name1": "Vlaanderen"
    },
    {
      "place_name": "Pollinkhove",
      "postal_code": "8647",
      "country_code": "BE",
      "latitude": 50.9712,
      "longitude": 2.7326,
      "admin_name1": "Vlaanderen"
    },
    {
      "place_name": "Dadizele",
      "postal_code": "8890",
      "country_code": "BE",
      "latitude": 50.8514,
      "longitude": 3.0947,
      "admin_name1": "Vlaanderen"
    },
    {
      "place_name": "Geluwe",
      "postal_code": "8940",
      "country_code": "BE",
      "latitude": 50.8098,
      "longitude": 3.0769,
      "admin_name1": "Vlaanderen"
    },
    {
      "place_name": "Watou",
      "postal_code": "8978",
      "country_code": "BE",
      "latitude": 50.8586,
      "longitude": 2.6207,
      "admin_name1": "Vlaanderen"
    },
    {
      "place_name": "Noduwez",
      "postal_code": "1350",
      "country_code": "BE",
      "latitude": 50.7286,
      "longitude": 4.9678,
      "admin_name1": "Wallonie"
    },
    {
      "place_name": "Malèves-Sainte-Marie-Wastinnes",
      "postal_code": "1360",
      "country_code": "BE",
      "latitude": 50.6388,
      "longitude": 4.7947,
      "admin_name1": "Wallonie"
    },
    {
      "place_name": "Ohain",
      "postal_code": "1380",
      "country_code": "BE",
      "latitude": 50.6988,
      "longitude": 4.4698,
      "admin_name1": "Wallonie"
    },
    {
      "place_name": "Maransart",
      "postal_code": "1380",
      "country_code": "BE",
      "latitude": 50.6597,
      "longitude": 4.4669,
      "admin_name1": "Wallonie"
    },
    {
      "place_name": "Genappe",
      "postal_code": "1470",
      "country_code": "BE",
      "latitude": 50.6117,
      "longitude": 4.4515,
      "admin_name1": "Wallonie"
    },
    {
      "place_name": "Tubize",
      "postal_code": "1480",
      "country_code": "BE",
      "latitude": 50.6906,
      "longitude": 4.2009,
      "admin_name1": "Wallonie"
    },
    {
      "place_name": "Fontaine-L'Evêque",
      "postal_code": "6140",
      "country_code": "BE",
      "latitude": 50.4091,
      "longitude": 4.3243,
      "admin_name1": "Wallonie"
    },
    {
      "place_name": "Pironchamps",
      "postal_code": "6240",
      "country_code": "BE",
      "latitude": 50.4318,
      "longitude": 4.5202,
      "admin_name1": "Wallonie"
    },
    {
      "place_name": "Renlies",
      "postal_code": "6500",
      "country_code": "BE",
      "latitude": 50.1908,
      "longitude": 4.2668,
      "admin_name1": "Wallonie"
    },
    {
      "place_name": "Quévy-Le-Petit",
      "postal_code": "7040",
      "country_code": "BE",
      "latitude": 50.3688,
      "longitude": 3.936,
      "admin_name1": "Wallonie"
    },
    {
      "place_name": "Masnuy-Saint-Jean",
      "postal_code": "7050",
      "country_code": "BE",
      "latitude": 50.5321,
      "longitude": 3.9403,
      "admin_name1": "Wallonie"
    },
    {
      "place_name": "Hautrage",
      "postal_code": "7334",
      "country_code": "BE",
      "latitude": 50.4819,
      "longitude": 3.7652,
      "admin_name1": "Wallonie"
    },
    {
      "place_name": "Wez-Velvain",
      "postal_code": "7620",
      "country_code": "BE",
      "latitude": 50.5461,
      "longitude": 3.3888,
      "admin_name1": "Wallonie"
    },
    {
      "place_name": "Mouscron",
      "postal_code": "7700",
      "country_code": "BE",
      "latitude": 50.745,
      "longitude": 3.2064,
      "admin_name1": "Wallonie"
    },
    {
      "place_name": "Obigies",
      "postal_code": "7743",
      "country_code": "BE",
      "latitude": 50.6618,
      "longitude": 3.3641,
      "admin_name1": "Wallonie"
    },
    {
      "place_name": "Velaines",
      "postal_code": "7760",
      "country_code": "BE",
      "latitude": 50.668,
      "longitude": 3.4866,
      "admin_name1": "Wallonie"
    },
    {
      "place_name": "Bizet",
      "postal_code": "7783",
      "country_code": "BE",
      "latitude": 50.7083,
      "longitude": 2.8845,
      "admin_name1": "Wallonie"
    },
    {
      "place_name": "Deux-Acren",
      "postal_code": "7864",
      "country_code": "BE",
      "latitude": 50.7303,
      "longitude": 3.8531,
      "admin_name1": "Wallonie"
    },
    {
      "place_name": "Chapelle-À-Oie",
      "postal_code": "7903",
      "country_code": "BE",
      "latitude": 50.5961,
      "longitude": 3.6717,
      "admin_name1": "Wallonie"
    },
    {
      "place_name": "Wattripont",
      "postal_code": "7910",
      "country_code": "BE",
      "latitude": 50.7167,
      "longitude": 3.55,
      "admin_name1": "Wallonie"
    },
    {
      "place_name": "Saint-Sauveur",
      "postal_code": "7912",
      "country_code": "BE",
      "latitude": 50.706,
      "longitude": 3.5978,
      "admin_name1": "Wallonie"
    },
    {
      "place_name": "Thumaide",
      "postal_code": "7971",
      "country_code": "BE",
      "latitude": 50.5415,
      "longitude": 3.6301,
      "admin_name1": "Wallonie"
    },
    {
      "place_name": "Aubechies",
      "postal_code": "7972",
      "country_code": "BE",
      "latitude": 50.5742,
      "longitude": 3.6765,
      "admin_name1": "Wallonie"
    },
    {
      "place_name": "Angleur",
      "postal_code": "4031",
      "country_code": "BE",
      "latitude": 50.6113,
      "longitude": 5.5994,
      "admin_name1": "Wallonie"
    },
    {
      "place_name": "Gomzé-Andoumont",
      "postal_code": "4140",
      "country_code": "BE",
      "latitude": 50.5443,
      "longitude": 5.6894,
      "admin_name1": "Wallonie"
    },
    {
      "place_name": "Hamoir",
      "postal_code": "4180",
      "country_code": "BE",
      "latitude": 50.4267,
      "longitude": 5.533,
      "admin_name1": "Wallonie"
    },
    {
      "place_name": "Oreye",
      "postal_code": "4360",
      "country_code": "BE",
      "latitude": 50.7175,
      "longitude": 5.3488,
      "admin_name1": "Wallonie"
    },
    {
      "place_name": "Huccorgne",
      "postal_code": "4520",
      "country_code": "BE",
      "latitude": 50.567,
      "longitude": 5.1605,
      "admin_name1": "Wallonie"
    },
    {
      "place_name": "Mont",
      "postal_code": "6661",
      "country_code": "BE",
      "latitude": 50.0022,
      "longitude": 5.744,
      "admin_name1": "Wallonie"
    },
    {
      "place_name": "Houdemont",
      "postal_code": "6724",
      "country_code": "BE",
      "latitude": 49.7187,
      "longitude": 5.5838,
      "admin_name1": "Wallonie"
    },
    {
      "place_name": "Buzenol",
      "postal_code": "6743",
      "country_code": "BE",
      "latitude": 49.6439,
      "longitude": 5.5947,
      "admin_name1": "Wallonie"
    },
    {
      "place_name": "Gérouville",
      "postal_code": "6769",
      "country_code": "BE",
      "latitude": 49.619,
      "longitude": 5.4265,
      "admin_name1": "Wallonie"
    },
    {
      "place_name": "Jamoigne",
      "postal_code": "6810",
      "country_code": "BE",
      "latitude": 49.6933,
      "longitude": 5.4091,
      "admin_name1": "Wallonie"
    },
    {
      "place_name": "Fontenoille",
      "postal_code": "6820",
      "country_code": "BE",
      "latitude": 49.7152,
      "longitude": 5.2334,
      "admin_name1": "Wallonie"
    },
    {
      "place_name": "Longlier",
      "postal_code": "6840",
      "country_code": "BE",
      "latitude": 49.8538,
      "longitude": 5.4501,
      "admin_name1": "Wallonie"
    },
    {
      "place_name": "Léglise",
      "postal_code": "6860",
      "country_code": "BE",
      "latitude": 49.7998,
      "longitude": 5.5365,
      "admin_name1": "Wallonie"
    },
    {
      "place_name": "Gembes",
      "postal_code": "6929",
      "country_code": "BE",
      "latitude": 49.9966,
      "longitude": 5.0626,
      "admin_name1": "Wallonie"
    },
    {
      "place_name": "Bomal-Sur-Ourthe",
      "postal_code": "6941",
      "country_code": "BE",
      "latitude": 50.3763,
      "longitude": 5.5238,
      "admin_name1": "Wallonie"
    },
    {
      "place_name": "Hodister",
      "postal_code": "6987",
      "country_code": "BE",
      "latitude": 50.2008,
      "longitude": 5.4948,
      "admin_name1": "Wallonie"
    },
    {
      "place_name": "Grand-Manil",
      "postal_code": "5030",
      "country_code": "BE",
      "latitude": 50.557,
      "longitude": 4.6753,
      "admin_name1": "Wallonie"
    },
    {
      "place_name": "Isnes",
      "postal_code": "5032",
      "country_code": "BE",
      "latitude": 50.5061,
      "longitude": 4.7283,
      "admin_name1": "Wallonie"
    },
    {
      "place_name": "Mornimont",
      "postal_code": "5190",
      "country_code": "BE",
      "latitude": 50.459,
      "longitude": 4.7045,
      "admin_name1": "Wallonie"
    },
    {
      "place_name": "Maizeret",
      "postal_code": "5300",
      "country_code": "BE",
      "latitude": 50.4597,
      "longitude": 4.9787,
      "admin_name1": "Wallonie"
    },
    {
      "place_name": "Branchon",
      "postal_code": "5310",
      "country_code": "BE",
      "latitude": 50.629,
      "longitude": 4.9734,
      "admin_name1": "Wallonie"
    },
    {
      "place_name": "Taviers",
      "postal_code": "5310",
      "country_code": "BE",
      "latitude": 50.6173,
      "longitude": 4.9307,
      "admin_name1": "Wallonie"
    },
    {
      "place_name": "Sorée",
      "postal_code": "5340",
      "country_code": "BE",
      "latitude": 50.3992,
      "longitude": 5.124,
      "admin_name1": "Wallonie"
    },
    {
      "place_name": "Méan",
      "postal_code": "5372",
      "country_code": "BE",
      "latitude": 50.3631,
      "longitude": 5.3355,
      "admin_name1": "Wallonie"
    },
    {
      "place_name": "Maffe",
      "postal_code": "5374",
      "country_code": "BE",
      "latitude": 50.3538,
      "longitude": 5.3121,
      "admin_name1": "Wallonie"
    },
    {
      "place_name": "Hastière-Par-Delà",
      "postal_code": "5541",
      "country_code": "BE",
      "latitude": 50.2149,
      "longitude": 4.8295,
      "admin_name1": "Wallonie"
    },
    {
      "place_name": "Chairière",
      "postal_code": "5550",
      "country_code": "BE",
      "latitude": 49.8626,
      "longitude": 4.9516,
      "admin_name1": "Wallonie"
    },
    {
      "place_name": "Felenne",
      "postal_code": "5570",
      "country_code": "BE",
      "latitude": 50.0685,
      "longitude": 4.8474,
      "admin_name1": "Wallonie"
    },
    {
      "place_name": "Martouzin-Neuville",
      "postal_code": "5573",
      "country_code": "BE",
      "latitude": 50.1177,
      "longitude": 5.0063,
      "admin_name1": "Wallonie"
    },
    {
      "place_name": "Sautour",
      "postal_code": "5600",
      "country_code": "BE",
      "latitude": 50.1698,
      "longitude": 4.5588,
      "admin_name1": "Wallonie"
    },
    {
      "place_name": "Neuville",
      "postal_code": "5600",
      "country_code": "BE",
      "latitude": 50.1733,
      "longitude": 4.516,
      "admin_name1": "Wallonie"
    },
    {
      "place_name": "Vogenée",
      "postal_code": "5650",
      "country_code": "BE",
      "latitude": 50.2399,
      "longitude": 4.4492,
      "admin_name1": "Wallonie"
    },
    {
      "place_name": "Herentals",
      "postal_code": "2200",
      "country_code": "BE",
      "latitude": 51.1766,
      "longitude": 4.8325,
      "admin_name1": "Vlaanderen"
    },
    {
      "place_name": "Hoogstraten",
      "postal_code": "2320",
      "country_code": "BE",
      "latitude": 51.4003,
      "longitude": 4.7603,
      "admin_name1": "Vlaanderen"
    },
    {
      "place_name": "Mol",
      "postal_code": "2400",
      "country_code": "BE",
      "latitude": 51.1919,
      "longitude": 5.1166,
      "admin_name1": "Vlaanderen"
    },
    {
      "place_name": "Puurs",
      "postal_code": "2870",
      "country_code": "BE",
      "latitude": 51.0741,
      "longitude": 4.2884,
      "admin_name1": "Vlaanderen"
    },
    {
      "place_name": "Alsemberg",
      "postal_code": "1652",
      "country_code": "BE",
      "latitude": 50.7413,
      "longitude": 4.3375,
      "admin_name1": "Vlaanderen"
    },
    {
      "place_name": "Melsbroek",
      "postal_code": "1820",
      "country_code": "BE",
      "latitude": 50.9156,
      "longitude": 4.4798,
      "admin_name1": "Vlaanderen"
    },
    {
      "place_name": "Sterrebeek",
      "postal_code": "1933",
      "country_code": "BE",
      "latitude": 50.8617,
      "longitude": 4.4938,
      "admin_name1": "Vlaanderen"
    },
    {
      "place_name": "Blanden",
      "postal_code": "3052",
      "country_code": "BE",
      "latitude": 50.8262,
      "longitude": 4.7102,
      "admin_name1": "Vlaanderen"
    },
    {
      "place_name": "Averbode",
      "postal_code": "3271",
      "country_code": "BE",
      "latitude": 51.0289,
      "longitude": 4.9807,
      "admin_name1": "Vlaanderen"
    },
    {
      "place_name": "Neerlinter",
      "postal_code": "3350",
      "country_code": "BE",
      "latitude": 50.8397,
      "longitude": 5.0229,
      "admin_name1": "Vlaanderen"
    },
    {
      "place_name": "Lovenjoel",
      "postal_code": "3360",
      "country_code": "BE",
      "latitude": 50.8585,
      "longitude": 4.7809,
      "admin_name1": "Vlaanderen"
    },
    {
      "place_name": "Tielt",
      "postal_code": "3390",
      "country_code": "BE",
      "latitude": 50.9421,
      "longitude": 4.9051,
      "admin_name1": "Vlaanderen"
    },
    {
      "place_name": "Kortenaken",
      "postal_code": "3470",
      "country_code": "BE",
      "latitude": 50.9086,
      "longitude": 5.0597,
      "admin_name1": "Vlaanderen"
    },
    {
      "place_name": "Waanrode",
      "postal_code": "3473",
      "country_code": "BE",
      "latitude": 50.9162,
      "longitude": 5.0048,
      "admin_name1": "Vlaanderen"
    },
    {
      "place_name": "Ellikom",
      "postal_code": "3670",
      "country_code": "BE",
      "latitude": 51.1277,
      "longitude": 5.5239,
      "admin_name1": "Vlaanderen"
    },
    {
      "place_name": "Tongeren",
      "postal_code": "3700",
      "country_code": "BE",
      "latitude": 50.7805,
      "longitude": 5.4648,
      "admin_name1": "Vlaanderen"
    },
    {
      "place_name": "Widooie",
      "postal_code": "3700",
      "country_code": "BE",
      "latitude": 50.7716,
      "longitude": 5.4078,
      "admin_name1": "Vlaanderen"
    },
    {
      "place_name": "Piringen",
      "postal_code": "3700",
      "country_code": "BE",
      "latitude": 50.7867,
      "longitude": 5.4182,
      "admin_name1": "Vlaanderen"
    },
    {
      "place_name": "Millen",
      "postal_code": "3770",
      "country_code": "BE",
      "latitude": 50.7862,
      "longitude": 5.5562,
      "admin_name1": "Vlaanderen"
    },
    {
      "place_name": "Mettekoven",
      "postal_code": "3870",
      "country_code": "BE",
      "latitude": 50.7807,
      "longitude": 5.2909,
      "admin_name1": "Vlaanderen"
    },
    {
      "place_name": "Borlo",
      "postal_code": "3891",
      "country_code": "BE",
      "latitude": 50.7423,
      "longitude": 5.1809,
      "admin_name1": "Vlaanderen"
    },
    {
      "place_name": "Destelbergen",
      "postal_code": "9070",
      "country_code": "BE",
      "latitude": 51.0595,
      "longitude": 3.799,
      "admin_name1": "Vlaanderen"
    },
    {
      "place_name": "Sint-Antelinks",
      "postal_code": "9550",
      "country_code": "BE",
      "latitude": 50.8498,
      "longitude": 3.9265,
      "admin_name1": "Vlaanderen"
    },
    {
      "place_name": "Sint-Maria-Lierde",
      "postal_code": "9570",
      "country_code": "BE",
      "latitude": 50.8217,
      "longitude": 3.8481,
      "admin_name1": "Vlaanderen"
    },
    {
      "place_name": "Sint-Maria-Horebeke",
      "postal_code": "9667",
      "country_code": "BE",
      "latitude": 50.8388,
      "longitude": 3.6875,
      "admin_name1": "Vlaanderen"
    },
    {
      "place_name": "Huise",
      "postal_code": "9750",
      "country_code": "BE",
      "latitude": 50.9006,
      "longitude": 3.591,
      "admin_name1": "Vlaanderen"
    },
    {
      "place_name": "Bachte-Maria-Leerne",
      "postal_code": "9800",
      "country_code": "BE",
      "latitude": 51.0113,
      "longitude": 3.5815,
      "admin_name1": "Vlaanderen"
    },
    {
      "place_name": "Zeveren",
      "postal_code": "9800",
      "country_code": "BE",
      "latitude": 50.9964,
      "longitude": 3.499,
      "admin_name1": "Vlaanderen"
    },
    {
      "place_name": "Melsen",
      "postal_code": "9820",
      "country_code": "BE",
      "latitude": 50.9562,
      "longitude": 3.6957,
      "admin_name1": "Vlaanderen"
    },
    {
      "place_name": "Scheldewindeke",
      "postal_code": "9860",
      "country_code": "BE",
      "latitude": 50.9344,
      "longitude": 3.7866,
      "admin_name1": "Vlaanderen"
    },
    {
      "place_name": "Waardamme",
      "postal_code": "8020",
      "country_code": "BE",
      "latitude": 51.1114,
      "longitude": 3.2229,
      "admin_name1": "Vlaanderen"
    },
    {
      "place_name": "Wenduine",
      "postal_code": "8420",
      "country_code": "BE",
      "latitude": 51.2983,
      "longitude": 3.0821,
      "admin_name1": "Vlaanderen"
    },
    {
      "place_name": "Schore",
      "postal_code": "8433",
      "country_code": "BE",
      "latitude": 51.1114,
      "longitude": 2.8401,
      "admin_name1": "Vlaanderen"
    },
    {
      "place_name": "Kerkhove",
      "postal_code": "8581",
      "country_code": "BE",
      "latitude": 50.7985,
      "longitude": 3.5027,
      "admin_name1": "Vlaanderen"
    },
    {
      "place_name": "Outrijve",
      "postal_code": "8582",
      "country_code": "BE",
      "latitude": 50.7577,
      "longitude": 3.4296,
      "admin_name1": "Vlaanderen"
    },
    {
      "place_name": "Esen",
      "postal_code": "8600",
      "country_code": "BE",
      "latitude": 51.0294,
      "longitude": 2.9019,
      "admin_name1": "Vlaanderen"
    },
    {
      "place_name": "Sint-Jacobs-Kapelle",
      "postal_code": "8600",
      "country_code": "BE",
      "latitude": 51.0167,
      "longitude": 2.8345,
      "admin_name1": "Vlaanderen"
    },
    {
      "place_name": "Werken",
      "postal_code": "8610",
      "country_code": "BE",
      "latitude": 51.0294,
      "longitude": 2.9645,
      "admin_name1": "Vlaanderen"
    },
    {
      "place_name": "Houtem",
      "postal_code": "8630",
      "country_code": "BE",
      "latitude": 51.0108,
      "longitude": 2.6095,
      "admin_name1": "Vlaanderen"
    },
    {
      "place_name": "Wulvergem",
      "postal_code": "8952",
      "country_code": "BE",
      "latitude": 50.7602,
      "longitude": 2.8524,
      "admin_name1": "Vlaanderen"
    },
    {
      "place_name": "Roux-Miroir",
      "postal_code": "1315",
      "country_code": "BE",
      "latitude": 50.7086,
      "longitude": 4.7827,
      "admin_name1": "Wallonie"
    },
    {
      "place_name": "Piétrain",
      "postal_code": "1370",
      "country_code": "BE",
      "latitude": 50.7253,
      "longitude": 4.9203,
      "admin_name1": "Wallonie"
    },
    {
      "place_name": "Archennes",
      "postal_code": "1390",
      "country_code": "BE",
      "latitude": 50.7526,
      "longitude": 4.6696,
      "admin_name1": "Wallonie"
    },
    {
      "place_name": "Saint-Géry",
      "postal_code": "1450",
      "country_code": "BE",
      "latitude": 50.5813,
      "longitude": 4.6136,
      "admin_name1": "Wallonie"
    },
    {
      "place_name": "Saint-Remy",
      "postal_code": "6460",
      "country_code": "BE",
      "latitude": 50.0456,
      "longitude": 4.2923,
      "admin_name1": "Wallonie"
    },
    {
      "place_name": "Flénu",
      "postal_code": "7012",
      "country_code": "BE",
      "latitude": 50.4367,
      "longitude": 3.8857,
      "admin_name1": "Wallonie"
    },
    {
      "place_name": "Hyon",
      "postal_code": "7022",
      "country_code": "BE",
      "latitude": 50.438,
      "longitude": 3.9603,
      "admin_name1": "Wallonie"
    },
    {
      "place_name": "Erbaut",
      "postal_code": "7050",
      "country_code": "BE",
      "latitude": 50.5326,
      "longitude": 3.8838,
      "admin_name1": "Wallonie"
    },
    {
      "place_name": "Soignies",
      "postal_code": "7060",
      "country_code": "BE",
      "latitude": 50.579,
      "longitude": 4.0713,
      "admin_name1": "Wallonie"
    },
    {
      "place_name": "Naast",
      "postal_code": "7062",
      "country_code": "BE",
      "latitude": 50.5541,
      "longitude": 4.1008,
      "admin_name1": "Wallonie"
    },
    {
      "place_name": "Mignault",
      "postal_code": "7070",
      "country_code": "BE",
      "latitude": 50.5302,
      "longitude": 4.1576,
      "admin_name1": "Wallonie"
    },
    {
      "place_name": "Vellereille-Les-Brayeux",
      "postal_code": "7120",
      "country_code": "BE",
      "latitude": 50.3795,
      "longitude": 4.1511,
      "admin_name1": "Wallonie"
    },
    {
      "place_name": "Waudrez",
      "postal_code": "7131",
      "country_code": "BE",
      "latitude": 50.4135,
      "longitude": 4.1505,
      "admin_name1": "Wallonie"
    },
    {
      "place_name": "Arquennes",
      "postal_code": "7181",
      "country_code": "BE",
      "latitude": 50.5676,
      "longitude": 4.2734,
      "admin_name1": "Wallonie"
    },
    {
      "place_name": "Bouvignies",
      "postal_code": "7803",
      "country_code": "BE",
      "latitude": 50.6463,
      "longitude": 3.7657,
      "admin_name1": "Wallonie"
    },
    {
      "place_name": "Rebaix",
      "postal_code": "7804",
      "country_code": "BE",
      "latitude": 50.66,
      "longitude": 3.7831,
      "admin_name1": "Wallonie"
    },
    {
      "place_name": "Ghoy",
      "postal_code": "7863",
      "country_code": "BE",
      "latitude": 50.7283,
      "longitude": 3.8098,
      "admin_name1": "Wallonie"
    },
    {
      "place_name": "Ellezelles",
      "postal_code": "7890",
      "country_code": "BE",
      "latitude": 50.7351,
      "longitude": 3.6798,
      "admin_name1": "Wallonie"
    },
    {
      "place_name": "Gallaix",
      "postal_code": "7906",
      "country_code": "BE",
      "latitude": 50.6051,
      "longitude": 3.5737,
      "admin_name1": "Wallonie"
    },
    {
      "place_name": "Grosage",
      "postal_code": "7950",
      "country_code": "BE",
      "latitude": 50.5456,
      "longitude": 3.7575,
      "admin_name1": "Wallonie"
    },
    {
      "place_name": "Beloeil",
      "postal_code": "7970",
      "country_code": "BE",
      "latitude": 50.5505,
      "longitude": 3.7348,
      "admin_name1": "Wallonie"
    },
    {
      "place_name": "Ramegnies",
      "postal_code": "7971",
      "country_code": "BE",
      "latitude": 50.5442,
      "longitude": 3.6348,
      "admin_name1": "Wallonie"
    },
    {
      "place_name": "Pousset",
      "postal_code": "4350",
      "country_code": "BE",
      "latitude": 50.695,
      "longitude": 5.304,
      "admin_name1": "Wallonie"
    },
    {
      "place_name": "Sainte-Ode",
      "postal_code": "6680",
      "country_code": "BE",
      "latitude": 50.0172,
      "longitude": 5.5193,
      "admin_name1": "Wallonie"
    },
    {
      "place_name": "Framont",
      "postal_code": "6853",
      "country_code": "BE",
      "latitude": 49.9192,
      "longitude": 5.16,
      "admin_name1": "Wallonie"
    },
    {
      "place_name": "Septon",
      "postal_code": "6940",
      "country_code": "BE",
      "latitude": 50.3561,
      "longitude": 5.4226,
      "admin_name1": "Wallonie"
    },
    {
      "place_name": "Villers-Sainte-Gertrude",
      "postal_code": "6941",
      "country_code": "BE",
      "latitude": 50.3608,
      "longitude": 5.5799,
      "admin_name1": "Wallonie"
    },
    {
      "place_name": "Lesterny",
      "postal_code": "6953",
      "country_code": "BE",
      "latitude": 50.1124,
      "longitude": 5.279,
      "admin_name1": "Wallonie"
    },
    {
      "place_name": "Rhisnes",
      "postal_code": "5080",
      "country_code": "BE",
      "latitude": 50.5068,
      "longitude": 4.8059,
      "admin_name1": "Wallonie"
    },
    {
      "place_name": "Bovesse",
      "postal_code": "5081",
      "country_code": "BE",
      "latitude": 50.5194,
      "longitude": 4.7809,
      "admin_name1": "Wallonie"
    },
    {
      "place_name": "Bois-De-Villers",
      "postal_code": "5170",
      "country_code": "BE",
      "latitude": 50.3903,
      "longitude": 4.8241,
      "admin_name1": "Wallonie"
    },
    {
      "place_name": "Namêche",
      "postal_code": "5300",
      "country_code": "BE",
      "latitude": 50.4724,
      "longitude": 4.9976,
      "admin_name1": "Wallonie"
    },
    {
      "place_name": "Seilles",
      "postal_code": "5300",
      "country_code": "BE",
      "latitude": 50.5007,
      "longitude": 5.0927,
      "admin_name1": "Wallonie"
    },
    {
      "place_name": "Waret-La-Chaussée",
      "postal_code": "5310",
      "country_code": "BE",
      "latitude": 50.5429,
      "longitude": 4.9244,
      "admin_name1": "Wallonie"
    },
    {
      "place_name": "Mohiville",
      "postal_code": "5361",
      "country_code": "BE",
      "latitude": 50.3181,
      "longitude": 5.1926,
      "admin_name1": "Wallonie"
    },
    {
      "place_name": "Waillet",
      "postal_code": "5377",
      "country_code": "BE",
      "latitude": 50.2606,
      "longitude": 5.3052,
      "admin_name1": "Wallonie"
    },
    {
      "place_name": "Cortil-Wodon",
      "postal_code": "5380",
      "country_code": "BE",
      "latitude": 50.568,
      "longitude": 4.9571,
      "admin_name1": "Wallonie"
    },
    {
      "place_name": "Foy-Notre-Dame",
      "postal_code": "5504",
      "country_code": "BE",
      "latitude": 50.2472,
      "longitude": 4.9899,
      "admin_name1": "Wallonie"
    },
    {
      "place_name": "Wanlin",
      "postal_code": "5564",
      "country_code": "BE",
      "latitude": 50.1599,
      "longitude": 5.062,
      "admin_name1": "Wallonie"
    },
    {
      "place_name": "Wancennes",
      "postal_code": "5570",
      "country_code": "BE",
      "latitude": 50.0914,
      "longitude": 4.9613,
      "admin_name1": "Wallonie"
    },
    {
      "place_name": "Ormeignies",
      "postal_code": "7802",
      "country_code": "BE",
      "latitude": 50.595,
      "longitude": 3.7518,
      "admin_name1": "Wallonie"
    },
    {
      "place_name": "Montignies-Lez-Lens",
      "postal_code": "7870",
      "country_code": "BE",
      "latitude": 50.5642,
      "longitude": 3.9427,
      "admin_name1": "Wallonie"
    },
    {
      "place_name": "Wihogne",
      "postal_code": "4452",
      "country_code": "BE",
      "latitude": 50.7292,
      "longitude": 5.5048,
      "admin_name1": "Wallonie"
    },
    {
      "place_name": "Villers-Saint-Siméon",
      "postal_code": "4453",
      "country_code": "BE",
      "latitude": 50.7112,
      "longitude": 5.5389,
      "admin_name1": "Wallonie"
    },
    {
      "place_name": "Ben-Ahin",
      "postal_code": "4500",
      "country_code": "BE",
      "latitude": 50.5041,
      "longitude": 5.1868,
      "admin_name1": "Wallonie"
    },
    {
      "place_name": "Berneau",
      "postal_code": "4607",
      "country_code": "BE",
      "latitude": 50.7424,
      "longitude": 5.7306,
      "admin_name1": "Wallonie"
    },
    {
      "place_name": "Manderfeld",
      "postal_code": "4760",
      "country_code": "BE",
      "latitude": 50.3312,
      "longitude": 6.3392,
      "admin_name1": "Wallonie"
    },
    {
      "place_name": "Lommersweiler",
      "postal_code": "4783",
      "country_code": "BE",
      "latitude": 50.24,
      "longitude": 6.165,
      "admin_name1": "Wallonie"
    },
    {
      "place_name": "Polleur",
      "postal_code": "4800",
      "country_code": "BE",
      "latitude": 50.5394,
      "longitude": 5.8808,
      "admin_name1": "Wallonie"
    },
    {
      "place_name": "Soiron",
      "postal_code": "4861",
      "country_code": "BE",
      "latitude": 50.5913,
      "longitude": 5.7909,
      "admin_name1": "Wallonie"
    },
    {
      "place_name": "Leignon",
      "postal_code": "5590",
      "country_code": "BE",
      "latitude": 50.2686,
      "longitude": 5.1104,
      "admin_name1": "Wallonie"
    },
    {
      "place_name": "Tarcienne",
      "postal_code": "5651",
      "country_code": "BE",
      "latitude": 50.312,
      "longitude": 4.4968,
      "admin_name1": "Wallonie"
    },
    {
      "place_name": "Vierves-Sur-Viroin",
      "postal_code": "5670",
      "country_code": "BE",
      "latitude": 50.0811,
      "longitude": 4.6344,
      "admin_name1": "Wallonie"
    },
    {
      "place_name": "Vodelée",
      "postal_code": "5680",
      "country_code": "BE",
      "latitude": 50.1702,
      "longitude": 4.7327,
      "admin_name1": "Wallonie"
    },
    {
      "place_name": "Estaimbourg",
      "postal_code": "7730",
      "country_code": "BE",
      "latitude": 50.68,
      "longitude": 3.3079,
      "admin_name1": "Wallonie"
    },
    {
      "place_name": "Maffle",
      "postal_code": "7810",
      "country_code": "BE",
      "latitude": 50.6179,
      "longitude": 3.8032,
      "admin_name1": "Wallonie"
    },
    {
      "place_name": "Gibecq",
      "postal_code": "7823",
      "country_code": "BE",
      "latitude": 50.6379,
      "longitude": 3.8878,
      "admin_name1": "Wallonie"
    },
    {
      "place_name": "Awans",
      "postal_code": "4340",
      "country_code": "BE",
      "latitude": 50.6677,
      "longitude": 5.4633,
      "admin_name1": "Wallonie"
    },
    {
      "place_name": "Flémalle-Grande",
      "postal_code": "4400",
      "country_code": "BE",
      "latitude": 50.6091,
      "longitude": 5.4767,
      "admin_name1": "Wallonie"
    },
    {
      "place_name": "Tihange",
      "postal_code": "4500",
      "country_code": "BE",
      "latitude": 50.5297,
      "longitude": 5.2618,
      "admin_name1": "Wallonie"
    },
    {
      "place_name": "Vieux-Waleffe",
      "postal_code": "4530",
      "country_code": "BE",
      "latitude": 50.6159,
      "longitude": 5.1982,
      "admin_name1": "Wallonie"
    },
    {
      "place_name": "Heppenbach",
      "postal_code": "4771",
      "country_code": "BE",
      "latitude": 50.3626,
      "longitude": 6.2183,
      "admin_name1": "Wallonie"
    },
    {
      "place_name": "Welkenraedt",
      "postal_code": "4840",
      "country_code": "BE",
      "latitude": 50.6605,
      "longitude": 5.9703,
      "admin_name1": "Wallonie"
    },
    {
      "place_name": "Lavacherie",
      "postal_code": "6681",
      "country_code": "BE",
      "latitude": 50.0528,
      "longitude": 5.5109,
      "admin_name1": "Wallonie"
    },
    {
      "place_name": "Habay-La-Vieille",
      "postal_code": "6723",
      "country_code": "BE",
      "latitude": 49.7233,
      "longitude": 5.62,
      "admin_name1": "Wallonie"
    },
    {
      "place_name": "Saint-Mard",
      "postal_code": "6762",
      "country_code": "BE",
      "latitude": 49.554,
      "longitude": 5.5343,
      "admin_name1": "Wallonie"
    },
    {
      "place_name": "Corbion",
      "postal_code": "6838",
      "country_code": "BE",
      "latitude": 49.7977,
      "longitude": 5.0074,
      "admin_name1": "Wallonie"
    },
    {
      "place_name": "Fays-Les-Veneurs",
      "postal_code": "6856",
      "country_code": "BE",
      "latitude": 49.8661,
      "longitude": 5.1612,
      "admin_name1": "Wallonie"
    },
    {
      "place_name": "Odeigne",
      "postal_code": "6960",
      "country_code": "BE",
      "latitude": 50.2574,
      "longitude": 5.6825,
      "admin_name1": "Wallonie"
    },
    {
      "place_name": "Hampteau",
      "postal_code": "6990",
      "country_code": "BE",
      "latitude": 50.2583,
      "longitude": 5.472,
      "admin_name1": "Wallonie"
    },
    {
      "place_name": "Marenne",
      "postal_code": "6990",
      "country_code": "BE",
      "latitude": 50.2413,
      "longitude": 5.415,
      "admin_name1": "Wallonie"
    },
    {
      "place_name": "Boninne",
      "postal_code": "5021",
      "country_code": "BE",
      "latitude": 50.4944,
      "longitude": 4.9323,
      "admin_name1": "Wallonie"
    },
    {
      "place_name": "Meux",
      "postal_code": "5081",
      "country_code": "BE",
      "latitude": 50.5522,
      "longitude": 4.801,
      "admin_name1": "Wallonie"
    },
    {
      "place_name": "Tongrinne",
      "postal_code": "5140",
      "country_code": "BE",
      "latitude": 50.5156,
      "longitude": 4.6243,
      "admin_name1": "Wallonie"
    },
    {
      "place_name": "Aische-En-Refail",
      "postal_code": "5310",
      "country_code": "BE",
      "latitude": 50.6001,
      "longitude": 4.8377,
      "admin_name1": "Wallonie"
    },
    {
      "place_name": "Noville-Les-Bois",
      "postal_code": "5380",
      "country_code": "BE",
      "latitude": 50.557,
      "longitude": 4.9847,
      "admin_name1": "Wallonie"
    },
    {
      "place_name": "Celles",
      "postal_code": "5561",
      "country_code": "BE",
      "latitude": 50.2305,
      "longitude": 5.0066,
      "admin_name1": "Wallonie"
    },
    {
      "place_name": "Wommelgem",
      "postal_code": "2160",
      "country_code": "BE",
      "latitude": 51.2045,
      "longitude": 4.5225,
      "admin_name1": "Vlaanderen"
    },
    {
      "place_name": "Hulshout",
      "postal_code": "2235",
      "country_code": "BE",
      "latitude": 51.0745,
      "longitude": 4.7908,
      "admin_name1": "Vlaanderen"
    },
    {
      "place_name": "Pulle",
      "postal_code": "2243",
      "country_code": "BE",
      "latitude": 51.2032,
      "longitude": 4.7143,
      "admin_name1": "Vlaanderen"
    },
    {
      "place_name": "Beerse",
      "postal_code": "2340",
      "country_code": "BE",
      "latitude": 51.3193,
      "longitude": 4.853,
      "admin_name1": "Vlaanderen"
    },
    {
      "place_name": "Eindhout",
      "postal_code": "2430",
      "country_code": "BE",
      "latitude": 51.1038,
      "longitude": 4.9999,
      "admin_name1": "Vlaanderen"
    },
    {
      "place_name": "Lippelo",
      "postal_code": "2890",
      "country_code": "BE",
      "latitude": 51.0426,
      "longitude": 4.259,
      "admin_name1": "Vlaanderen"
    },
    {
      "place_name": "Biévène",
      "postal_code": "1547",
      "country_code": "BE",
      "latitude": 50.7164,
      "longitude": 3.9412,
      "admin_name1": "Vlaanderen"
    },
    {
      "place_name": "Heikruis",
      "postal_code": "1670",
      "country_code": "BE",
      "latitude": 50.7351,
      "longitude": 4.1116,
      "admin_name1": "Vlaanderen"
    },
    {
      "place_name": "Machelen",
      "postal_code": "1830",
      "country_code": "BE",
      "latitude": 50.9106,
      "longitude": 4.4417,
      "admin_name1": "Vlaanderen"
    },
    {
      "place_name": "Elewijt",
      "postal_code": "1982",
      "country_code": "BE",
      "latitude": 50.9604,
      "longitude": 4.4968,
      "admin_name1": "Vlaanderen"
    },
    {
      "place_name": "Ottenburg",
      "postal_code": "3040",
      "country_code": "BE",
      "latitude": 50.7516,
      "longitude": 4.6164,
      "admin_name1": "Vlaanderen"
    },
    {
      "place_name": "Haasrode",
      "postal_code": "3053",
      "country_code": "BE",
      "latitude": 50.8317,
      "longitude": 4.7295,
      "admin_name1": "Vlaanderen"
    },
    {
      "place_name": "Outgaarden",
      "postal_code": "3321",
      "country_code": "BE",
      "latitude": 50.7667,
      "longitude": 4.9193,
      "admin_name1": "Vlaanderen"
    },
    {
      "place_name": "Eliksem",
      "postal_code": "3400",
      "country_code": "BE",
      "latitude": 50.7841,
      "longitude": 5.0104,
      "admin_name1": "Vlaanderen"
    },
    {
      "place_name": "Hoeleden",
      "postal_code": "3471",
      "country_code": "BE",
      "latitude": 50.8666,
      "longitude": 4.9854,
      "admin_name1": "Vlaanderen"
    },
    {
      "place_name": "Opgrimbie",
      "postal_code": "3630",
      "country_code": "BE",
      "latitude": 50.9419,
      "longitude": 5.6797,
      "admin_name1": "Vlaanderen"
    },
    {
      "place_name": "Dilsen",
      "postal_code": "3650",
      "country_code": "BE",
      "latitude": 51.0385,
      "longitude": 5.7394,
      "admin_name1": "Vlaanderen"
    },
    {
      "place_name": "Stokkem",
      "postal_code": "3650",
      "country_code": "BE",
      "latitude": 51.0233,
      "longitude": 5.745,
      "admin_name1": "Vlaanderen"
    },
    {
      "place_name": "Neerglabbeek",
      "postal_code": "3670",
      "country_code": "BE",
      "latitude": 51.0891,
      "longitude": 5.6161,
      "admin_name1": "Vlaanderen"
    },
    {
      "place_name": "Riksingen",
      "postal_code": "3700",
      "country_code": "BE",
      "latitude": 50.8043,
      "longitude": 5.4626,
      "admin_name1": "Vlaanderen"
    },
    {
      "place_name": "Rutten",
      "postal_code": "3700",
      "country_code": "BE",
      "latitude": 50.7476,
      "longitude": 5.4435,
      "admin_name1": "Vlaanderen"
    },
    {
      "place_name": "Hees",
      "postal_code": "3740",
      "country_code": "BE",
      "latitude": 50.8468,
      "longitude": 5.6077,
      "admin_name1": "Vlaanderen"
    },
    {
      "place_name": "Vlijtingen",
      "postal_code": "3770",
      "country_code": "BE",
      "latitude": 50.832,
      "longitude": 5.5843,
      "admin_name1": "Vlaanderen"
    },
    {
      "place_name": "Ordingen",
      "postal_code": "3800",
      "country_code": "BE",
      "latitude": 50.8132,
      "longitude": 5.235,
      "admin_name1": "Vlaanderen"
    },
    {
      "place_name": "Hechtel",
      "postal_code": "3940",
      "country_code": "BE",
      "latitude": 51.1252,
      "longitude": 5.3677,
      "admin_name1": "Vlaanderen"
    },
    {
      "place_name": "Gerdingen",
      "postal_code": "3960",
      "country_code": "BE",
      "latitude": 51.1482,
      "longitude": 5.5814,
      "admin_name1": "Vlaanderen"
    },
    {
      "place_name": "Peer",
      "postal_code": "3990",
      "country_code": "BE",
      "latitude": 51.1303,
      "longitude": 5.4595,
      "admin_name1": "Vlaanderen"
    },
    {
      "place_name": "Zaffelare",
      "postal_code": "9080",
      "country_code": "BE",
      "latitude": 51.1338,
      "longitude": 3.8636,
      "admin_name1": "Vlaanderen"
    },
    {
      "place_name": "Vlierzele",
      "postal_code": "9520",
      "country_code": "BE",
      "latitude": 50.9317,
      "longitude": 3.8959,
      "admin_name1": "Vlaanderen"
    },
    {
      "place_name": "Munkzwalm",
      "postal_code": "9630",
      "country_code": "BE",
      "latitude": 50.8768,
      "longitude": 3.735,
      "admin_name1": "Vlaanderen"
    },
    {
      "place_name": "Sint-Kornelis-Horebeke",
      "postal_code": "9667",
      "country_code": "BE",
      "latitude": 50.8345,
      "longitude": 3.6983,
      "admin_name1": "Vlaanderen"
    },
    {
      "place_name": "Kruisem",
      "postal_code": "9770",
      "country_code": "BE",
      "latitude": 50.9017,
      "longitude": 3.5259,
      "admin_name1": "Vlaanderen"
    },
    {
      "place_name": "Sleidinge",
      "postal_code": "9940",
      "country_code": "BE",
      "latitude": 51.1336,
      "longitude": 3.674,
      "admin_name1": "Vlaanderen"
    },
    {
      "place_name": "Oosteeklo",
      "postal_code": "9968",
      "country_code": "BE",
      "latitude": 51.193,
      "longitude": 3.6893,
      "admin_name1": "Vlaanderen"
    },
    {
      "place_name": "Loppem",
      "postal_code": "8210",
      "country_code": "BE",
      "latitude": 51.1566,
      "longitude": 3.196,
      "admin_name1": "Vlaanderen"
    },
    {
      "place_name": "Uitkerke",
      "postal_code": "8370",
      "country_code": "BE",
      "latitude": 51.3068,
      "longitude": 3.1371,
      "admin_name1": "Vlaanderen"
    },
    {
      "place_name": "Zuienkerke",
      "postal_code": "8377",
      "country_code": "BE",
      "latitude": 51.2651,
      "longitude": 3.1551,
      "admin_name1": "Vlaanderen"
    },
    {
      "place_name": "Slijpe",
      "postal_code": "8433",
      "country_code": "BE",
      "latitude": 51.1551,
      "longitude": 2.8483,
      "admin_name1": "Vlaanderen"
    },
    {
      "place_name": "Tiegem",
      "postal_code": "8573",
      "country_code": "BE",
      "latitude": 50.809,
      "longitude": 3.4748,
      "admin_name1": "Vlaanderen"
    },
    {
      "place_name": "Pervijze",
      "postal_code": "8600",
      "country_code": "BE",
      "latitude": 51.0732,
      "longitude": 2.794,
      "admin_name1": "Vlaanderen"
    },
    {
      "place_name": "Wulpen",
      "postal_code": "8670",
      "country_code": "BE",
      "latitude": 51.1,
      "longitude": 2.7,
      "admin_name1": "Vlaanderen"
    },
    {
      "place_name": "Koekelare",
      "postal_code": "8680",
      "country_code": "BE",
      "latitude": 51.0905,
      "longitude": 2.9783,
      "admin_name1": "Vlaanderen"
    },
    {
      "place_name": "Zuidschote",
      "postal_code": "8904",
      "country_code": "BE",
      "latitude": 50.9159,
      "longitude": 2.8374,
      "admin_name1": "Vlaanderen"
    },
    {
      "place_name": "Elverdinge",
      "postal_code": "8906",
      "country_code": "BE",
      "latitude": 50.8848,
      "longitude": 2.8171,
      "admin_name1": "Vlaanderen"
    },
    {
      "place_name": "Nieuwkerke",
      "postal_code": "8950",
      "country_code": "BE",
      "latitude": 50.7471,
      "longitude": 2.8286,
      "admin_name1": "Vlaanderen"
    },
    {
      "place_name": "Grand-Rosière-Hottomont",
      "postal_code": "1367",
      "country_code": "BE",
      "latitude": 50.6319,
      "longitude": 4.8656,
      "admin_name1": "Wallonie"
    },
    {
      "place_name": "Ramillies",
      "postal_code": "1367",
      "country_code": "BE",
      "latitude": 50.6339,
      "longitude": 4.9012,
      "admin_name1": "Wallonie"
    },
    {
      "place_name": "Bierghes",
      "postal_code": "1430",
      "country_code": "BE",
      "latitude": 50.6958,
      "longitude": 4.1192,
      "admin_name1": "Wallonie"
    },
    {
      "place_name": "Mont-Saint-Guibert",
      "postal_code": "1435",
      "country_code": "BE",
      "latitude": 50.6343,
      "longitude": 4.6106,
      "admin_name1": "Wallonie"
    },
    {
      "place_name": "Wayaux",
      "postal_code": "6210",
      "country_code": "BE",
      "latitude": 50.4896,
      "longitude": 4.4732,
      "admin_name1": "Wallonie"
    },
    {
      "place_name": "Villers-Perwin",
      "postal_code": "6210",
      "country_code": "BE",
      "latitude": 50.5278,
      "longitude": 4.4797,
      "admin_name1": "Wallonie"
    },
    {
      "place_name": "Viesville",
      "postal_code": "6230",
      "country_code": "BE",
      "latitude": 50.4909,
      "longitude": 4.4085,
      "admin_name1": "Wallonie"
    },
    {
      "place_name": "Aiseau-Presles",
      "postal_code": "6250",
      "country_code": "BE",
      "latitude": 50.4082,
      "longitude": 4.5822,
      "admin_name1": "Wallonie"
    },
    {
      "place_name": "Jemappes",
      "postal_code": "7012",
      "country_code": "BE",
      "latitude": 50.4491,
      "longitude": 3.891,
      "admin_name1": "Wallonie"
    },
    {
      "place_name": "Bougnies",
      "postal_code": "7040",
      "country_code": "BE",
      "latitude": 50.3871,
      "longitude": 3.9413,
      "admin_name1": "Wallonie"
    },
    {
      "place_name": "Givry",
      "postal_code": "7041",
      "country_code": "BE",
      "latitude": 50.3783,
      "longitude": 4.0293,
      "admin_name1": "Wallonie"
    },
    {
      "place_name": "Neufvilles",
      "postal_code": "7063",
      "country_code": "BE",
      "latitude": 50.5711,
      "longitude": 4.0004,
      "admin_name1": "Wallonie"
    },
    {
      "place_name": "La Bouverie",
      "postal_code": "7080",
      "country_code": "BE",
      "latitude": 50.4052,
      "longitude": 3.8744,
      "admin_name1": "Wallonie"
    },
    {
      "place_name": "Mont-Sainte-Aldegonde",
      "postal_code": "7141",
      "country_code": "BE",
      "latitude": 50.4301,
      "longitude": 4.2326,
      "admin_name1": "Wallonie"
    },
    {
      "place_name": "Bois-D'Haine",
      "postal_code": "7170",
      "country_code": "BE",
      "latitude": 50.5018,
      "longitude": 4.2156,
      "admin_name1": "Wallonie"
    },
    {
      "place_name": "Ecaussinnes",
      "postal_code": "7190",
      "country_code": "BE",
      "latitude": 50.5571,
      "longitude": 4.1738,
      "admin_name1": "Wallonie"
    },
    {
      "place_name": "Blaton",
      "postal_code": "7321",
      "country_code": "BE",
      "latitude": 50.5004,
      "longitude": 3.6601,
      "admin_name1": "Wallonie"
    },
    {
      "place_name": "Sirault",
      "postal_code": "7332",
      "country_code": "BE",
      "latitude": 50.5055,
      "longitude": 3.7891,
      "admin_name1": "Wallonie"
    },
    {
      "place_name": "Mont-Saint-Aubert",
      "postal_code": "7542",
      "country_code": "BE",
      "latitude": 50.6543,
      "longitude": 3.4007,
      "admin_name1": "Wallonie"
    },
    {
      "place_name": "Roucourt",
      "postal_code": "7601",
      "country_code": "BE",
      "latitude": 50.5288,
      "longitude": 3.5863,
      "admin_name1": "Wallonie"
    },
    {
      "place_name": "Baugnies",
      "postal_code": "7604",
      "country_code": "BE",
      "latitude": 50.5603,
      "longitude": 3.552,
      "admin_name1": "Wallonie"
    },
    {
      "place_name": "Wiers",
      "postal_code": "7608",
      "country_code": "BE",
      "latitude": 50.5086,
      "longitude": 3.5347,
      "admin_name1": "Wallonie"
    },
    {
      "place_name": "Grandmetz",
      "postal_code": "7900",
      "country_code": "BE",
      "latitude": 50.6255,
      "longitude": 3.6314,
      "admin_name1": "Wallonie"
    },
    {
      "place_name": "Cordes",
      "postal_code": "7910",
      "country_code": "BE",
      "latitude": 50.6889,
      "longitude": 3.5314,
      "admin_name1": "Wallonie"
    },
    {
      "place_name": "Arc-Wattripont",
      "postal_code": "7910",
      "country_code": "BE",
      "latitude": 50.6906,
      "longitude": 3.5568,
      "admin_name1": "Wallonie"
    },
    {
      "place_name": "Tongre-Saint-Martin",
      "postal_code": "7950",
      "country_code": "BE",
      "latitude": 50.5864,
      "longitude": 3.7903,
      "admin_name1": "Wallonie"
    },
    {
      "place_name": "Basècles",
      "postal_code": "7971",
      "country_code": "BE",
      "latitude": 50.5255,
      "longitude": 3.6494,
      "admin_name1": "Wallonie"
    },
    {
      "place_name": "Liège",
      "postal_code": "4020",
      "country_code": "BE",
      "latitude": 50.6337,
      "longitude": 5.5675,
      "admin_name1": "Wallonie"
    },
    {
      "place_name": "Lamontzée",
      "postal_code": "4210",
      "country_code": "BE",
      "latitude": 50.5844,
      "longitude": 5.0928,
      "admin_name1": "Wallonie"
    },
    {
      "place_name": "Rosoux-Crenwick",
      "postal_code": "4257",
      "country_code": "BE",
      "latitude": 50.7072,
      "longitude": 5.1895,
      "admin_name1": "Wallonie"
    },
    {
      "place_name": "Merdorp",
      "postal_code": "4280",
      "country_code": "BE",
      "latitude": 50.6488,
      "longitude": 4.9996,
      "admin_name1": "Wallonie"
    },
    {
      "place_name": "Bovenistier",
      "postal_code": "4300",
      "country_code": "BE",
      "latitude": 50.6678,
      "longitude": 5.284,
      "admin_name1": "Wallonie"
    },
    {
      "place_name": "Uccle",
      "postal_code": "1180",
      "country_code": "BE",
      "latitude": 50.8022,
      "longitude": 4.3394,
      "admin_name1": "Bruxelles-Capitale"
    },
    {
      "place_name": "Borgerhout",
      "postal_code": "2140",
      "country_code": "BE",
      "latitude": 51.2096,
      "longitude": 4.4354,
      "admin_name1": "Vlaanderen"
    },
    {
      "place_name": "Borsbeek",
      "postal_code": "2150",
      "country_code": "BE",
      "latitude": 51.1966,
      "longitude": 4.4854,
      "admin_name1": "Vlaanderen"
    },
    {
      "place_name": "Bouwel",
      "postal_code": "2288",
      "country_code": "BE",
      "latitude": 51.1729,
      "longitude": 4.7418,
      "admin_name1": "Vlaanderen"
    },
    {
      "place_name": "Vlimmeren",
      "postal_code": "2340",
      "country_code": "BE",
      "latitude": 51.2952,
      "longitude": 4.7813,
      "admin_name1": "Vlaanderen"
    },
    {
      "place_name": "Oud-Turnhout",
      "postal_code": "2360",
      "country_code": "BE",
      "latitude": 51.3198,
      "longitude": 4.9841,
      "admin_name1": "Vlaanderen"
    },
    {
      "place_name": "Hove",
      "postal_code": "2540",
      "country_code": "BE",
      "latitude": 51.1545,
      "longitude": 4.4707,
      "admin_name1": "Vlaanderen"
    },
    {
      "place_name": "Wilrijk",
      "postal_code": "2610",
      "country_code": "BE",
      "latitude": 51.1673,
      "longitude": 4.3951,
      "admin_name1": "Vlaanderen"
    },
    {
      "place_name": "Aartselaar",
      "postal_code": "2630",
      "country_code": "BE",
      "latitude": 51.1341,
      "longitude": 4.3868,
      "admin_name1": "Vlaanderen"
    },
    {
      "place_name": "Hombeek",
      "postal_code": "2811",
      "country_code": "BE",
      "latitude": 51.0175,
      "longitude": 4.4389,
      "admin_name1": "Vlaanderen"
    },
    {
      "place_name": "Kapellen",
      "postal_code": "2950",
      "country_code": "BE",
      "latitude": 51.3138,
      "longitude": 4.4354,
      "admin_name1": "Vlaanderen"
    },
    {
      "place_name": "Asse",
      "postal_code": "1730",
      "country_code": "BE",
      "latitude": 50.9101,
      "longitude": 4.1984,
      "admin_name1": "Vlaanderen"
    },
    {
      "place_name": "Relegem",
      "postal_code": "1731",
      "country_code": "BE",
      "latitude": 50.8991,
      "longitude": 4.2769,
      "admin_name1": "Vlaanderen"
    },
    {
      "place_name": "Wambeek",
      "postal_code": "1741",
      "country_code": "BE",
      "latitude": 50.8528,
      "longitude": 4.1617,
      "admin_name1": "Vlaanderen"
    },
    {
      "place_name": "Strijtem",
      "postal_code": "1760",
      "country_code": "BE",
      "latitude": 50.8416,
      "longitude": 4.117,
      "admin_name1": "Vlaanderen"
    },
    {
      "place_name": "Wolvertem",
      "postal_code": "1861",
      "country_code": "BE",
      "latitude": 50.9517,
      "longitude": 4.3096,
      "admin_name1": "Vlaanderen"
    },
    {
      "place_name": "Zemst",
      "postal_code": "1980",
      "country_code": "BE",
      "latitude": 50.9832,
      "longitude": 4.4608,
      "admin_name1": "Vlaanderen"
    },
    {
      "place_name": "Leuven",
      "postal_code": "3000",
      "country_code": "BE",
      "latitude": 50.8796,
      "longitude": 4.7009,
      "admin_name1": "Vlaanderen"
    },
    {
      "place_name": "Kaggevinne",
      "postal_code": "3293",
      "country_code": "BE",
      "latitude": 50.9804,
      "longitude": 5.0189,
      "admin_name1": "Vlaanderen"
    },
    {
      "place_name": "Drieslinter",
      "postal_code": "3350",
      "country_code": "BE",
      "latitude": 50.8457,
      "longitude": 5.0504,
      "admin_name1": "Vlaanderen"
    },
    {
      "place_name": "Neerwinden",
      "postal_code": "3400",
      "country_code": "BE",
      "latitude": 50.7676,
      "longitude": 5.0402,
      "admin_name1": "Vlaanderen"
    },
    {
      "place_name": "Kersbeek-Miskom",
      "postal_code": "3472",
      "country_code": "BE",
      "latitude": 50.8854,
      "longitude": 4.9958,
      "admin_name1": "Vlaanderen"
    },
    {
      "place_name": "Spalbeek",
      "postal_code": "3510",
      "country_code": "BE",
      "latitude": 50.9492,
      "longitude": 5.2239,
      "admin_name1": "Vlaanderen"
    },
    {
      "place_name": "Linkhout",
      "postal_code": "3560",
      "country_code": "BE",
      "latitude": 50.9678,
      "longitude": 5.1374,
      "admin_name1": "Vlaanderen"
    },
    {
      "place_name": "Zutendaal",
      "postal_code": "3690",
      "country_code": "BE",
      "latitude": 50.9331,
      "longitude": 5.5753,
      "admin_name1": "Vlaanderen"
    },
    {
      "place_name": "Overrepen",
      "postal_code": "3700",
      "country_code": "BE",
      "latitude": 50.808,
      "longitude": 5.4311,
      "admin_name1": "Vlaanderen"
    },
    {
      "place_name": "Vroenhoven",
      "postal_code": "3770",
      "country_code": "BE",
      "latitude": 50.8261,
      "longitude": 5.6399,
      "admin_name1": "Vlaanderen"
    },
    {
      "place_name": "Hendrieken",
      "postal_code": "3840",
      "country_code": "BE",
      "latitude": 50.7985,
      "longitude": 5.3271,
      "admin_name1": "Vlaanderen"
    },
    {
      "place_name": "Gingelom",
      "postal_code": "3890",
      "country_code": "BE",
      "latitude": 50.7479,
      "longitude": 5.1342,
      "admin_name1": "Vlaanderen"
    },
    {
      "place_name": "Neigem",
      "postal_code": "9403",
      "country_code": "BE",
      "latitude": 50.8027,
      "longitude": 4.0599,
      "admin_name1": "Vlaanderen"
    },
    {
      "place_name": "Nederboelare",
      "postal_code": "9500",
      "country_code": "BE",
      "latitude": 50.776,
      "longitude": 3.8715,
      "admin_name1": "Vlaanderen"
    },
    {
      "place_name": "Lierde",
      "postal_code": "9570",
      "country_code": "BE",
      "latitude": 50.8041,
      "longitude": 3.844,
      "admin_name1": "Vlaanderen"
    },
    {
      "place_name": "Oombergen",
      "postal_code": "9620",
      "country_code": "BE",
      "latitude": 50.8986,
      "longitude": 3.8334,
      "admin_name1": "Vlaanderen"
    },
    {
      "place_name": "Erwetegem",
      "postal_code": "9620",
      "country_code": "BE",
      "latitude": 50.8555,
      "longitude": 3.8144,
      "admin_name1": "Vlaanderen"
    },
    {
      "place_name": "Schorisse",
      "postal_code": "9688",
      "country_code": "BE",
      "latitude": 50.8031,
      "longitude": 3.6763,
      "admin_name1": "Vlaanderen"
    },
    {
      "place_name": "Elsegem",
      "postal_code": "9790",
      "country_code": "BE",
      "latitude": 50.8236,
      "longitude": 3.536,
      "admin_name1": "Vlaanderen"
    },
    {
      "place_name": "Olsene",
      "postal_code": "9870",
      "country_code": "BE",
      "latitude": 50.9342,
      "longitude": 3.4639,
      "admin_name1": "Vlaanderen"
    },
    {
      "place_name": "Kaaskerke",
      "postal_code": "8600",
      "country_code": "BE",
      "latitude": 51.0354,
      "longitude": 2.8387,
      "admin_name1": "Vlaanderen"
    },
    {
      "place_name": "Bulskamp",
      "postal_code": "8630",
      "country_code": "BE",
      "latitude": 51.0423,
      "longitude": 2.6494,
      "admin_name1": "Vlaanderen"
    },
    {
      "place_name": "Lo",
      "postal_code": "8647",
      "country_code": "BE",
      "latitude": 50.9804,
      "longitude": 2.7496,
      "admin_name1": "Vlaanderen"
    },
    {
      "place_name": "Schuiferskapelle",
      "postal_code": "8700",
      "country_code": "BE",
      "latitude": 51.0324,
      "longitude": 3.338,
      "admin_name1": "Vlaanderen"
    },
    {
      "place_name": "Egem",
      "postal_code": "8740",
      "country_code": "BE",
      "latitude": 51.0153,
      "longitude": 3.2585,
      "admin_name1": "Vlaanderen"
    },
    {
      "place_name": "Oostrozebeke",
      "postal_code": "8780",
      "country_code": "BE",
      "latitude": 50.9209,
      "longitude": 3.338,
      "admin_name1": "Vlaanderen"
    },
    {
      "place_name": "Gits",
      "postal_code": "8830",
      "country_code": "BE",
      "latitude": 50.9969,
      "longitude": 3.0956,
      "admin_name1": "Vlaanderen"
    },
    {
      "place_name": "Brielen",
      "postal_code": "8900",
      "country_code": "BE",
      "latitude": 50.8678,
      "longitude": 2.848,
      "admin_name1": "Vlaanderen"
    },
    {
      "place_name": "Dranouter",
      "postal_code": "8951",
      "country_code": "BE",
      "latitude": 50.766,
      "longitude": 2.7839,
      "admin_name1": "Vlaanderen"
    },
    {
      "place_name": "Beselare",
      "postal_code": "8980",
      "country_code": "BE",
      "latitude": 50.8481,
      "longitude": 3.0245,
      "admin_name1": "Vlaanderen"
    },
    {
      "place_name": "Wavre",
      "postal_code": "1300",
      "country_code": "BE",
      "latitude": 50.7172,
      "longitude": 4.6014,
      "admin_name1": "Wallonie"
    },
    {
      "place_name": "Gougnies",
      "postal_code": "6280",
      "country_code": "BE",
      "latitude": 50.3554,
      "longitude": 4.5761,
      "admin_name1": "Wallonie"
    },
    {
      "place_name": "Vaulx-Lez-Chimay",
      "postal_code": "6462",
      "country_code": "BE",
      "latitude": 50.0617,
      "longitude": 4.3651,
      "admin_name1": "Wallonie"
    },
    {
      "place_name": "Biercée",
      "postal_code": "6533",
      "country_code": "BE",
      "latitude": 50.3242,
      "longitude": 4.2594,
      "admin_name1": "Wallonie"
    },
    {
      "place_name": "Bienne-Lez-Happart",
      "postal_code": "6543",
      "country_code": "BE",
      "latitude": 50.3521,
      "longitude": 4.2162,
      "admin_name1": "Wallonie"
    },
    {
      "place_name": "Morlanwelz",
      "postal_code": "7140",
      "country_code": "BE",
      "latitude": 50.455,
      "longitude": 4.2452,
      "admin_name1": "Wallonie"
    },
    {
      "place_name": "Feluy",
      "postal_code": "7181",
      "country_code": "BE",
      "latitude": 50.5626,
      "longitude": 4.251,
      "admin_name1": "Wallonie"
    },
    {
      "place_name": "Callenelle",
      "postal_code": "7604",
      "country_code": "BE",
      "latitude": 50.5304,
      "longitude": 3.5227,
      "admin_name1": "Wallonie"
    },