[
  [
    {
      "place_name": "Buonas",
      "postal_code": "6343",
      "country_code": "CH",
      "latitude": 47.1383,
      "longitude": 8.4591,
      "admin_name1": "Kanton Zug"
    },
    {
      "place_name": "Thalheim an der Thur",
      "postal_code": "8478",
      "country_code": "CH",
      "latitude": 47.5825,
      "longitude": 8.7456,
      "admin_name1": "Kanton Zürich"
    },
    {
      "place_name": "Opfikon",
      "postal_code": "8152",
      "country_code": "CH",
      "latitude": 47.4311,
      "longitude": 8.5808,
      "admin_name1": "Kanton Zürich"
    },
    {
      "place_name": "Steinmaur",
      "postal_code": "8162",
      "country_code": "CH",
      "latitude": 47.501,
      "longitude": 8.4483,
      "admin_name1": "Kanton Zürich"
    },
    {
      "place_name": "Rüschlikon",
      "postal_code": "8803",
      "country_code": "CH",
      "latitude": 47.3063,
      "longitude": 8.5526,
      "admin_name1": "Kanton Zürich"
    },
    {
      "place_name": "Au ZH",
      "postal_code": "8804",
      "country_code": "CH",
      "latitude": 47.2478,
      "longitude": 8.6491,
      "admin_name1": "Kanton Zürich"
    },
    {
      "place_name": "Uetikon am See",
      "postal_code": "8707",
      "country_code": "CH",
      "latitude": 47.2673,
      "longitude": 8.6792,
      "admin_name1": "Kanton Zürich"
    },
    {
      "place_name": "Dinhard",
      "postal_code": "8474",
      "country_code": "CH",
      "latitude": 47.5578,
      "longitude": 8.7631,
      "admin_name1": "Kanton Zürich"
    },
    {
      "place_name": "Baden",
      "postal_code": "5404",
      "country_code": "CH",
      "latitude": 47.4549,
      "longitude": 8.2783,
      "admin_name1": "Kanton Aargau"
    },
    {
      "place_name": "Ehrendingen",
      "postal_code": "5420",
      "country_code": "CH",
      "latitude": 47.4943,
      "longitude": 8.3468,
      "admin_name1": "Kanton Aargau"
    },
    {
      "place_name": "Würenlos",
      "postal_code": "5436",
      "country_code": "CH",
      "latitude": 47.4473,
      "longitude": 8.3639,
      "admin_name1": "Kanton Aargau"
    },
    {
      "place_name": "Tägerig",
      "postal_code": "5522",
      "country_code": "CH",
      "latitude": 47.3992,
      "longitude": 8.2789,
      "admin_name1": "Kanton Aargau"
    },
    {
      "place_name": "Mülligen",
      "postal_code": "5243",
      "country_code": "CH",
      "latitude": 47.4524,
      "longitude": 8.2385,
      "admin_name1": "Kanton Aargau"
    },
    {
      "place_name": "Schmiedrued",
      "postal_code": "5046",
      "country_code": "CH",
      "latitude": 47.271,
      "longitude": 8.1087,
      "admin_name1": "Kanton Aargau"
    },
    {
      "place_name": "Ittenthal",
      "postal_code": "5083",
      "country_code": "CH",
      "latitude": 47.519,
      "longitude": 8.0622,
      "admin_name1": "Kanton Aargau"
    },
    {
      "place_name": "Magden",
      "postal_code": "4312",
      "country_code": "CH",
      "latitude": 47.5196,
      "longitude": 7.8096,
      "admin_name1": "Kanton Aargau"
    },
    {
      "place_name": "Brülisau",
      "postal_code": "9058",
      "country_code": "CH",
      "latitude": 47.2799,
      "longitude": 9.4497,
      "admin_name1": "Kanton Appenzell Innerrhoden"
    },
    {
      "place_name": "Oberegg",
      "postal_code": "9413",
      "country_code": "CH",
      "latitude": 47.4165,
      "longitude": 9.5533,
      "admin_name1": "Kanton Appenzell Innerrhoden"
    },
    {
      "place_name": "Prêles",
      "postal_code": "2515",
      "country_code": "CH",
      "latitude": 47.095,
      "longitude": 7.1153,
      "admin_name1": "Canton de Berne"
    },
    {
      "place_name": "Loveresse",
      "postal_code": "2732",
      "country_code": "CH",
      "latitude": 47.2408,
      "longitude": 7.2411,
      "admin_name1": "Canton de Berne"
    },
    {
      "place_name": "Perrefitte",
      "postal_code": "2742",
      "country_code": "CH",
      "latitude": 47.2774,
      "longitude": 7.3182,
      "admin_name1": "Canton de Berne"
    },
    {
      "place_name": "Biel/Bienne",
      "postal_code": "2502",
      "country_code": "CH",
      "latitude": 47.1489,
      "longitude": 7.2473,
      "admin_name1": "Canton de Berne"
    },
    {
      "place_name": "Meienried",
      "postal_code": "3294",
      "country_code": "CH",
      "latitude": 47.1372,
      "longitude": 7.3417,
      "admin_name1": "Canton de Berne"
    },
    {
      "place_name": "Heimenhausen",
      "postal_code": "3373",
      "country_code": "CH",
      "latitude": 47.2137,
      "longitude": 7.6969,
      "admin_name1": "Canton de Berne"
    },
    {
      "place_name": "Reisiswil",
      "postal_code": "4919",
      "country_code": "CH",
      "latitude": 47.1613,
      "longitude": 7.8424,
      "admin_name1": "Canton de Berne"
    },
    {
      "place_name": "Kräiligen",
      "postal_code": "3315",
      "country_code": "CH",
      "latitude": 47.1506,
      "longitude": 7.5358,
      "admin_name1": "Canton de Berne"
    },
    {
      "place_name": "Heimisbach",
      "postal_code": "3453",
      "country_code": "CH",
      "latitude": 47.0091,
      "longitude": 7.7838,
      "admin_name1": "Canton de Berne"
    },
    {
      "place_name": "Allmendingen b. Bern",
      "postal_code": "3112",
      "country_code": "CH",
      "latitude": 46.9167,
      "longitude": 7.5211,
      "admin_name1": "Canton de Berne"
    },
    {
      "place_name": "Thun",
      "postal_code": "3604",
      "country_code": "CH",
      "latitude": 46.7403,
      "longitude": 7.6201,
      "admin_name1": "Canton de Berne"
    },
    {
      "place_name": "Schwendibach",
      "postal_code": "3624",
      "country_code": "CH",
      "latitude": 46.7699,
      "longitude": 7.661,
      "admin_name1": "Canton de Berne"
    },
    {
      "place_name": "Längenbühl",
      "postal_code": "3636",
      "country_code": "CH",
      "latitude": 46.7579,
      "longitude": 7.5385,
      "admin_name1": "Canton de Berne"
    },
    {
      "place_name": "Faulensee",
      "postal_code": "3705",
      "country_code": "CH",
      "latitude": 46.6721,
      "longitude": 7.7074,
      "admin_name1": "Canton de Berne"
    },
    {
      "place_name": "Leissigen",
      "postal_code": "3706",
      "country_code": "CH",
      "latitude": 46.6428,
      "longitude": 7.7789,
      "admin_name1": "Canton de Berne"
    },
    {
      "place_name": "Beatenberg",
      "postal_code": "3803",
      "country_code": "CH",
      "latitude": 46.717,
      "longitude": 7.8063,
      "admin_name1": "Canton de Berne"
    },
    {
      "place_name": "Burg im Leimental",
      "postal_code": "4117",
      "country_code": "CH",
      "latitude": 47.4523,
      "longitude": 7.4368,
      "admin_name1": "Kanton Basel-Landschaft"
    },
    {
      "place_name": "Röschenz",
      "postal_code": "4244",
      "country_code": "CH",
      "latitude": 47.4329,
      "longitude": 7.4649,
      "admin_name1": "Kanton Basel-Landschaft"
    },
    {
      "place_name": "Lupsingen",
      "postal_code": "4419",
      "country_code": "CH",
      "latitude": 47.4463,
      "longitude": 7.6961,
      "admin_name1": "Kanton Basel-Landschaft"
    },
    {
      "place_name": "Buckten",
      "postal_code": "4446",
      "country_code": "CH",
      "latitude": 47.4116,
      "longitude": 7.8467,
      "admin_name1": "Kanton Basel-Landschaft"
    },
    {
      "place_name": "Buus",
      "postal_code": "4463",
      "country_code": "CH",
      "latitude": 47.5047,
      "longitude": 7.8661,
      "admin_name1": "Kanton Basel-Landschaft"
    },
    {
      "place_name": "Rünenberg",
      "postal_code": "4497",
      "country_code": "CH",
      "latitude": 47.432,
      "longitude": 7.8804,
      "admin_name1": "Kanton Basel-Landschaft"
    },
    {
      "place_name": "Basel SPI GLS Retour",
      "postal_code": "4089",
      "country_code": "CH",
      "latitude": 47.5577,
      "longitude": 7.5936,
      "admin_name1": "Kanton Basel-Stadt"
    },
    {
      "place_name": "Vesin",
      "postal_code": "1483",
      "country_code": "CH",
      "latitude": 46.8052,
      "longitude": 6.8723,
      "admin_name1": "Canton de Fribourg"
    },
    {
      "place_name": "Lieffrens",
      "postal_code": "1688",
      "country_code": "CH",
      "latitude": 46.6329,
      "longitude": 6.8988,
      "admin_name1": "Canton de Fribourg"
    },
    {
      "place_name": "Le Pâquier-Montbarry",
      "postal_code": "1661",
      "country_code": "CH",
      "latitude": 46.5904,
      "longitude": 7.0519,
      "admin_name1": "Canton de Fribourg"
    },
    {
      "place_name": "Corminboeuf",
      "postal_code": "1720",
      "country_code": "CH",
      "latitude": 46.8049,
      "longitude": 7.0973,
      "admin_name1": "Canton de Fribourg"
    },
    {
      "place_name": "Pensier",
      "postal_code": "1783",
      "country_code": "CH",
      "latitude": 46.8471,
      "longitude": 7.1292,
      "admin_name1": "Canton de Fribourg"
    },
    {
      "place_name": "Besencens",
      "postal_code": "1609",
      "country_code": "CH",
      "latitude": 46.5878,
      "longitude": 6.8685,
      "admin_name1": "Canton de Fribourg"
    },
    {
      "place_name": "Tatroz",
      "postal_code": "1617",
      "country_code": "CH",
      "latitude": 46.5285,
      "longitude": 6.8671,
      "admin_name1": "Canton de Fribourg"
    },
    {
      "place_name": "Semsales",
      "postal_code": "1623",
      "country_code": "CH",
      "latitude": 46.5699,
      "longitude": 6.9517,
      "admin_name1": "Canton de Fribourg"
    },
    {
      "place_name": "Genève 73",
      "postal_code": "1211",
      "country_code": "CH",
      "latitude": 46.2058,
      "longitude": 6.1416,
      "admin_name1": "Genève"
    },
    {
      "place_name": "Grand-Lancy",
      "postal_code": "1212",
      "country_code": "CH",
      "latitude": 46.178,
      "longitude": 6.122,
      "admin_name1": "Genève"
    },
    {
      "place_name": "La Plaine",
      "postal_code": "1283",
      "country_code": "CH",
      "latitude": 46.1792,
      "longitude": 6.0032,
      "admin_name1": "Genève"
    },
    {
      "place_name": "Soral",
      "postal_code": "1286",
      "country_code": "CH",
      "latitude": 46.1481,
      "longitude": 6.0474,
      "admin_name1": "Genève"
    },
    {
      "place_name": "Lantsch/Lenz",
      "postal_code": "7083",
      "country_code": "CH",
      "latitude": 46.707,
      "longitude": 9.5794,
      "admin_name1": "Kanton Graubünden"
    },
    {
      "place_name": "Stierva",
      "postal_code": "7459",
      "country_code": "CH",
      "latitude": 46.657,
      "longitude": 9.5204,
      "admin_name1": "Kanton Graubünden"
    },
    {
      "place_name": "La Rösa",
      "postal_code": "7742",
      "country_code": "CH",
      "latitude": 46.4087,
      "longitude": 10.0774,
      "admin_name1": "Kanton Graubünden"
    },
    {
      "place_name": "Sent",
      "postal_code": "7554",
      "country_code": "CH",
      "latitude": 46.8251,
      "longitude": 10.3404,
      "admin_name1": "Kanton Graubünden"
    },
    {
      "place_name": "Silvaplana-Surlej",
      "postal_code": "7513",
      "country_code": "CH",
      "latitude": 46.4447,
      "longitude": 9.82,
      "admin_name1": "Kanton Graubünden"
    },
    {
      "place_name": "Rossa",
      "postal_code": "6548",
      "country_code": "CH",
      "latitude": 46.404,
      "longitude": 9.127,
      "admin_name1": "Kanton Graubünden"
    },
    {
      "place_name": "Davos Dorf",
      "postal_code": "7260",
      "country_code": "CH",
      "latitude": 46.7674,
      "longitude": 9.8969,
      "admin_name1": "Kanton Graubünden"
    },
    {
      "place_name": "Tersnaus",
      "postal_code": "7116",
      "country_code": "CH",
      "latitude": 46.6863,
      "longitude": 9.1951,
      "admin_name1": "Kanton Graubünden"
    },
    {
      "place_name": "Tartar",
      "postal_code": "7422",
      "country_code": "CH",
      "latitude": 46.7221,
      "longitude": 9.4193,
      "admin_name1": "Kanton Graubünden"
    },
    {
      "place_name": "Lohn GR",
      "postal_code": "7433",
      "country_code": "CH",
      "latitude": 46.6574,
      "longitude": 9.4232,
      "admin_name1": "Kanton Graubünden"
    },
    {
      "place_name": "Vicques",
      "postal_code": "2824",
      "country_code": "CH",
      "latitude": 47.3516,
      "longitude": 7.4268,
      "admin_name1": "Jura"
    },
    {
      "place_name": "Les Enfers",
      "postal_code": "2363",
      "country_code": "CH",
      "latitude": 47.2904,
      "longitude": 7.0455,
      "admin_name1": "Jura"
    },
    {
      "place_name": "Luzern",
      "postal_code": "6014",
      "country_code": "CH",
      "latitude": 47.0568,
      "longitude": 8.247,
      "admin_name1": "Kanton Luzern"
    },
    {
      "place_name": "Perlen",
      "postal_code": "6035",
      "country_code": "CH",
      "latitude": 47.1115,
      "longitude": 8.3649,
      "admin_name1": "Kanton Luzern"
    },
    {
      "place_name": "Adligenswil",
      "postal_code": "6043",
      "country_code": "CH",
      "latitude": 47.0723,
      "longitude": 8.3685,
      "admin_name1": "Kanton Luzern"
    },
    {
      "place_name": "Nottwil Paraplegikerzentrum",
      "postal_code": "6207",
      "country_code": "CH",
      "latitude": 47.1279,
      "longitude": 8.1355,
      "admin_name1": "Kanton Luzern"
    },
    {
      "place_name": "Hüswil",
      "postal_code": "6152",
      "country_code": "CH",
      "latitude": 47.1262,
      "longitude": 7.9066,
      "admin_name1": "Kanton Luzern"
    },
    {
      "place_name": "Schachen LU",
      "postal_code": "6105",
      "country_code": "CH",
      "latitude": 47.0292,
      "longitude": 8.1289,
      "admin_name1": "Kanton Luzern"
    },
    {
      "place_name": "Bramboden",
      "postal_code": "6167",
      "country_code": "CH",
      "latitude": 46.9851,
      "longitude": 7.9727,
      "admin_name1": "Kanton Luzern"
    },
    {
      "place_name": "Brot-Plamboz",
      "postal_code": "2318",
      "country_code": "CH",
      "latitude": 46.9831,
      "longitude": 6.7486,
      "admin_name1": "Neuchâtel"
    },
    {
      "place_name": "La Chaux-du-Milieu",
      "postal_code": "2405",
      "country_code": "CH",
      "latitude": 47.0058,
      "longitude": 6.6981,
      "admin_name1": "Neuchâtel"
    },
    {
      "place_name": "Cernier",
      "postal_code": "2053",
      "country_code": "CH",
      "latitude": 47.0588,
      "longitude": 6.904,
      "admin_name1": "Neuchâtel"
    },
    {
      "place_name": "Dombresson",
      "postal_code": "2056",
      "country_code": "CH",
      "latitude": 47.0699,
      "longitude": 6.9569,
      "admin_name1": "Neuchâtel"
    },
    {
      "place_name": "Le Pâquier NE",
      "postal_code": "2058",
      "country_code": "CH",
      "latitude": 47.1059,
      "longitude": 6.9821,
      "admin_name1": "Neuchâtel"
    },
    {
      "place_name": "Bürgenstock",
      "postal_code": "6363",
      "country_code": "CH",
      "latitude": 46.9963,
      "longitude": 8.3846,
      "admin_name1": "Kanton Nidwalden"
    },
    {
      "place_name": "St. Gallen",
      "postal_code": "9014",
      "country_code": "CH",
      "latitude": 47.4081,
      "longitude": 9.3356,
      "admin_name1": "Kanton St. Gallen"
    },
    {
      "place_name": "St. Gallen Künzler AG",
      "postal_code": "9026",
      "country_code": "CH",
      "latitude": 47.4221,
      "longitude": 9.3755,
      "admin_name1": "Kanton St. Gallen"
    },
    {
      "place_name": "St. Josefen",
      "postal_code": "9030",
      "country_code": "CH",
      "latitude": 47.426,
      "longitude": 9.3373,
      "admin_name1": "Kanton St. Gallen"
    },
    {
      "place_name": "Sennwald",
      "postal_code": "9466",
      "country_code": "CH",
      "latitude": 47.2623,
      "longitude": 9.5013,
      "admin_name1": "Kanton St. Gallen"
    },
    {
      "place_name": "Grabs",
      "postal_code": "9472",
      "country_code": "CH",
      "latitude": 47.1811,
      "longitude": 9.4465,
      "admin_name1": "Kanton St. Gallen"
    },
    {
      "place_name": "Flumserberg Saxli",
      "postal_code": "8894",
      "country_code": "CH",
      "latitude": 47.0597,
      "longitude": 9.3302,
      "admin_name1": "Kanton St. Gallen"
    },
    {
      "place_name": "Schänis",
      "postal_code": "8718",
      "country_code": "CH",
      "latitude": 47.1604,
      "longitude": 9.0585,
      "admin_name1": "Kanton St. Gallen"
    },
    {
      "place_name": "Lütisburg",
      "postal_code": "9604",
      "country_code": "CH",
      "latitude": 47.3954,
      "longitude": 9.106,
      "admin_name1": "Kanton St. Gallen"
    },
    {
      "place_name": "Lichtensteig",
      "postal_code": "9620",
      "country_code": "CH",
      "latitude": 47.3187,
      "longitude": 9.0877,
      "admin_name1": "Kanton St. Gallen"
    },
    {
      "place_name": "Flawil 1",
      "postal_code": "9230",
      "country_code": "CH",
      "latitude": 47.4053,
      "longitude": 9.1977,
      "admin_name1": "Kanton St. Gallen"
    },
    {
      "place_name": "Herbetswil",
      "postal_code": "4715",
      "country_code": "CH",
      "latitude": 47.2919,
      "longitude": 7.5735,
      "admin_name1": "Kanton Solothurn"
    },
    {
      "place_name": "Solothurn",
      "postal_code": "4502",
      "country_code": "CH",
      "latitude": 47.2079,
      "longitude": 7.5371,
      "admin_name1": "Kanton Solothurn"
    },
    {
      "place_name": "Egg SZ",
      "postal_code": "8847",
      "country_code": "CH",
      "latitude": 47.161,
      "longitude": 8.7773,
      "admin_name1": "Kanton Schwyz"
    },
    {
      "place_name": "Pfäffikon SZ",
      "postal_code": "8808",
      "country_code": "CH",
      "latitude": 47.1976,
      "longitude": 8.7832,
      "admin_name1": "Kanton Schwyz"
    },
    {
      "place_name": "Oberarth",
      "postal_code": "6414",
      "country_code": "CH",
      "latitude": 47.0543,
      "longitude": 8.5335,
      "admin_name1": "Kanton Schwyz"
    },
    {
      "place_name": "Ried (Muotathal)",
      "postal_code": "6436",
      "country_code": "CH",
      "latitude": 46.982,
      "longitude": 8.71,
      "admin_name1": "Kanton Schwyz"
    },
    {
      "place_name": "Schlatt TG",
      "postal_code": "8252",
      "country_code": "CH",
      "latitude": 47.6672,
      "longitude": 8.6989,
      "admin_name1": "Kanton Thurgau"
    },
    {
      "place_name": "Frauenfeld",
      "postal_code": "8500",
      "country_code": "CH",
      "latitude": 47.5598,
      "longitude": 8.8977,
      "admin_name1": "Kanton Thurgau"
    },
    {
      "place_name": "Ellighausen",
      "postal_code": "8566",
      "country_code": "CH",
      "latitude": 47.6145,
      "longitude": 9.1388,
      "admin_name1": "Kanton Thurgau"
    },
    {
      "place_name": "Bottighofen",
      "postal_code": "8598",
      "country_code": "CH",
      "latitude": 47.6403,
      "longitude": 9.2129,
      "admin_name1": "Kanton Thurgau"
    },
    {
      "place_name": "Wallenwil",
      "postal_code": "8360",
      "country_code": "CH",
      "latitude": 47.4532,
      "longitude": 8.9547,
      "admin_name1": "Kanton Thurgau"
    },
    {
      "place_name": "Wiezikon b. Sirnach",
      "postal_code": "8372",
      "country_code": "CH",
      "latitude": 47.4466,
      "longitude": 8.9872,
      "admin_name1": "Kanton Thurgau"
    },
    {
      "place_name": "Au TG",
      "postal_code": "8376",
      "country_code": "CH",
      "latitude": 47.3944,
      "longitude": 8.9512,
      "admin_name1": "Kanton Thurgau"
    },
    {
      "place_name": "Braunau",
      "postal_code": "9502",
      "country_code": "CH",
      "latitude": 47.5044,
      "longitude": 9.0689,
      "admin_name1": "Kanton Thurgau"
    },
    {
      "place_name": "Kümmertshausen",
      "postal_code": "8586",
      "country_code": "CH",
      "latitude": 47.5659,
      "longitude": 9.2466,
      "admin_name1": "Kanton Thurgau"
    },
    {
      "place_name": "Engishofen",
      "postal_code": "8586",
      "country_code": "CH",
      "latitude": 47.5572,
      "longitude": 9.2507,
      "admin_name1": "Kanton Thurgau"
    },
    {
      "place_name": "Largario",
      "postal_code": "6724",
      "country_code": "CH",
      "latitude": 46.4928,
      "longitude": 8.9383,
      "admin_name1": "Ticino"
    },
    {
      "place_name": "Personico",
      "postal_code": "6744",
      "country_code": "CH",
      "latitude": 46.3463,
      "longitude": 8.894,
      "admin_name1": "Ticino"
    },
    {
      "place_name": "Piotta",
      "postal_code": "6776",
      "country_code": "CH",
      "latitude": 46.5375,
      "longitude": 8.7113,
      "admin_name1": "Ticino"
    },
    {
      "place_name": "Gerra (Gambarogno)",
      "postal_code": "6576",
      "country_code": "CH",
      "latitude": 46.122,
      "longitude": 8.7889,
      "admin_name1": "Ticino"
    },
    {
      "place_name": "Tegna",
      "postal_code": "6652",
      "country_code": "CH",
      "latitude": 46.1908,
      "longitude": 8.7458,
      "admin_name1": "Ticino"
    },
    {
      "place_name": "Rasa",
      "postal_code": "6655",
      "country_code": "CH",
      "latitude": 46.157,
      "longitude": 8.6566,
      "admin_name1": "Ticino"
    },
    {
      "place_name": "Bissone",
      "postal_code": "6816",
      "country_code": "CH",
      "latitude": 45.951,
      "longitude": 8.9655,
      "admin_name1": "Ticino"
    },
    {
      "place_name": "Arosio",
      "postal_code": "6939",
      "country_code": "CH",
      "latitude": 46.0598,
      "longitude": 8.8935,
      "admin_name1": "Ticino"
    },
    {
      "place_name": "Sala Capriasca",
      "postal_code": "6954",
      "country_code": "CH",
      "latitude": 46.0663,
      "longitude": 8.9552,
      "admin_name1": "Ticino"
    },
    {
      "place_name": "Cagiallo",
      "postal_code": "6955",
      "country_code": "CH",
      "latitude": 46.0654,
      "longitude": 8.9752,
      "admin_name1": "Ticino"
    },
    {
      "place_name": "Ruvigliana",
      "postal_code": "6977",
      "country_code": "CH",
      "latitude": 46.0053,
      "longitude": 8.98,
      "admin_name1": "Ticino"
    },
    {
      "place_name": "Monteggio",
      "postal_code": "6998",
      "country_code": "CH",
      "latitude": 45.9961,
      "longitude": 8.8036,
      "admin_name1": "Ticino"
    },
    {
      "place_name": "Capolago",
      "postal_code": "6825",
      "country_code": "CH",
      "latitude": 45.9043,
      "longitude": 8.9845,
      "admin_name1": "Ticino"
    },
    {
      "place_name": "Seseglio",
      "postal_code": "6832",
      "country_code": "CH",
      "latitude": 45.8283,
      "longitude": 8.9998,
      "admin_name1": "Ticino"
    },
    {
      "place_name": "Genestrerio",
      "postal_code": "6852",
      "country_code": "CH",
      "latitude": 45.8501,
      "longitude": 8.9573,
      "admin_name1": "Ticino"
    },
    {
      "place_name": "Ligornetto",
      "postal_code": "6853",
      "country_code": "CH",
      "latitude": 45.8631,
      "longitude": 8.9546,
      "admin_name1": "Ticino"
    },
    {
      "place_name": "Cresciano",
      "postal_code": "6705",
      "country_code": "CH",
      "latitude": 46.3027,
      "longitude": 9.0324,
      "admin_name1": "Ticino"
    },
    {
      "place_name": "La Comballaz",
      "postal_code": "1862",
      "country_code": "CH",
      "latitude": 46.3769,
      "longitude": 7.0778,
      "admin_name1": "Canton de Vaud"
    },
    {
      "place_name": "Corcelles-le-Jorat",
      "postal_code": "1082",
      "country_code": "CH",
      "latitude": 46.6013,
      "longitude": 6.7308,
      "admin_name1": "Canton de Vaud"
    },
    {
      "place_name": "Oulens-sur-Lucens",
      "postal_code": "1522",
      "country_code": "CH",
      "latitude": 46.7076,
      "longitude": 6.8142,
      "admin_name1": "Canton de Vaud"
    },
    {
      "place_name": "Villars-Bramard",
      "postal_code": "1682",
      "country_code": "CH",
      "latitude": 46.7202,
      "longitude": 6.9046,
      "admin_name1": "Canton de Vaud"
    },
    {
      "place_name": "Bioley-Orjulaz",
      "postal_code": "1042",
      "country_code": "CH",
      "latitude": 46.6193,
      "longitude": 6.6009,
      "admin_name1": "Canton de Vaud"
    },
    {
      "place_name": "Croy",
      "postal_code": "1322",
      "country_code": "CH",
      "latitude": 46.6859,
      "longitude": 6.4859,
      "admin_name1": "Canton de Vaud"
    },
    {
      "place_name": "Champagne",
      "postal_code": "1424",
      "country_code": "CH",
      "latitude": 46.8358,
      "longitude": 6.6516,
      "admin_name1": "Canton de Vaud"
    },
    {
      "place_name": "Orges",
      "postal_code": "1430",
      "country_code": "CH",
      "latitude": 46.8122,
      "longitude": 6.5831,
      "admin_name1": "Canton de Vaud"
    },
    {
      "place_name": "Le Château-de-Ste-Croix",
      "postal_code": "1450",
      "country_code": "CH",
      "latitude": 46.8168,
      "longitude": 6.5359,
      "admin_name1": "Canton de Vaud"
    },
    {
      "place_name": "Lausanne Adm cant VD",
      "postal_code": "1014",
      "country_code": "CH",
      "latitude": 46.5218,
      "longitude": 6.633,
      "admin_name1": "Canton de Vaud"
    },
    {
      "place_name": "Savigny",
      "postal_code": "1073",
      "country_code": "CH",
      "latitude": 46.5447,
      "longitude": 6.723,
      "admin_name1": "Canton de Vaud"
    },
    {
      "place_name": "Denens",
      "postal_code": "1135",
      "country_code": "CH",
      "latitude": 46.5174,
      "longitude": 6.4526,
      "admin_name1": "Canton de Vaud"
    },
    {
      "place_name": "Allaman",
      "postal_code": "1165",
      "country_code": "CH",
      "latitude": 46.442,
      "longitude": 6.3983,
      "admin_name1": "Canton de Vaud"
    },
    {
      "place_name": "Dizy",
      "postal_code": "1304",
      "country_code": "CH",
      "latitude": 46.6344,
      "longitude": 6.4949,
      "admin_name1": "Canton de Vaud"
    },
    {
      "place_name": "Rolle",
      "postal_code": "1180",
      "country_code": "CH",
      "latitude": 46.4416,
      "longitude": 6.3406,
      "admin_name1": "Canton de Vaud"
    },
    {
      "place_name": "Nyon 2",
      "postal_code": "1260",
      "country_code": "CH",
      "latitude": 46.3863,
      "longitude": 6.2264,
      "admin_name1": "Canton de Vaud"
    },
    {
      "place_name": "Villars-Ste-Croix",
      "postal_code": "1029",
      "country_code": "CH",
      "latitude": 46.5674,
      "longitude": 6.5632,
      "admin_name1": "Canton de Vaud"
    },
    {
      "place_name": "Brent",
      "postal_code": "1817",
      "country_code": "CH",
      "latitude": 46.4547,
      "longitude": 6.9035,
      "admin_name1": "Canton de Vaud"
    },
    {
      "place_name": "Glion",
      "postal_code": "1823",
      "country_code": "CH",
      "latitude": 46.4375,
      "longitude": 6.9367,
      "admin_name1": "Canton de Vaud"
    },
    {
      "place_name": "Chamby",
      "postal_code": "1832",
      "country_code": "CH",
      "latitude": 46.4524,
      "longitude": 6.9192,
      "admin_name1": "Canton de Vaud"
    },
    {
      "place_name": "Villard-sur-Chamby",
      "postal_code": "1832",
      "country_code": "CH",
      "latitude": 46.4664,
      "longitude": 6.9311,
      "admin_name1": "Canton de Vaud"
    },
    {
      "place_name": "Némiaz (Chamoson)",
      "postal_code": "1955",
      "country_code": "CH",
      "latitude": 46.2141,
      "longitude": 7.226,
      "admin_name1": "Canton du Valais"
    },
    {
      "place_name": "Basse-Nendaz",
      "postal_code": "1996",
      "country_code": "CH",
      "latitude": 46.1929,
      "longitude": 7.3105,
      "admin_name1": "Canton du Valais"
    },
    {
      "place_name": "Condémines (Nendaz)",
      "postal_code": "1996",
      "country_code": "CH",
      "latitude": 46.1772,
      "longitude": 7.2597,
      "admin_name1": "Canton du Valais"
    },
    {
      "place_name": "Fionnay",
      "postal_code": "1948",
      "country_code": "CH",
      "latitude": 45.9742,
      "longitude": 7.3593,
      "admin_name1": "Canton du Valais"
    },
    {
      "place_name": "Lanna",
      "postal_code": "1983",
      "country_code": "CH",
      "latitude": 46.1118,
      "longitude": 7.4563,
      "admin_name1": "Canton du Valais"
    },
    {
      "place_name": "Unterems",
      "postal_code": "3948",
      "country_code": "CH",
      "latitude": 46.2887,
      "longitude": 7.6898,
      "admin_name1": "Canton du Valais"
    },
    {
      "place_name": "Agarn",
      "postal_code": "3951",
      "country_code": "CH",
      "latitude": 46.2845,
      "longitude": 7.6673,
      "admin_name1": "Canton du Valais"
    },
    {
      "place_name": "Saxon",
      "postal_code": "1907",
      "country_code": "CH",
      "latitude": 46.1362,
      "longitude": 7.1844,
      "admin_name1": "Canton du Valais"
    },
    {
      "place_name": "Blatten (Lötschen)",
      "postal_code": "3919",
      "country_code": "CH",
      "latitude": 46.4447,
      "longitude": 7.8646,
      "admin_name1": "Canton du Valais"
    },
    {
      "place_name": "Ausserberg",
      "postal_code": "3938",
      "country_code": "CH",
      "latitude": 46.3276,
      "longitude": 7.8554,
      "admin_name1": "Canton du Valais"
    },
    {
      "place_name": "Flanthey",
      "postal_code": "3978",
      "country_code": "CH",
      "latitude": 46.2704,
      "longitude": 7.4516,
      "admin_name1": "Canton du Valais"
    },
    {
      "place_name": "Bramois",
      "postal_code": "1967",
      "country_code": "CH",
      "latitude": 46.2352,
      "longitude": 7.4032,
      "admin_name1": "Canton du Valais"
    },
    {
      "place_name": "Saas-Grund",
      "postal_code": "3910",
      "country_code": "CH",
      "latitude": 46.135,
      "longitude": 7.9724,
      "admin_name1": "Canton du Valais"
    },
    {
      "place_name": "Neuägeri",
      "postal_code": "6314",
      "country_code": "CH",
      "latitude": 47.1518,
      "longitude": 8.5587,
      "admin_name1": "Kanton Zug"
    },
    {
      "place_name": "Suhr",
      "postal_code": "5034",
      "country_code": "CH",
      "latitude": 47.3749,
      "longitude": 8.084,
      "admin_name1": "Kanton Aargau"
    },
    {
      "place_name": "Rüfenach AG",
      "postal_code": "5235",
      "country_code": "CH",
      "latitude": 47.5049,
      "longitude": 8.2127,
      "admin_name1": "Kanton Aargau"
    },
    {
      "place_name": "Birrhard",
      "postal_code": "5244",
      "country_code": "CH",
      "latitude": 47.4361,
      "longitude": 8.2423,
      "admin_name1": "Kanton Aargau"
    },
    {
      "place_name": "Gontenschwil",
      "postal_code": "5728",
      "country_code": "CH",
      "latitude": 47.2676,
      "longitude": 8.1415,
      "admin_name1": "Kanton Aargau"
    },
    {
      "place_name": "Möriken AG",
      "postal_code": "5103",
      "country_code": "CH",
      "latitude": 47.4165,
      "longitude": 8.191,
      "admin_name1": "Kanton Aargau"
    },
    {
      "place_name": "Abtwil AG",
      "postal_code": "5646",
      "country_code": "CH",
      "latitude": 47.174,
      "longitude": 8.3538,
      "admin_name1": "Kanton Aargau"
    },
    {
      "place_name": "Obermumpf",
      "postal_code": "4324",
      "country_code": "CH",
      "latitude": 47.5299,
      "longitude": 7.937,
      "admin_name1": "Kanton Aargau"
    },
    {
      "place_name": "Bottenwil",
      "postal_code": "4814",
      "country_code": "CH",
      "latitude": 47.2847,
      "longitude": 8.0021,
      "admin_name1": "Kanton Aargau"
    },
    {
      "place_name": "Döttingen",
      "postal_code": "5312",
      "country_code": "CH",
      "latitude": 47.56,
      "longitude": 8.253,
      "admin_name1": "Kanton Aargau"
    },
    {
      "place_name": "Hettenschwil",
      "postal_code": "5317",
      "country_code": "CH",
      "latitude": 47.5739,
      "longitude": 8.1939,
      "admin_name1": "Kanton Aargau"
    },
    {
      "place_name": "Appenzell",
      "postal_code": "9050",
      "country_code": "CH",
      "latitude": 47.3238,
      "longitude": 9.4038,
      "admin_name1": "Kanton Appenzell Innerrhoden"
    },
    {
      "place_name": "Haslen AI",
      "postal_code": "9054",
      "country_code": "CH",
      "latitude": 47.3692,
      "longitude": 9.3788,
      "admin_name1": "Kanton Appenzell Innerrhoden"
    },
    {
      "place_name": "Speicher",
      "postal_code": "9042",
      "country_code": "CH",
      "latitude": 47.4099,
      "longitude": 9.441,
      "admin_name1": "Kanton Appenzell Ausserrhoden"
    },
    {
      "place_name": "Montagne-de-Courtelary",
      "postal_code": "2608",
      "country_code": "CH",
      "latitude": 47.1599,
      "longitude": 7.0959,
      "admin_name1": "Canton de Berne"
    },
    {
      "place_name": "Kallnach",
      "postal_code": "3283",
      "country_code": "CH",
      "latitude": 47.0166,
      "longitude": 7.2168,
      "admin_name1": "Canton de Berne"
    },
    {
      "place_name": "Farnern",
      "postal_code": "4539",
      "country_code": "CH",
      "latitude": 47.2705,
      "longitude": 7.6104,
      "admin_name1": "Canton de Berne"
    },
    {
      "place_name": "Ursenbach",
      "postal_code": "4937",
      "country_code": "CH",
      "latitude": 47.13,
      "longitude": 7.7644,
      "admin_name1": "Canton de Berne"
    },
    {
      "place_name": "Gondiswil",
      "postal_code": "4955",
      "country_code": "CH",
      "latitude": 47.1434,
      "longitude": 7.8683,
      "admin_name1": "Canton de Berne"
    },
    {
      "place_name": "Bern 60 UPD",
      "postal_code": "3000",
      "country_code": "CH",
      "latitude": 46.9476,
      "longitude": 7.4065,
      "admin_name1": "Canton de Berne"
    },
    {
      "place_name": "Rüfenacht BE",
      "postal_code": "3075",
      "country_code": "CH",
      "latitude": 46.928,
      "longitude": 7.5368,
      "admin_name1": "Canton de Berne"
    },
    {
      "place_name": "Helgisried-Rohrbach",
      "postal_code": "3155",
      "country_code": "CH",
      "latitude": 46.8109,
      "longitude": 7.4184,
      "admin_name1": "Canton de Berne"
    },
    {
      "place_name": "Ferenbalm",
      "postal_code": "3206",
      "country_code": "CH",
      "latitude": 46.9551,
      "longitude": 7.2148,
      "admin_name1": "Canton de Berne"
    },
    {
      "place_name": "Büren zum Hof",
      "postal_code": "3313",
      "country_code": "CH",
      "latitude": 47.0972,
      "longitude": 7.5116,
      "admin_name1": "Canton de Berne"
    },
    {
      "place_name": "Arni BE",
      "postal_code": "3508",
      "country_code": "CH",
      "latitude": 46.9349,
      "longitude": 7.6601,
      "admin_name1": "Canton de Berne"
    },
    {
      "place_name": "Homberg b. Thun",
      "postal_code": "3622",
      "country_code": "CH",
      "latitude": 46.7764,
      "longitude": 7.6833,
      "admin_name1": "Canton de Berne"
    },
    {
      "place_name": "Teuffenthal b. Thun",
      "postal_code": "3623",
      "country_code": "CH",
      "latitude": 46.7669,
      "longitude": 7.7192,
      "admin_name1": "Canton de Berne"
    },
    {
      "place_name": "Ringoldswil",
      "postal_code": "3656",
      "country_code": "CH",
      "latitude": 46.7375,
      "longitude": 7.6948,
      "admin_name1": "Canton de Berne"
    },
    {
      "place_name": "Boltigen",
      "postal_code": "3766",
      "country_code": "CH",
      "latitude": 46.6052,
      "longitude": 7.3582,
      "admin_name1": "Canton de Berne"
    },
    {
      "place_name": "Lauenen b. Gstaad",
      "postal_code": "3782",
      "country_code": "CH",
      "latitude": 46.3981,
      "longitude": 7.3386,
      "admin_name1": "Canton de Berne"
    },
    {
      "place_name": "Hondrich",
      "postal_code": "3702",
      "country_code": "CH",
      "latitude": 46.6718,
      "longitude": 7.6818,
      "admin_name1": "Canton de Berne"
    },
    {
      "place_name": "Scharnachtal",
      "postal_code": "3722",
      "country_code": "CH",
      "latitude": 46.6148,
      "longitude": 7.7159,
      "admin_name1": "Canton de Berne"
    },
    {
      "place_name": "Saxeten",
      "postal_code": "3813",
      "country_code": "CH",
      "latitude": 46.6251,
      "longitude": 7.8275,
      "admin_name1": "Canton de Berne"
    },
    {
      "place_name": "Brünig",
      "postal_code": "3860",
      "country_code": "CH",
      "latitude": 46.7587,
      "longitude": 8.133,
      "admin_name1": "Canton de Berne"
    },
    {
      "place_name": "Wittinsburg",
      "postal_code": "4443",
      "country_code": "CH",
      "latitude": 47.4297,
      "longitude": 7.8386,
      "admin_name1": "Kanton Basel-Landschaft"
    },
    {
      "place_name": "Basel",
      "postal_code": "4058",
      "country_code": "CH",
      "latitude": 47.566,
      "longitude": 7.6112,
      "admin_name1": "Kanton Basel-Stadt"
    },
    {
      "place_name": "Murist",
      "postal_code": "1489",
      "country_code": "CH",
      "latitude": 46.796,
      "longitude": 6.8112,
      "admin_name1": "Canton de Fribourg"
    },
    {
      "place_name": "Ecublens FR",
      "postal_code": "1673",
      "country_code": "CH",
      "latitude": 46.6153,
      "longitude": 6.807,
      "admin_name1": "Canton de Fribourg"
    },
    {
      "place_name": "Mézières FR",
      "postal_code": "1684",
      "country_code": "CH",
      "latitude": 46.679,
      "longitude": 6.9272,
      "admin_name1": "Canton de Fribourg"
    },
    {
      "place_name": "Massonnens",
      "postal_code": "1692",
      "country_code": "CH",
      "latitude": 46.6966,
      "longitude": 6.9761,
      "admin_name1": "Canton de Fribourg"
    },
    {
      "place_name": "Villarvolard",
      "postal_code": "1651",
      "country_code": "CH",
      "latitude": 46.6435,
      "longitude": 7.118,
      "admin_name1": "Canton de Fribourg"
    },
    {
      "place_name": "Pierrafortscha",
      "postal_code": "1723",
      "country_code": "CH",
      "latitude": 46.7812,
      "longitude": 7.1807,
      "admin_name1": "Canton de Fribourg"
    },
    {
      "place_name": "Ecuvillens",
      "postal_code": "1730",
      "country_code": "CH",
      "latitude": 46.7555,
      "longitude": 7.0784,
      "admin_name1": "Canton de Fribourg"
    },
    {
      "place_name": "Villars-sur-Glâne",
      "postal_code": "1752",
      "country_code": "CH",
      "latitude": 46.7943,
      "longitude": 7.1252,
      "admin_name1": "Canton de Fribourg"
    },
    {
      "place_name": "Ried b. Kerzers",
      "postal_code": "3216",
      "country_code": "CH",
      "latitude": 46.9653,
      "longitude": 7.1762,
      "admin_name1": "Canton de Fribourg"
    },
    {
      "place_name": "Remaufens",
      "postal_code": "1617",
      "country_code": "CH",
      "latitude": 46.5371,
      "longitude": 6.8826,
      "admin_name1": "Canton de Fribourg"
    },
    {
      "place_name": "Porsel",
      "postal_code": "1699",
      "country_code": "CH",
      "latitude": 46.6018,
      "longitude": 6.8706,
      "admin_name1": "Canton de Fribourg"
    },
    {
      "place_name": "Genève 20",
      "postal_code": "1211",
      "country_code": "CH",
      "latitude": 46.2058,
      "longitude": 6.1416,
      "admin_name1": "Genève"
    },
    {
      "place_name": "Vésenaz",
      "postal_code": "1222",
      "country_code": "CH",
      "latitude": 46.2454,
      "longitude": 6.2008,
      "admin_name1": "Genève"
    },
    {
      "place_name": "Les Acacias",
      "postal_code": "1227",
      "country_code": "CH",
      "latitude": 46.1926,
      "longitude": 6.1321,
      "admin_name1": "Genève"
    },
    {
      "place_name": "Glarus",
      "postal_code": "8750",
      "country_code": "CH",
      "latitude": 47.0369,
      "longitude": 9.0546,
      "admin_name1": "Kanton Glarus"
    },
    {
      "place_name": "Sool",
      "postal_code": "8762",
      "country_code": "CH",
      "latitude": 47.0125,
      "longitude": 9.1249,
      "admin_name1": "Kanton Glarus"
    },
    {
      "place_name": "Sfazù",
      "postal_code": "7742",
      "country_code": "CH",
      "latitude": 46.3989,
      "longitude": 10.1197,
      "admin_name1": "Kanton Graubünden"
    },
    {
      "place_name": "Plaun da Lej",
      "postal_code": "7517",
      "country_code": "CH",
      "latitude": 46.4271,
      "longitude": 9.7091,
      "admin_name1": "Kanton Graubünden"
    },
    {
      "place_name": "Peist",
      "postal_code": "7029",
      "country_code": "CH",
      "latitude": 46.8427,
      "longitude": 9.6882,
      "admin_name1": "Kanton Graubünden"
    },
    {
      "place_name": "Fanas",
      "postal_code": "7215",
      "country_code": "CH",
      "latitude": 47.0072,
      "longitude": 9.6875,
      "admin_name1": "Kanton Graubünden"
    },
    {
      "place_name": "Davos Clavadel",
      "postal_code": "7272",
      "country_code": "CH",
      "latitude": 46.7227,
      "longitude": 9.8447,
      "admin_name1": "Kanton Graubünden"
    },
    {
      "place_name": "Degen",
      "postal_code": "7145",
      "country_code": "CH",
      "latitude": 46.7059,
      "longitude": 9.1709,
      "admin_name1": "Kanton Graubünden"
    },
    {
      "place_name": "Falera",
      "postal_code": "7153",
      "country_code": "CH",
      "latitude": 46.813,
      "longitude": 9.22,
      "admin_name1": "Kanton Graubünden"
    },
    {
      "place_name": "Rueun",
      "postal_code": "7156",
      "country_code": "CH",
      "latitude": 46.795,
      "longitude": 9.1406,
      "admin_name1": "Kanton Graubünden"
    },
    {
      "place_name": "Waltensburg/Vuorz",
      "postal_code": "7158",
      "country_code": "CH",
      "latitude": 46.8116,
      "longitude": 9.0777,
      "admin_name1": "Kanton Graubünden"
    },
    {
      "place_name": "Trun",
      "postal_code": "7166",
      "country_code": "CH",
      "latitude": 46.7411,
      "longitude": 8.9786,
      "admin_name1": "Kanton Graubünden"
    },
    {
      "place_name": "Rabius",
      "postal_code": "7172",
      "country_code": "CH",
      "latitude": 46.7419,
      "longitude": 8.9547,
      "admin_name1": "Kanton Graubünden"
    },
    {
      "place_name": "Campsut-Cröt",
      "postal_code": "7446",
      "country_code": "CH",
      "latitude": 46.4246,
      "longitude": 9.491,
      "admin_name1": "Kanton Graubünden"
    },
    {
      "place_name": "Courroux",
      "postal_code": "2822",
      "country_code": "CH",
      "latitude": 47.3672,
      "longitude": 7.3788,
      "admin_name1": "Jura"
    },
    {
      "place_name": "Pleujouse",
      "postal_code": "2953",
      "country_code": "CH",
      "latitude": 47.4124,
      "longitude": 7.2203,
      "admin_name1": "Jura"
    },
    {
      "place_name": "Vitznau",
      "postal_code": "6354",
      "country_code": "CH",
      "latitude": 47.0162,
      "longitude": 8.4859,
      "admin_name1": "Kanton Luzern"
    },
    {
      "place_name": "Emmenbrücke 1",
      "postal_code": "6021",
      "country_code": "CH",
      "latitude": 47.0866,
      "longitude": 8.2862,
      "admin_name1": "Kanton Luzern"
    },
    {
      "place_name": "Geuensee",
      "postal_code": "6232",
      "country_code": "CH",
      "latitude": 47.2018,
      "longitude": 8.1165,
      "admin_name1": "Kanton Luzern"
    },
    {
      "place_name": "Wilihof",
      "postal_code": "6236",
      "country_code": "CH",
      "latitude": 47.2206,
      "longitude": 8.0628,
      "admin_name1": "Kanton Luzern"
    },
    {
      "place_name": "St-Aubin-Sauges",
      "postal_code": "2024",
      "country_code": "CH",
      "latitude": 46.8993,
      "longitude": 6.7648,
      "admin_name1": "Neuchâtel"
    },
    {
      "place_name": "Le Locle",
      "postal_code": "2400",
      "country_code": "CH",
      "latitude": 47.0548,
      "longitude": 6.7513,
      "admin_name1": "Neuchâtel"
    },
    {
      "place_name": "Fleurier",
      "postal_code": "2114",
      "country_code": "CH",
      "latitude": 46.8949,
      "longitude": 6.5893,
      "admin_name1": "Neuchâtel"
    },
    {
      "place_name": "Sachseln",
      "postal_code": "6072",
      "country_code": "CH",
      "latitude": 46.8319,
      "longitude": 8.2424,
      "admin_name1": "Kanton Obwalden"
    },
    {
      "place_name": "Staad SG",
      "postal_code": "9422",
      "country_code": "CH",
      "latitude": 47.492,
      "longitude": 9.5371,
      "admin_name1": "Kanton St. Gallen"
    },
    {
      "place_name": "Kriessern",
      "postal_code": "9451",
      "country_code": "CH",
      "latitude": 47.3639,
      "longitude": 9.6059,
      "admin_name1": "Kanton St. Gallen"
    },
    {
      "place_name": "Oberschan",
      "postal_code": "9479",
      "country_code": "CH",
      "latitude": 47.102,
      "longitude": 9.4579,
      "admin_name1": "Kanton St. Gallen"
    },
    {
      "place_name": "Mels",
      "postal_code": "8887",
      "country_code": "CH",
      "latitude": 47.0327,
      "longitude": 9.4166,
      "admin_name1": "Kanton St. Gallen"
    },
    {
      "place_name": "Benken SG",
      "postal_code": "8717",
      "country_code": "CH",
      "latitude": 47.1924,
      "longitude": 8.9958,
      "admin_name1": "Kanton St. Gallen"
    },
    {
      "place_name": "Gebertingen",
      "postal_code": "8725",
      "country_code": "CH",
      "latitude": 47.2556,
      "longitude": 9.0052,
      "admin_name1": "Kanton St. Gallen"
    },
    {
      "place_name": "Ricken SG",
      "postal_code": "8726",
      "country_code": "CH",
      "latitude": 47.2594,
      "longitude": 9.0491,
      "admin_name1": "Kanton St. Gallen"
    },
    {
      "place_name": "Dicken",
      "postal_code": "9115",
      "country_code": "CH",
      "latitude": 47.3366,
      "longitude": 9.1932,
      "admin_name1": "Kanton St. Gallen"
    },
    {
      "place_name": "Wil SG",
      "postal_code": "9500",
      "country_code": "CH",
      "latitude": 47.4622,
      "longitude": 9.0517,
      "admin_name1": "Kanton St. Gallen"
    },
    {
      "place_name": "Niederhelfenschwil",
      "postal_code": "9527",
      "country_code": "CH",
      "latitude": 47.4786,
      "longitude": 9.1855,
      "admin_name1": "Kanton St. Gallen"
    },
    {
      "place_name": "Schaffhausen",
      "postal_code": "8200",
      "country_code": "CH",
      "latitude": 47.7148,
      "longitude": 8.625,
      "admin_name1": "Kanton Schaffhausen"
    },
    {
      "place_name": "Brunnenthal",
      "postal_code": "3307",
      "country_code": "CH",
      "latitude": 47.0853,
      "longitude": 7.4664,
      "admin_name1": "Kanton Solothurn"
    },
    {
      "place_name": "Grenchen 1",
      "postal_code": "2540",
      "country_code": "CH",
      "latitude": 47.1972,
      "longitude": 7.3875,
      "admin_name1": "Kanton Solothurn"
    },
    {
      "place_name": "Allerheiligenberg",
      "postal_code": "4615",
      "country_code": "CH",
      "latitude": 47.3523,
      "longitude": 7.8149,
      "admin_name1": "Kanton Solothurn"
    },
    {
      "place_name": "Hurden",
      "postal_code": "8640",
      "country_code": "CH",
      "latitude": 47.2129,
      "longitude": 8.8026,
      "admin_name1": "Kanton Schwyz"
    },
    {
      "place_name": "Siebnen",
      "postal_code": "8854",
      "country_code": "CH",
      "latitude": 47.1486,
      "longitude": 8.9229,
      "admin_name1": "Kanton Schwyz"
    },
    {
      "place_name": "Muotathal",
      "postal_code": "6436",
      "country_code": "CH",
      "latitude": 46.9636,
      "longitude": 8.8079,
      "admin_name1": "Kanton Schwyz"
    },
    {
      "place_name": "Salmsach",
      "postal_code": "8599",
      "country_code": "CH",
      "latitude": 47.5544,
      "longitude": 9.3736,
      "admin_name1": "Kanton Thurgau"
    },
    {
      "place_name": "Hörhausen",
      "postal_code": "8507",
      "country_code": "CH",
      "latitude": 47.6416,
      "longitude": 8.9714,
      "admin_name1": "Kanton Thurgau"
    },
    {
      "place_name": "Herdern",
      "postal_code": "8535",
      "country_code": "CH",
      "latitude": 47.6105,
      "longitude": 8.9102,
      "admin_name1": "Kanton Thurgau"
    },
    {
      "place_name": "Kreuzlingen Ifolor AG",
      "postal_code": "8285",
      "country_code": "CH",
      "latitude": 47.6398,
      "longitude": 9.1727,
      "admin_name1": "Kanton Thurgau"
    },
    {
      "place_name": "Siegershausen",
      "postal_code": "8573",
      "country_code": "CH",
      "latitude": 47.6167,
      "longitude": 9.1689,
      "admin_name1": "Kanton Thurgau"
    },
    {
      "place_name": "Ettenhausen TG",
      "postal_code": "8356",
      "country_code": "CH",
      "latitude": 47.4743,
      "longitude": 8.8967,
      "admin_name1": "Kanton Thurgau"
    },
    {
      "place_name": "Lommis",
      "postal_code": "9506",
      "country_code": "CH",
      "latitude": 47.5148,
      "longitude": 8.9976,
      "admin_name1": "Kanton Thurgau"
    },
    {
      "place_name": "Littenheid",
      "postal_code": "9573",
      "country_code": "CH",
      "latitude": 47.4414,
      "longitude": 9.0079,
      "admin_name1": "Kanton Thurgau"
    },
    {
      "place_name": "Moleno",
      "postal_code": "6524",
      "country_code": "CH",
      "latitude": 46.2662,
      "longitude": 8.9684,
      "admin_name1": "Ticino"
    },
    {
      "place_name": "Maroggia",
      "postal_code": "6817",
      "country_code": "CH",
      "latitude": 45.9365,
      "longitude": 8.9711,
      "admin_name1": "Ticino"
    },
    {
      "place_name": "Lugano 6 Cassarate Caselle",
      "postal_code": "6906",
      "country_code": "CH",
      "latitude": 46.0055,
      "longitude": 8.9714,
      "admin_name1": "Ticino"
    },
    {
      "place_name": "Massagno Caselle",
      "postal_code": "6908",
      "country_code": "CH",
      "latitude": 46.0126,
      "longitude": 8.9437,
      "admin_name1": "Ticino"
    },
    {
      "place_name": "Grancia",
      "postal_code": "6916",
      "country_code": "CH",
      "latitude": 45.9684,
      "longitude": 8.9276,
      "admin_name1": "Ticino"
    },
    {
      "place_name": "Montagnola",
      "postal_code": "6926",
      "country_code": "CH",
      "latitude": 45.9794,
      "longitude": 8.9143,
      "admin_name1": "Ticino"
    },
    {
      "place_name": "Agno",
      "postal_code": "6982",
      "country_code": "CH",
      "latitude": 46.0005,
      "longitude": 8.9028,
      "admin_name1": "Ticino"
    },
    {
      "place_name": "Ponte Tresa",
      "postal_code": "6988",
      "country_code": "CH",
      "latitude": 45.9707,
      "longitude": 8.8593,
      "admin_name1": "Ticino"
    },
    {
      "place_name": "Hospental",
      "postal_code": "6493",
      "country_code": "CH",
      "latitude": 46.6066,
      "longitude": 8.5617,
      "admin_name1": "Kanton Uri"
    },
    {
      "place_name": "Brenles",
      "postal_code": "1683",
      "country_code": "CH",
      "latitude": 46.6678,
      "longitude": 6.8562,
      "admin_name1": "Canton de Vaud"
    },
    {
      "place_name": "Ogens",
      "postal_code": "1045",
      "country_code": "CH",
      "latitude": 46.7093,
      "longitude": 6.7236,
      "admin_name1": "Canton de Vaud"
    },
    {
      "place_name": "Ballaigues",
      "postal_code": "1338",
      "country_code": "CH",
      "latitude": 46.7349,
      "longitude": 6.4104,
      "admin_name1": "Canton de Vaud"
    },
    {
      "place_name": "Treycovagnes",
      "postal_code": "1436",
      "country_code": "CH",
      "latitude": 46.7695,
      "longitude": 6.6067,
      "admin_name1": "Canton de Vaud"
    },
    {
      "place_name": "Lausanne 26",
      "postal_code": "1000",
      "country_code": "CH",
      "latitude": 46.5557,
      "longitude": 6.6962,
      "admin_name1": "Canton de Vaud"
    },
    {
      "place_name": "Lausanne",
      "postal_code": "1001",
      "country_code": "CH",
      "latitude": 46.516,
      "longitude": 6.6328,
      "admin_name1": "Canton de Vaud"
    },
    {
      "place_name": "Mézières VD",
      "postal_code": "1083",
      "country_code": "CH",
      "latitude": 46.5871,
      "longitude": 6.7656,
      "admin_name1": "Canton de Vaud"
    },
    {
      "place_name": "Mont-la-Ville",
      "postal_code": "1148",
      "country_code": "CH",
      "latitude": 46.6532,
      "longitude": 6.3876,
      "admin_name1": "Canton de Vaud"
    },
    {
      "place_name": "St-Prex",
      "postal_code": "1162",
      "country_code": "CH",
      "latitude": 46.4683,
      "longitude": 6.4693,
      "admin_name1": "Canton de Vaud"
    },
    {
      "place_name": "La Cure",
      "postal_code": "1265",
      "country_code": "CH",
      "latitude": 46.4611,
      "longitude": 6.0935,
      "admin_name1": "Canton de Vaud"
    },
    {
      "place_name": "Begnins",
      "postal_code": "1268",
      "country_code": "CH",
      "latitude": 46.4468,
      "longitude": 6.2533,
      "admin_name1": "Canton de Vaud"
    },
    {
      "place_name": "Burtigny",
      "postal_code": "1268",
      "country_code": "CH",
      "latitude": 46.4695,
      "longitude": 6.2675,
      "admin_name1": "Canton de Vaud"
    },
    {
      "place_name": "Signy-Centre",
      "postal_code": "1274",
      "country_code": "CH",
      "latitude": 46.3926,
      "longitude": 6.2042,
      "admin_name1": "Canton de Vaud"
    },
    {
      "place_name": "Bogis-Bossey",
      "postal_code": "1279",
      "country_code": "CH",
      "latitude": 46.3538,
      "longitude": 6.1716,
      "admin_name1": "Canton de Vaud"
    },
    {
      "place_name": "Founex",
      "postal_code": "1297",
      "country_code": "CH",
      "latitude": 46.3331,
      "longitude": 6.1976,
      "admin_name1": "Canton de Vaud"
    },
    {
      "place_name": "Crans VD",
      "postal_code": "1299",
      "country_code": "CH",
      "latitude": 46.36,
      "longitude": 6.2196,
      "admin_name1": "Canton de Vaud"
    },
    {
      "place_name": "Birgisch",
      "postal_code": "3903",
      "country_code": "CH",
      "latitude": 46.3306,
      "longitude": 7.9617,
      "admin_name1": "Canton du Valais"
    },
    {
      "place_name": "Eggerberg",
      "postal_code": "3939",
      "country_code": "CH",
      "latitude": 46.3159,
      "longitude": 7.8888,
      "admin_name1": "Canton du Valais"
    },
    {
      "place_name": "Siviez (Nendaz)",
      "postal_code": "1997",
      "country_code": "CH",
      "latitude": 46.1148,
      "longitude": 7.3268,
      "admin_name1": "Canton du Valais"
    },
    {
      "place_name": "Le Châble VS",
      "postal_code": "1934",
      "country_code": "CH",
      "latitude": 46.082,
      "longitude": 7.209,
      "admin_name1": "Canton du Valais"
    },
    {
      "place_name": "Reckingen VS",
      "postal_code": "3998",
      "country_code": "CH",
      "latitude": 46.4536,
      "longitude": 8.2619,
      "admin_name1": "Canton du Valais"
    },
    {
      "place_name": "Villa (Ayent)",
      "postal_code": "1966",
      "country_code": "CH",
      "latitude": 46.2759,
      "longitude": 7.4167,
      "admin_name1": "Canton du Valais"
    },
    {
      "place_name": "La Place (Ayent)",
      "postal_code": "1966",
      "country_code": "CH",
      "latitude": 46.2737,
      "longitude": 7.4114,
      "admin_name1": "Canton du Valais"
    },
    {
      "place_name": "Dugny (Leytron)",
      "postal_code": "1912",
      "country_code": "CH",
      "latitude": 46.191,
      "longitude": 7.1806,
      "admin_name1": "Canton du Valais"
    },
    {
      "place_name": "Les Evouettes",
      "postal_code": "1897",
      "country_code": "CH",
      "latitude": 46.3615,
      "longitude": 6.8597,
      "admin_name1": "Canton du Valais"
    },
    {
      "place_name": "Vérossaz",
      "postal_code": "1891",
      "country_code": "CH",
      "latitude": 46.2011,
      "longitude": 6.9685,
      "admin_name1": "Canton du Valais"
    },
    {
      "place_name": "St-Jean VS",
      "postal_code": "3961",
      "country_code": "CH",
      "latitude": 46.2044,
      "longitude": 7.5573,
      "admin_name1": "Canton du Valais"
    },
    {
      "place_name": "Sion 4",
      "postal_code": "1950",
      "country_code": "CH",
      "latitude": 46.2304,
      "longitude": 7.3661,
      "admin_name1": "Canton du Valais"
    },
    {
      "place_name": "St-Germain (Savièse)",
      "postal_code": "1965",
      "country_code": "CH",
      "latitude": 46.2496,
      "longitude": 7.3526,
      "admin_name1": "Canton du Valais"
    },
    {
      "place_name": "Flaach",
      "postal_code": "8416",
      "country_code": "CH",
      "latitude": 47.5847,
      "longitude": 8.6052,
      "admin_name1": "Kanton Zürich"
    },
    {
      "place_name": "Boppelsen",
      "postal_code": "8113",
      "country_code": "CH",
      "latitude": 47.4718,
      "longitude": 8.4069,
      "admin_name1": "Kanton Zürich"
    },
    {
      "place_name": "Niederhasli",
      "postal_code": "8155",
      "country_code": "CH",
      "latitude": 47.478,
      "longitude": 8.4844,
      "admin_name1": "Kanton Zürich"
    },
    {
      "place_name": "Niederglatt ZH",
      "postal_code": "8172",
      "country_code": "CH",
      "latitude": 47.4932,
      "longitude": 8.5004,
      "admin_name1": "Kanton Zürich"
    },
    {
      "place_name": "Schalchen",
      "postal_code": "8489",
      "country_code": "CH",
      "latitude": 47.4052,
      "longitude": 8.8331,
      "admin_name1": "Kanton Zürich"
    },
    {
      "place_name": "Greifensee",
      "postal_code": "8606",
      "country_code": "CH",
      "latitude": 47.3635,
      "longitude": 8.6777,
      "admin_name1": "Kanton Zürich"
    },
    {
      "place_name": "Aesch (Neftenbach)",
      "postal_code": "8412",
      "country_code": "CH",
      "latitude": 47.5441,
      "longitude": 8.6794,
      "admin_name1": "Kanton Zürich"
    },
    {
      "place_name": "Dägerlen",
      "postal_code": "8471",
      "country_code": "CH",
      "latitude": 47.5616,
      "longitude": 8.7177,
      "admin_name1": "Kanton Zürich"
    },
    {
      "place_name": "Rickenbach ZH",
      "postal_code": "8545",
      "country_code": "CH",
      "latitude": 47.5548,
      "longitude": 8.7957,
      "admin_name1": "Kanton Zürich"
    },
    {
      "place_name": "Dietikon 2",
      "postal_code": "8953",
      "country_code": "CH",
      "latitude": 47.402,
      "longitude": 8.3982,
      "admin_name1": "Kanton Zürich"
    },
    {
      "place_name": "Zürich",
      "postal_code": "8008",
      "country_code": "CH",
      "latitude": 47.3538,
      "longitude": 8.5587,
      "admin_name1": "Kanton Zürich"
    },
    {
      "place_name": "Zürich Helsana",
      "postal_code": "8081",
      "country_code": "CH",
      "latitude": 47.3828,
      "longitude": 8.5307,
      "admin_name1": "Kanton Zürich"
    },
    {
      "place_name": "Aarau 1",
      "postal_code": "5001",
      "country_code": "CH",
      "latitude": 47.3888,
      "longitude": 8.0483,
      "admin_name1": "Kanton Aargau"
    },
    {
      "place_name": "Asp",
      "postal_code": "5025",
      "country_code": "CH",
      "latitude": 47.4421,
      "longitude": 8.0506,
      "admin_name1": "Kanton Aargau"
    },
    {
      "place_name": "Turgi",
      "postal_code": "5300",
      "country_code": "CH",
      "latitude": 47.4901,
      "longitude": 8.2561,
      "admin_name1": "Kanton Aargau"
    },
    {
      "place_name": "Künten",
      "postal_code": "5444",
      "country_code": "CH",
      "latitude": 47.386,
      "longitude": 8.3254,
      "admin_name1": "Kanton Aargau"
    },
    {
      "place_name": "Wohlenschwil",
      "postal_code": "5512",
      "country_code": "CH",
      "latitude": 47.4167,
      "longitude": 8.2543,
      "admin_name1": "Kanton Aargau"
    },
    {
      "place_name": "Dottikon",
      "postal_code": "5605",
      "country_code": "CH",
      "latitude": 47.3779,
      "longitude": 8.2415,
      "admin_name1": "Kanton Aargau"
    },
    {
      "place_name": "Gansingen",
      "postal_code": "5272",
      "country_code": "CH",
      "latitude": 47.5372,
      "longitude": 8.1317,
      "admin_name1": "Kanton Aargau"
    },
    {
      "place_name": "Ammerswil AG",
      "postal_code": "5600",
      "country_code": "CH",
      "latitude": 47.3682,
      "longitude": 8.2057,
      "admin_name1": "Kanton Aargau"
    },
    {
      "place_name": "Schupfart",
      "postal_code": "4325",
      "country_code": "CH",
      "latitude": 47.5134,
      "longitude": 7.9625,
      "admin_name1": "Kanton Aargau"
    },
    {
      "place_name": "Böttstein",
      "postal_code": "5315",
      "country_code": "CH",
      "latitude": 47.5529,
      "longitude": 8.2181,
      "admin_name1": "Kanton Aargau"
    },
    {
      "place_name": "Bad Zurzach",
      "postal_code": "5330",
      "country_code": "CH",
      "latitude": 47.5859,
      "longitude": 8.292,
      "admin_name1": "Kanton Aargau"
    },
    {
      "place_name": "Herisau",
      "postal_code": "9100",
      "country_code": "CH",
      "latitude": 47.3833,
      "longitude": 9.2813,
      "admin_name1": "Kanton Appenzell Ausserrhoden"
    },
    {
      "place_name": "Le Cerneux-Veusil",
      "postal_code": "2345",
      "country_code": "CH",
      "latitude": 47.1791,
      "longitude": 6.967,
      "admin_name1": "Canton de Berne"
    },
    {
      "place_name": "Les Prés-d'Orvin",
      "postal_code": "2534",
      "country_code": "CH",
      "latitude": 47.1555,
      "longitude": 7.1664,
      "admin_name1": "Canton de Berne"
    },
    {
      "place_name": "Malleray-Bévilard",
      "postal_code": "2735",
      "country_code": "CH",
      "latitude": 47.2391,
      "longitude": 7.2714,
      "admin_name1": "Canton de Berne"
    },
    {
      "place_name": "Sutz",
      "postal_code": "2572",
      "country_code": "CH",
      "latitude": 47.0992,
      "longitude": 7.2188,
      "admin_name1": "Canton de Berne"
    },
    {
      "place_name": "Studen BE",
      "postal_code": "2557",
      "country_code": "CH",
      "latitude": 47.1126,
      "longitude": 7.3029,
      "admin_name1": "Canton de Berne"
    },
    {
      "place_name": "Müntschemier",
      "postal_code": "3225",
      "country_code": "CH",
      "latitude": 46.9949,
      "longitude": 7.1464,
      "admin_name1": "Canton de Berne"
    },
    {
      "place_name": "Merzligen",
      "postal_code": "3274",
      "country_code": "CH",
      "latitude": 47.0873,
      "longitude": 7.2537,
      "admin_name1": "Canton de Berne"
    },
    {
      "place_name": "Oberönz",
      "postal_code": "3363",
      "country_code": "CH",
      "latitude": 47.1739,
      "longitude": 7.6887,
      "admin_name1": "Canton de Berne"
    },
    {
      "place_name": "Wiedlisbach",
      "postal_code": "4537",
      "country_code": "CH",
      "latitude": 47.2459,
      "longitude": 7.6517,
      "admin_name1": "Canton de Berne"
    },
    {
      "place_name": "Lyssach",
      "postal_code": "3421",
      "country_code": "CH",
      "latitude": 47.0633,
      "longitude": 7.5812,
      "admin_name1": "Canton de Berne"
    },
    {
      "place_name": "Bärau",
      "postal_code": "3552",
      "country_code": "CH",
      "latitude": 46.94,
      "longitude": 7.8265,
      "admin_name1": "Canton de Berne"
    },
    {
      "place_name": "Bern PostFinance",
      "postal_code": "3002",
      "country_code": "CH",
      "latitude": 46.9476,
      "longitude": 7.4065,
      "admin_name1": "Canton de Berne"
    },
    {
      "place_name": "Rüschegg Gambach",
      "postal_code": "3153",
      "country_code": "CH",
      "latitude": 46.7726,
      "longitude": 7.3774,
      "admin_name1": "Canton de Berne"
    },
    {
      "place_name": "Schalunen",
      "postal_code": "3314",
      "country_code": "CH",
      "latitude": 47.1102,
      "longitude": 7.5257,
      "admin_name1": "Canton de Berne"
    },
    {
      "place_name": "Mattstetten",
      "postal_code": "3322",
      "country_code": "CH",
      "latitude": 47.0232,
      "longitude": 7.5205,
      "admin_name1": "Canton de Berne"
    },
    {
      "place_name": "Unterlangenegg",
      "postal_code": "3614",
      "country_code": "CH",
      "latitude": 46.7989,
      "longitude": 7.6936,
      "admin_name1": "Canton de Berne"
    },
    {
      "place_name": "Wimmis",
      "postal_code": "3752",
      "country_code": "CH",
      "latitude": 46.6616,
      "longitude": 7.6412,
      "admin_name1": "Canton de Berne"
    },
    {
      "place_name": "Därstetten",
      "postal_code": "3763",
      "country_code": "CH",
      "latitude": 46.6804,
      "longitude": 7.5051,
      "admin_name1": "Canton de Berne"
    },
    {
      "place_name": "Interlaken",
      "postal_code": "3800",
      "country_code": "CH",
      "latitude": 46.6867,
      "longitude": 7.866,
      "admin_name1": "Canton de Berne"
    },
    {
      "place_name": "Oberried am Brienzersee",
      "postal_code": "3854",
      "country_code": "CH",
      "latitude": 46.7563,
      "longitude": 7.9571,
      "admin_name1": "Canton de Berne"
    },
    {
      "place_name": "Bruderholz",
      "postal_code": "4101",
      "country_code": "CH",
      "latitude": 47.528,
      "longitude": 7.5812,
      "admin_name1": "Kanton Basel-Landschaft"
    },
    {
      "place_name": "Muttenz",
      "postal_code": "4132",
      "country_code": "CH",
      "latitude": 47.5234,
      "longitude": 7.6481,
      "admin_name1": "Kanton Basel-Landschaft"
    },
    {
      "place_name": "Itingen",
      "postal_code": "4452",
      "country_code": "CH",
      "latitude": 47.4647,
      "longitude": 7.7847,
      "admin_name1": "Kanton Basel-Landschaft"
    },
    {
      "place_name": "Rickenbach BL",
      "postal_code": "4462",
      "country_code": "CH",
      "latitude": 47.4847,
      "longitude": 7.8492,
      "admin_name1": "Kanton Basel-Landschaft"
    },
    {
      "place_name": "Maisprach",
      "postal_code": "4464",
      "country_code": "CH",
      "latitude": 47.5223,
      "longitude": 7.8458,
      "admin_name1": "Kanton Basel-Landschaft"
    },
    {
      "place_name": "Titterten",
      "postal_code": "4425",
      "country_code": "CH",
      "latitude": 47.402,
      "longitude": 7.7148,
      "admin_name1": "Kanton Basel-Landschaft"
    },
    {
      "place_name": "Basel SPI GLS",
      "postal_code": "4089",
      "country_code": "CH",
      "latitude": 47.5577,
      "longitude": 7.5936,
      "admin_name1": "Kanton Basel-Stadt"
    },
    {
      "place_name": "Lully FR",
      "postal_code": "1470",
      "country_code": "CH",
      "latitude": 46.8317,
      "longitude": 6.85,
      "admin_name1": "Canton de Fribourg"
    },
    {
      "place_name": "Lussy FR",
      "postal_code": "1690",
      "country_code": "CH",
      "latitude": 46.7179,
      "longitude": 6.9385,
      "admin_name1": "Canton de Fribourg"
    },
    {
      "place_name": "Villarimboud",
      "postal_code": "1691",
      "country_code": "CH",
      "latitude": 46.7409,
      "longitude": 6.9661,
      "admin_name1": "Canton de Fribourg"
    },
    {
      "place_name": "Montbovon",
      "postal_code": "1669",
      "country_code": "CH",
      "latitude": 46.4723,
      "longitude": 7.012,
      "admin_name1": "Canton de Fribourg"
    },
    {
      "place_name": "Ferpicloz",
      "postal_code": "1724",
      "country_code": "CH",
      "latitude": 46.7475,
      "longitude": 7.1637,
      "admin_name1": "Canton de Fribourg"
    },
    {
      "place_name": "Cormérod",
      "postal_code": "1721",
      "country_code": "CH",
      "latitude": 46.8667,
      "longitude": 7.0857,
      "admin_name1": "Canton de Fribourg"
    },
    {
      "place_name": "Genève",
      "postal_code": "1205",
      "country_code": "CH",
      "latitude": 46.1961,
      "longitude": 6.1403,
      "admin_name1": "Genève"
    },
    {
      "place_name": "Genève 26",
      "postal_code": "1211",
      "country_code": "CH",
      "latitude": 46.1897,
      "longitude": 6.1158,
      "admin_name1": "Genève"
    },
    {
      "place_name": "Cologny",
      "postal_code": "1223",
      "country_code": "CH",
      "latitude": 46.2228,
      "longitude": 6.1808,
      "admin_name1": "Genève"
    },
    {
      "place_name": "Vessy",
      "postal_code": "1234",
      "country_code": "CH",
      "latitude": 46.1742,
      "longitude": 6.159,
      "admin_name1": "Genève"
    },
    {
      "place_name": "Netstal",
      "postal_code": "8754",
      "country_code": "CH",
      "latitude": 47.0638,
      "longitude": 9.0417,
      "admin_name1": "Kanton Glarus"
    },
    {
      "place_name": "Says",
      "postal_code": "7202",
      "country_code": "CH",
      "latitude": 46.9013,
      "longitude": 9.597,
      "admin_name1": "Kanton Graubünden"
    },
    {
      "place_name": "Samedan",
      "postal_code": "7503",
      "country_code": "CH",
      "latitude": 46.5332,
      "longitude": 9.8492,
      "admin_name1": "Kanton Graubünden"
    },
    {
      "place_name": "Laura",
      "postal_code": "6549",
      "country_code": "CH",
      "latitude": 46.2108,
      "longitude": 9.1047,
      "admin_name1": "Kanton Graubünden"
    },
    {
      "place_name": "Mesocco",
      "postal_code": "6563",
      "country_code": "CH",
      "latitude": 46.4025,
      "longitude": 9.226,
      "admin_name1": "Kanton Graubünden"
    },
    {
      "place_name": "Chur",
      "postal_code": "7006",
      "country_code": "CH",
      "latitude": 46.8499,
      "longitude": 9.5329,
      "admin_name1": "Kanton Graubünden"
    },
    {
      "place_name": "Lunden",
      "postal_code": "7222",
      "country_code": "CH",
      "latitude": 46.9517,
      "longitude": 9.7116,
      "admin_name1": "Kanton Graubünden"
    },
    {
      "place_name": "Luven",
      "postal_code": "7141",
      "country_code": "CH",
      "latitude": 46.7548,
      "longitude": 9.1906,
      "admin_name1": "Kanton Graubünden"
    },
    {
      "place_name": "Disentis/Mustér",
      "postal_code": "7180",
      "country_code": "CH",
      "latitude": 46.7456,
      "longitude": 8.8481,
      "admin_name1": "Kanton Graubünden"
    },
    {
      "place_name": "Curaglia",
      "postal_code": "7184",
      "country_code": "CH",
      "latitude": 46.6525,
      "longitude": 8.8851,
      "admin_name1": "Kanton Graubünden"
    },
    {
      "place_name": "Masein",
      "postal_code": "7425",
      "country_code": "CH",
      "latitude": 46.6954,
      "longitude": 9.4226,
      "admin_name1": "Kanton Graubünden"
    },
    {
      "place_name": "Ederswiler",
      "postal_code": "2813",
      "country_code": "CH",
      "latitude": 47.4264,
      "longitude": 7.324,
      "admin_name1": "Jura"
    },
    {
      "place_name": "Rebeuvelier",
      "postal_code": "2832",
      "country_code": "CH",
      "latitude": 47.3209,
      "longitude": 7.4189,
      "admin_name1": "Jura"
    },
    {
      "place_name": "Saulcy",
      "postal_code": "2873",
      "country_code": "CH",
      "latitude": 47.3031,
      "longitude": 7.1606,
      "admin_name1": "Jura"
    },
    {
      "place_name": "Goumois",
      "postal_code": "2354",
      "country_code": "CH",
      "latitude": 47.2674,
      "longitude": 6.9594,
      "admin_name1": "Jura"
    },
    {
      "place_name": "Grandfontaine",
      "postal_code": "2908",
      "country_code": "CH",
      "latitude": 47.3919,
      "longitude": 6.9336,
      "admin_name1": "Jura"
    },
    {
      "place_name": "Bonfol",
      "postal_code": "2944",
      "country_code": "CH",
      "latitude": 47.4759,
      "longitude": 7.1568,
      "admin_name1": "Jura"
    },
    {
      "place_name": "Udligenswil",
      "postal_code": "6044",
      "country_code": "CH",
      "latitude": 47.0928,
      "longitude": 8.3998,
      "admin_name1": "Kanton Luzern"
    },
    {
      "place_name": "Sulz LU",
      "postal_code": "6284",
      "country_code": "CH",
      "latitude": 47.2228,
      "longitude": 8.2942,
      "admin_name1": "Kanton Luzern"
    },
    {
      "place_name": "Schötz",
      "postal_code": "6247",
      "country_code": "CH",
      "latitude": 47.1682,
      "longitude": 7.987,
      "admin_name1": "Kanton Luzern"
    },
    {
      "place_name": "Wiesenberg",
      "postal_code": "6383",
      "country_code": "CH",
      "latitude": 46.915,
      "longitude": 8.3551,
      "admin_name1": "Kanton Nidwalden"
    },
    {
      "place_name": "Weite",
      "postal_code": "9476",
      "country_code": "CH",
      "latitude": 47.0986,
      "longitude": 9.5026,
      "admin_name1": "Kanton St. Gallen"
    },
    {
      "place_name": "Walenstadt",
      "postal_code": "8880",
      "country_code": "CH",
      "latitude": 47.1224,
      "longitude": 9.3107,
      "admin_name1": "Kanton St. Gallen"
    },
    {
      "place_name": "Bichwil",
      "postal_code": "9248",
      "country_code": "CH",
      "latitude": 47.4157,
      "longitude": 9.1376,
      "admin_name1": "Kanton St. Gallen"
    },
    {
      "place_name": "Laupersdorf",
      "postal_code": "4712",
      "country_code": "CH",
      "latitude": 47.3128,
      "longitude": 7.6569,
      "admin_name1": "Kanton Solothurn"
    },
    {
      "place_name": "Bättwil-Flüh",
      "postal_code": "4112",
      "country_code": "CH",
      "latitude": 47.4916,
      "longitude": 7.51,
      "admin_name1": "Kanton Solothurn"
    },
    {
      "place_name": "Büren SO",
      "postal_code": "4413",
      "country_code": "CH",
      "latitude": 47.4478,
      "longitude": 7.6733,
      "admin_name1": "Kanton Solothurn"
    },
    {
      "place_name": "Wangen b. Olten",
      "postal_code": "4612",
      "country_code": "CH",
      "latitude": 47.3421,
      "longitude": 7.8717,
      "admin_name1": "Kanton Solothurn"
    },
    {
      "place_name": "Hägendorf",
      "postal_code": "4614",
      "country_code": "CH",
      "latitude": 47.3446,
      "longitude": 7.8264,
      "admin_name1": "Kanton Solothurn"
    },
    {
      "place_name": "Lachen SZ",
      "postal_code": "8853",
      "country_code": "CH",
      "latitude": 47.197,
      "longitude": 8.8542,
      "admin_name1": "Kanton Schwyz"
    },
    {
      "place_name": "Alpthal",
      "postal_code": "8849",
      "country_code": "CH",
      "latitude": 47.0578,
      "longitude": 8.7145,
      "admin_name1": "Kanton Schwyz"
    },
    {
      "place_name": "Mammern",
      "postal_code": "8265",
      "country_code": "CH",
      "latitude": 47.6467,
      "longitude": 8.9214,
      "admin_name1": "Kanton Thurgau"
    },
    {
      "place_name": "Homburg",
      "postal_code": "8508",
      "country_code": "CH",
      "latitude": 47.6292,
      "longitude": 8.9995,
      "admin_name1": "Kanton Thurgau"
    },
    {
      "place_name": "Lustdorf",
      "postal_code": "8512",
      "country_code": "CH",
      "latitude": 47.5548,
      "longitude": 8.9882,
      "admin_name1": "Kanton Thurgau"
    },
    {
      "place_name": "Weiningen TG",
      "postal_code": "8532",
      "country_code": "CH",
      "latitude": 47.5905,
      "longitude": 8.8983,
      "admin_name1": "Kanton Thurgau"
    },
    {
      "place_name": "Matzingen",
      "postal_code": "9548",
      "country_code": "CH",
      "latitude": 47.5253,
      "longitude": 8.9285,
      "admin_name1": "Kanton Thurgau"
    },
    {
      "place_name": "Ermatingen",
      "postal_code": "8272",
      "country_code": "CH",
      "latitude": 47.6604,
      "longitude": 9.0861,
      "admin_name1": "Kanton Thurgau"
    },
    {
      "place_name": "Kreuzlingen Ifolor",
      "postal_code": "8285",
      "country_code": "CH",
      "latitude": 47.6398,
      "longitude": 9.1727,
      "admin_name1": "Kanton Thurgau"
    },
    {
      "place_name": "Oberhofen TG",
      "postal_code": "8574",
      "country_code": "CH",
      "latitude": 47.6125,
      "longitude": 9.1914,
      "admin_name1": "Kanton Thurgau"
    },
    {
      "place_name": "Klarsreuti",
      "postal_code": "8585",
      "country_code": "CH",
      "latitude": 47.5882,
      "longitude": 9.2141,
      "admin_name1": "Kanton Thurgau"
    },
    {
      "place_name": "Acquarossa",
      "postal_code": "6716",
      "country_code": "CH",
      "latitude": 46.4569,
      "longitude": 8.9378,
      "admin_name1": "Ticino"
    },
    {
      "place_name": "Varenzo",
      "postal_code": "6777",
      "country_code": "CH",
      "latitude": 46.5031,
      "longitude": 8.7251,
      "admin_name1": "Ticino"
    },
    {
      "place_name": "Bedretto",
      "postal_code": "6781",
      "country_code": "CH",
      "latitude": 46.489,
      "longitude": 8.478,
      "admin_name1": "Ticino"
    },
    {
      "place_name": "S. Nazzaro",
      "postal_code": "6575",
      "country_code": "CH",
      "latitude": 46.1364,
      "longitude": 8.8026,
      "admin_name1": "Ticino"
    },
    {
      "place_name": "Verscio",
      "postal_code": "6653",
      "country_code": "CH",
      "latitude": 46.1931,
      "longitude": 8.728,
      "admin_name1": "Ticino"
    },
    {
      "place_name": "Barbengo",
      "postal_code": "6917",
      "country_code": "CH",
      "latitude": 45.9604,
      "longitude": 8.916,
      "admin_name1": "Ticino"
    },
    {
      "place_name": "Gravesano",
      "postal_code": "6929",
      "country_code": "CH",
      "latitude": 46.0421,
      "longitude": 8.9187,
      "admin_name1": "Ticino"
    },
    {
      "place_name": "Scareglia",
      "postal_code": "6951",
      "country_code": "CH",
      "latitude": 46.0975,
      "longitude": 9.036,
      "admin_name1": "Ticino"
    },
    {
      "place_name": "Odogno",
      "postal_code": "6960",
      "country_code": "CH",
      "latitude": 46.1026,
      "longitude": 8.9923,
      "admin_name1": "Ticino"
    },
    {
      "place_name": "Aldesago",
      "postal_code": "6974",
      "country_code": "CH",
      "latitude": 46.0094,
      "longitude": 8.9798,
      "admin_name1": "Ticino"
    },
    {
      "place_name": "Brè sopra Lugano",
      "postal_code": "6979",
      "country_code": "CH",
      "latitude": 46.0174,
      "longitude": 8.9989,
      "admin_name1": "Ticino"
    },
    {
      "place_name": "Giumaglio",
      "postal_code": "6678",
      "country_code": "CH",
      "latitude": 46.2958,
      "longitude": 8.6819,
      "admin_name1": "Ticino"
    },
    {
      "place_name": "Niva (Vallemaggia)",
      "postal_code": "6683",
      "country_code": "CH",
      "latitude": 46.2763,
      "longitude": 8.542,
      "admin_name1": "Ticino"
    },
    {
      "place_name": "Urnerboden",
      "postal_code": "8751",
      "country_code": "CH",
      "latitude": 46.8796,
      "longitude": 8.9019,
      "admin_name1": "Kanton Uri"
    },
    {
      "place_name": "Corbeyrier",
      "postal_code": "1856",
      "country_code": "CH",
      "latitude": 46.3736,
      "longitude": 6.9855,
      "admin_name1": "Canton de Vaud"
    },
    {
      "place_name": "Le Sépey",
      "postal_code": "1863",
      "country_code": "CH",
      "latitude": 46.3731,
      "longitude": 7.0478,
      "admin_name1": "Canton de Vaud"
    },
    {
      "place_name": "Bex",
      "postal_code": "1880",
      "country_code": "CH",
      "latitude": 46.2479,
      "longitude": 7.0182,
      "admin_name1": "Canton de Vaud"
    },
    {
      "place_name": "Villars-sur-Ollon",
      "postal_code": "1884",
      "country_code": "CH",
      "latitude": 46.3161,
      "longitude": 7.0871,
      "admin_name1": "Canton de Vaud"
    },
    {
      "place_name": "Sédeilles",
      "postal_code": "1554",
      "country_code": "CH",
      "latitude": 46.7428,
      "longitude": 6.9302,
      "admin_name1": "Canton de Vaud"
    },
    {
      "place_name": "Cudrefin",
      "postal_code": "1588",
      "country_code": "CH",
      "latitude": 46.9597,
      "longitude": 7.0127,
      "admin_name1": "Canton de Vaud"
    },
    {
      "place_name": "Chesalles-sur-Moudon",
      "postal_code": "1683",
      "country_code": "CH",
      "latitude": 46.6747,
      "longitude": 6.8366,
      "admin_name1": "Canton de Vaud"
    },
    {
      "place_name": "Froideville",
      "postal_code": "1055",
      "country_code": "CH",
      "latitude": 46.5982,
      "longitude": 6.6917,
      "admin_name1": "Canton de Vaud"
    },
    {
      "place_name": "Le Séchey",
      "postal_code": "1345",
      "country_code": "CH",
      "latitude": 46.656,
      "longitude": 6.2997,
      "admin_name1": "Canton de Vaud"
    },
    {
      "place_name": "Valeyres-sous-Rances",
      "postal_code": "1358",
      "country_code": "CH",
      "latitude": 46.7482,
      "longitude": 6.5354,
      "admin_name1": "Canton de Vaud"
    },
    {
      "place_name": "Villars-Epeney",
      "postal_code": "1404",
      "country_code": "CH",
      "latitude": 46.7832,
      "longitude": 6.6991,
      "admin_name1": "Canton de Vaud"
    },
    {
      "place_name": "Bonvillars",
      "postal_code": "1427",
      "country_code": "CH",
      "latitude": 46.8376,
      "longitude": 6.6746,
      "admin_name1": "Canton de Vaud"
    },
    {
      "place_name": "Montricher",
      "postal_code": "1147",
      "country_code": "CH",
      "latitude": 46.6033,
      "longitude": 6.3588,
      "admin_name1": "Canton de Vaud"
    },
    {
      "place_name": "Etoy",
      "postal_code": "1163",
      "country_code": "CH",
      "latitude": 46.4841,
      "longitude": 6.4217,
      "admin_name1": "Canton de Vaud"
    },
    {
      "place_name": "Orny",
      "postal_code": "1317",
      "country_code": "CH",
      "latitude": 46.6707,
      "longitude": 6.5366,
      "admin_name1": "Canton de Vaud"
    },
    {
      "place_name": "Vinzel",
      "postal_code": "1184",
      "country_code": "CH",
      "latitude": 46.4481,
      "longitude": 6.279,
      "admin_name1": "Canton de Vaud"
    },
    {
      "place_name": "Arnex-sur-Nyon",
      "postal_code": "1277",
      "country_code": "CH",
      "latitude": 46.3729,
      "longitude": 6.1898,
      "admin_name1": "Canton de Vaud"
    },
    {
      "place_name": "Crissier",
      "postal_code": "1023",
      "country_code": "CH",
      "latitude": 46.5563,
      "longitude": 6.5777,
      "admin_name1": "Canton de Vaud"
    },
    {
      "place_name": "Vétroz",
      "postal_code": "1963",
      "country_code": "CH",
      "latitude": 46.2163,
      "longitude": 7.2806,
      "admin_name1": "Canton du Valais"
    },
    {
      "place_name": "Leukerbad",
      "postal_code": "3954",
      "country_code": "CH",
      "latitude": 46.4021,
      "longitude": 7.6277,
      "admin_name1": "Canton du Valais"
    },
    {
      "place_name": "Champéry",
      "postal_code": "1874",
      "country_code": "CH",
      "latitude": 46.1588,
      "longitude": 6.846,
      "admin_name1": "Canton du Valais"
    },
    {
      "place_name": "Greich",
      "postal_code": "3983",
      "country_code": "CH",
      "latitude": 46.3669,
      "longitude": 8.0394,
      "admin_name1": "Canton du Valais"
    },
    {
      "place_name": "Filet",
      "postal_code": "3983",
      "country_code": "CH",
      "latitude": 46.3475,
      "longitude": 8.0592,
      "admin_name1": "Canton du Valais"
    },
    {
      "place_name": "Riederalp",
      "postal_code": "3987",
      "country_code": "CH",
      "latitude": 46.3818,
      "longitude": 8.0282,
      "admin_name1": "Canton du Valais"
    },
    {
      "place_name": "Dorénaz",
      "postal_code": "1905",
      "country_code": "CH",
      "latitude": 46.1517,
      "longitude": 7.0617,
      "admin_name1": "Canton du Valais"
    },
    {
      "place_name": "Le Châtelard VS",
      "postal_code": "1925",
      "country_code": "CH",
      "latitude": 46.0594,
      "longitude": 6.9563,
      "admin_name1": "Canton du Valais"
    },
    {
      "place_name": "Walchwil",
      "postal_code": "6318",
      "country_code": "CH",
      "latitude": 47.1064,
      "longitude": 8.5303,
      "admin_name1": "Kanton Zug"
    },
    {
      "place_name": "Rotkreuz",
      "postal_code": "6343",
      "country_code": "CH",
      "latitude": 47.1446,
      "longitude": 8.451,
      "admin_name1": "Kanton Zug"
    },
    {
      "place_name": "Wettswil",
      "postal_code": "8907",
      "country_code": "CH",
      "latitude": 47.3373,
      "longitude": 8.4699,
      "admin_name1": "Kanton Zürich"
    },
    {
      "place_name": "Grüt (Gossau ZH)",
      "postal_code": "8624",
      "country_code": "CH",
      "latitude": 47.3088,
      "longitude": 8.7819,
      "admin_name1": "Kanton Zürich"
    },
    {
      "place_name": "Wolfhausen",
      "postal_code": "8633",
      "country_code": "CH",
      "latitude": 47.2566,
      "longitude": 8.7985,
      "admin_name1": "Kanton Zürich"
    },
    {
      "place_name": "Adliswil 1",
      "postal_code": "8134",
      "country_code": "CH",
      "latitude": 47.3093,
      "longitude": 8.5213,
      "admin_name1": "Kanton Zürich"
    },
    {
      "place_name": "Meilen",
      "postal_code": "8706",
      "country_code": "CH",
      "latitude": 47.2765,
      "longitude": 8.6462,
      "admin_name1": "Kanton Zürich"
    },
    {
      "place_name": "Weisslingen",
      "postal_code": "8484",
      "country_code": "CH",
      "latitude": 47.4338,
      "longitude": 8.7704,
      "admin_name1": "Kanton Zürich"
    },
    {
      "place_name": "Pfaffhausen",
      "postal_code": "8118",
      "country_code": "CH",
      "latitude": 47.3658,
      "longitude": 8.6247,
      "admin_name1": "Kanton Zürich"
    },
    {
      "place_name": "Binz",
      "postal_code": "8122",
      "country_code": "CH",
      "latitude": 47.357,
      "longitude": 8.6269,
      "admin_name1": "Kanton Zürich"
    },
    {
      "place_name": "Brütten",
      "postal_code": "8311",
      "country_code": "CH",
      "latitude": 47.4748,
      "longitude": 8.6724,
      "admin_name1": "Kanton Zürich"
    },
    {
      "place_name": "Winterthur",
      "postal_code": "8401",
      "country_code": "CH",
      "latitude": 47.5056,
      "longitude": 8.7241,
      "admin_name1": "Kanton Zürich"
    },
    {
      "place_name": "Rutschwil (Dägerlen)",
      "postal_code": "8471",
      "country_code": "CH",
      "latitude": 47.5561,
      "longitude": 8.7315,
      "admin_name1": "Kanton Zürich"
    },
    {
      "place_name": "Rikon im Tösstal",
      "postal_code": "8486",
      "country_code": "CH",
      "latitude": 47.4505,
      "longitude": 8.8041,
      "admin_name1": "Kanton Zürich"
    },
    {
      "place_name": "Hagenbuch ZH",
      "postal_code": "8523",
      "country_code": "CH",
      "latitude": 47.5159,
      "longitude": 8.8759,
      "admin_name1": "Kanton Zürich"
    },
    {
      "place_name": "Dietikon 1",
      "postal_code": "8953",
      "country_code": "CH",
      "latitude": 47.402,
      "longitude": 8.3982,
      "admin_name1": "Kanton Zürich"
    },
    {
      "place_name": "Zürich Reader's Digest",
      "postal_code": "8086",
      "country_code": "CH",
      "latitude": 47.3828,
      "longitude": 8.5307,
      "admin_name1": "Kanton Zürich"
    },
    {
      "place_name": "Würenlingen",
      "postal_code": "5303",
      "country_code": "CH",
      "latitude": 47.5321,
      "longitude": 8.2492,
      "admin_name1": "Kanton Aargau"
    },
    {
      "place_name": "Kirchdorf AG",
      "postal_code": "5416",
      "country_code": "CH",
      "latitude": 47.499,
      "longitude": 8.2801,
      "admin_name1": "Kanton Aargau"
    },
    {
      "place_name": "Bergdietikon",
      "postal_code": "8962",
      "country_code": "CH",
      "latitude": 47.3881,
      "longitude": 8.3785,
      "admin_name1": "Kanton Aargau"
    },
    {
      "place_name": "Menziken",
      "postal_code": "5737",
      "country_code": "CH",
      "latitude": 47.236,
      "longitude": 8.1865,
      "admin_name1": "Kanton Aargau"
    },
    {
      "place_name": "Hottwil",
      "postal_code": "5277",
      "country_code": "CH",
      "latitude": 47.5423,
      "longitude": 8.1638,
      "admin_name1": "Kanton Aargau"
    },
    {
      "place_name": "Niederteufen",
      "postal_code": "9052",
      "country_code": "CH",
      "latitude": 47.3909,
      "longitude": 9.362,
      "admin_name1": "Kanton Appenzell Ausserrhoden"
    },
    {
      "place_name": "Lustmühle",
      "postal_code": "9062",
      "country_code": "CH",
      "latitude": 47.3988,
      "longitude": 9.3542,
      "admin_name1": "Kanton Appenzell Ausserrhoden"
    },
    {
      "place_name": "Saicourt",
      "postal_code": "2732",
      "country_code": "CH",
      "latitude": 47.2462,
      "longitude": 7.2027,
      "admin_name1": "Canton de Berne"
    },
    {
      "place_name": "Wolfisberg",
      "postal_code": "4704",
      "country_code": "CH",
      "latitude": 47.2771,
      "longitude": 7.6586,
      "admin_name1": "Canton de Berne"
    },
    {
      "place_name": "Oberösch",
      "postal_code": "3424",
      "country_code": "CH",
      "latitude": 47.1071,
      "longitude": 7.6106,
      "admin_name1": "Canton de Berne"
    },
    {
      "place_name": "Bern",
      "postal_code": "3030",
      "country_code": "CH",
      "latitude": 46.9481,
      "longitude": 7.4474,
      "admin_name1": "Canton de Berne"
    },
    {
      "place_name": "Stettlen",
      "postal_code": "3066",
      "country_code": "CH",
      "latitude": 46.9634,
      "longitude": 7.5286,
      "admin_name1": "Canton de Berne"
    },
    {
      "place_name": "Rubigen",
      "postal_code": "3113",
      "country_code": "CH",
      "latitude": 46.8997,
      "longitude": 7.545,
      "admin_name1": "Canton de Berne"
    },
    {
      "place_name": "Kaufdorf",
      "postal_code": "3126",
      "country_code": "CH",
      "latitude": 46.8397,
      "longitude": 7.4965,
      "admin_name1": "Canton de Berne"
    },
    {
      "place_name": "Kirchenthurnen",
      "postal_code": "3128",
      "country_code": "CH",
      "latitude": 46.8243,
      "longitude": 7.5058,
      "admin_name1": "Canton de Berne"
    },
    {
      "place_name": "Riedstätt",
      "postal_code": "3159",
      "country_code": "CH",
      "latitude": 46.7841,
      "longitude": 7.3218,
      "admin_name1": "Canton de Berne"
    },
    {
      "place_name": "Neuenegg",
      "postal_code": "3176",
      "country_code": "CH",
      "latitude": 46.9065,
      "longitude": 7.2997,
      "admin_name1": "Canton de Berne"
    },
    {
      "place_name": "Jaberg",
      "postal_code": "3629",
      "country_code": "CH",
      "latitude": 46.8202,
      "longitude": 7.5657,
      "admin_name1": "Canton de Berne"
    },
    {
      "place_name": "Gunten",
      "postal_code": "3654",
      "country_code": "CH",
      "latitude": 46.7145,
      "longitude": 7.7023,
      "admin_name1": "Canton de Berne"
    },
    {
      "place_name": "Einigen",
      "postal_code": "3646",
      "country_code": "CH",
      "latitude": 46.7071,
      "longitude": 7.6453,
      "admin_name1": "Canton de Berne"
    },
    {
      "place_name": "Erlenbach im Simmental",
      "postal_code": "3762",
      "country_code": "CH",
      "latitude": 46.6585,
      "longitude": 7.5302,
      "admin_name1": "Canton de Berne"
    },
    {
      "place_name": "Pfeffingen",
      "postal_code": "4148",
      "country_code": "CH",
      "latitude": 47.4562,
      "longitude": 7.582,
      "admin_name1": "Kanton Basel-Landschaft"
    },
    {
      "place_name": "Hemmiken",
      "postal_code": "4465",
      "country_code": "CH",
      "latitude": 47.4902,
      "longitude": 7.8917,
      "admin_name1": "Kanton Basel-Landschaft"
    },
    {
      "place_name": "Oltingen",
      "postal_code": "4494",
      "country_code": "CH",
      "latitude": 47.4302,
      "longitude": 7.9373,
      "admin_name1": "Kanton Basel-Landschaft"
    },
    {
      "place_name": "Montet (Glâne)",
      "postal_code": "1674",
      "country_code": "CH",
      "latitude": 46.6413,
      "longitude": 6.813,
      "admin_name1": "Canton de Fribourg"
    },
    {
      "place_name": "Berlens",
      "postal_code": "1680",
      "country_code": "CH",
      "latitude": 46.6953,
      "longitude": 6.9514,
      "admin_name1": "Canton de Fribourg"
    },
    {
      "place_name": "Bulle centre de traitement",
      "postal_code": "1631",
      "country_code": "CH",
      "latitude": 46.6075,
      "longitude": 7.0462,
      "admin_name1": "Canton de Fribourg"
    },
    {
      "place_name": "Charmey (Gruyère)",
      "postal_code": "1637",
      "country_code": "CH",
      "latitude": 46.594,
      "longitude": 7.1959,
      "admin_name1": "Canton de Fribourg"
    },
    {
      "place_name": "Rueyres-St-Laurent",
      "postal_code": "1695",
      "country_code": "CH",
      "latitude": 46.7133,
      "longitude": 7.0377,
      "admin_name1": "Canton de Fribourg"
    },
    {
      "place_name": "Bourguillon",
      "postal_code": "1722",
      "country_code": "CH",
      "latitude": 46.7988,
      "longitude": 7.1748,
      "admin_name1": "Canton de Fribourg"
    },
    {
      "place_name": "Neyruz FR",
      "postal_code": "1740",
      "country_code": "CH",
      "latitude": 46.768,
      "longitude": 7.0649,
      "admin_name1": "Canton de Fribourg"
    },
    {
      "place_name": "Galmiz",
      "postal_code": "3285",
      "country_code": "CH",
      "latitude": 46.9599,
      "longitude": 7.1466,
      "admin_name1": "Canton de Fribourg"
    },
    {
      "place_name": "Chancy",
      "postal_code": "1284",
      "country_code": "CH",
      "latitude": 46.1475,
      "longitude": 5.9787,
      "admin_name1": "Genève"
    },
    {
      "place_name": "Alvaschein",
      "postal_code": "7451",
      "country_code": "CH",
      "latitude": 46.6778,
      "longitude": 9.5467,
      "admin_name1": "Kanton Graubünden"
    },
    {
      "place_name": "Rona",
      "postal_code": "7454",
      "country_code": "CH",
      "latitude": 46.5567,
      "longitude": 9.6608,
      "admin_name1": "Kanton Graubünden"
    },
    {
      "place_name": "Müstair",
      "postal_code": "7537",
      "country_code": "CH",
      "latitude": 46.615,
      "longitude": 10.4555,
      "admin_name1": "Kanton Graubünden"
    },
    {
      "place_name": "Trin Mulin",
      "postal_code": "7016",
      "country_code": "CH",
      "latitude": 46.8224,
      "longitude": 9.3327,
      "admin_name1": "Kanton Graubünden"
    },
    {
      "place_name": "Castaneda",
      "postal_code": "6540",
      "country_code": "CH",
      "latitude": 46.2609,
      "longitude": 9.1301,
      "admin_name1": "Kanton Graubünden"
    },
    {
      "place_name": "Praden",
      "postal_code": "7063",
      "country_code": "CH",
      "latitude": 46.821,
      "longitude": 9.5824,
      "admin_name1": "Kanton Graubünden"
    },
    {
      "place_name": "Seewis-Schmitten",
      "postal_code": "7212",
      "country_code": "CH",
      "latitude": 46.9815,
      "longitude": 9.6421,
      "admin_name1": "Kanton Graubünden"
    },
    {
      "place_name": "Luzein",
      "postal_code": "7242",
      "country_code": "CH",
      "latitude": 46.9212,
      "longitude": 9.7623,
      "admin_name1": "Kanton Graubünden"
    },
    {
      "place_name": "Duvin",
      "postal_code": "7112",
      "country_code": "CH",
      "latitude": 46.6963,
      "longitude": 9.248,
      "admin_name1": "Kanton Graubünden"
    },
    {
      "place_name": "Lumbrein",
      "postal_code": "7148",
      "country_code": "CH",
      "latitude": 46.6683,
      "longitude": 9.1035,
      "admin_name1": "Kanton Graubünden"
    },
    {
      "place_name": "Schlans",
      "postal_code": "7168",
      "country_code": "CH",
      "latitude": 46.7653,
      "longitude": 9.0009,
      "admin_name1": "Kanton Graubünden"
    },
    {
      "place_name": "Sedrun",
      "postal_code": "7188",
      "country_code": "CH",
      "latitude": 46.6377,
      "longitude": 8.7502,
      "admin_name1": "Kanton Graubünden"
    },
    {
      "place_name": "Rueras",
      "postal_code": "7189",
      "country_code": "CH",
      "latitude": 46.6662,
      "longitude": 8.709,
      "admin_name1": "Kanton Graubünden"
    },
    {
      "place_name": "Paspels",
      "postal_code": "7417",
      "country_code": "CH",
      "latitude": 46.7513,
      "longitude": 9.4509,
      "admin_name1": "Kanton Graubünden"
    },
    {
      "place_name": "Mervelier",
      "postal_code": "2827",
      "country_code": "CH",
      "latitude": 47.3402,
      "longitude": 7.516,
      "admin_name1": "Jura"
    },
    {
      "place_name": "Vermes",
      "postal_code": "2829",
      "country_code": "CH",
      "latitude": 47.3192,
      "longitude": 7.4849,
      "admin_name1": "Jura"
    },
    {
      "place_name": "Les Breuleux",
      "postal_code": "2345",
      "country_code": "CH",
      "latitude": 47.203,
      "longitude": 6.9928,
      "admin_name1": "Jura"
    },
    {
      "place_name": "Le Bémont JU",
      "postal_code": "2360",
      "country_code": "CH",
      "latitude": 47.2625,
      "longitude": 7.0334,
      "admin_name1": "Jura"
    },
    {
      "place_name": "Montfavergier",
      "postal_code": "2362",
      "country_code": "CH",
      "latitude": 47.3064,
      "longitude": 7.0852,
      "admin_name1": "Jura"
    },
    {
      "place_name": "Seleute",
      "postal_code": "2888",
      "country_code": "CH",
      "latitude": 47.368,
      "longitude": 7.1118,
      "admin_name1": "Jura"
    },
    {
      "place_name": "Inwil",
      "postal_code": "6034",
      "country_code": "CH",
      "latitude": 47.1287,
      "longitude": 8.3623,
      "admin_name1": "Kanton Luzern"
    },
    {
      "place_name": "Buttisholz",
      "postal_code": "6018",
      "country_code": "CH",
      "latitude": 47.1141,
      "longitude": 8.0923,
      "admin_name1": "Kanton Luzern"
    },
    {
      "place_name": "Luthern Bad",
      "postal_code": "6156",
      "country_code": "CH",
      "latitude": 47.0247,
      "longitude": 7.9209,
      "admin_name1": "Kanton Luzern"
    },
    {
      "place_name": "Les Taillères",
      "postal_code": "2406",
      "country_code": "CH",
      "latitude": 46.9728,
      "longitude": 6.5759,
      "admin_name1": "Neuchâtel"
    },
    {
      "place_name": "Neuchâtel 2",
      "postal_code": "2002",
      "country_code": "CH",
      "latitude": 47.0094,
      "longitude": 6.9381,
      "admin_name1": "Neuchâtel"
    },
    {
      "place_name": "Wirzweli",
      "postal_code": "6383",
      "country_code": "CH",
      "latitude": 46.9121,
      "longitude": 8.3632,
      "admin_name1": "Kanton Nidwalden"
    },
    {
      "place_name": "Andwil SG",
      "postal_code": "9204",
      "country_code": "CH",
      "latitude": 47.4372,
      "longitude": 9.279,
      "admin_name1": "Kanton St. Gallen"
    },
    {
      "place_name": "Muolen",
      "postal_code": "9313",
      "country_code": "CH",
      "latitude": 47.5171,
      "longitude": 9.3179,
      "admin_name1": "Kanton St. Gallen"
    },