[
  [
    {
      "place_name": "København K",
      "postal_code": "1057",
      "country_code": "DK",
      "latitude": 55.6784,
      "longitude": 12.5893,
      "admin_name1": "Capital Region"
    },
    {
      "place_name": "København V",
      "postal_code": "1572",
      "country_code": "DK",
      "latitude": 55.6716,
      "longitude": 12.5732,
      "admin_name1": "Capital Region"
    },
    {
      "place_name": "Frederiksberg C",
      "postal_code": "1817",
      "country_code": "DK",
      "latitude": 55.6722,
      "longitude": 12.543,
      "admin_name1": "Capital Region"
    },
    {
      "place_name": "Måløv",
      "postal_code": "2760",
      "country_code": "DK",
      "latitude": 55.7513,
      "longitude": 12.3197,
      "admin_name1": "Capital Region"
    },
    {
      "place_name": "Dragør",
      "postal_code": "2791",
      "country_code": "DK",
      "latitude": 55.5882,
      "longitude": 12.6482,
      "admin_name1": "Capital Region"
    },
    {
      "place_name": "Lynge",
      "postal_code": "3540",
      "country_code": "DK",
      "latitude": 55.8379,
      "longitude": 12.2804,
      "admin_name1": "Capital Region"
    },
    {
      "place_name": "Dronningmølle",
      "postal_code": "3120",
      "country_code": "DK",
      "latitude": 56.0969,
      "longitude": 12.3818,
      "admin_name1": "Capital Region"
    },
    {
      "place_name": "Østermarie",
      "postal_code": "3751",
      "country_code": "DK",
      "latitude": 55.1385,
      "longitude": 15.0191,
      "admin_name1": "Capital Region"
    },
    {
      "place_name": "Brædstrup",
      "postal_code": "8740",
      "country_code": "DK",
      "latitude": 55.9727,
      "longitude": 9.6192,
      "admin_name1": "Central Jutland"
    },
    {
      "place_name": "Ulfborg",
      "postal_code": "6990",
      "country_code": "DK",
      "latitude": 56.2967,
      "longitude": 8.2163,
      "admin_name1": "Central Jutland"
    },
    {
      "place_name": "Vemb",
      "postal_code": "7570",
      "country_code": "DK",
      "latitude": 56.3474,
      "longitude": 8.3622,
      "admin_name1": "Central Jutland"
    },
    {
      "place_name": "Ulstrup",
      "postal_code": "8860",
      "country_code": "DK",
      "latitude": 56.3874,
      "longitude": 9.7928,
      "admin_name1": "Central Jutland"
    },
    {
      "place_name": "Samsø",
      "postal_code": "8305",
      "country_code": "DK",
      "latitude": 55.8602,
      "longitude": 10.5856,
      "admin_name1": "Central Jutland"
    },
    {
      "place_name": "Galten",
      "postal_code": "8464",
      "country_code": "DK",
      "latitude": 56.1563,
      "longitude": 9.9273,
      "admin_name1": "Central Jutland"
    },
    {
      "place_name": "Skanderborg",
      "postal_code": "8660",
      "country_code": "DK",
      "latitude": 56.0401,
      "longitude": 9.9302,
      "admin_name1": "Central Jutland"
    },
    {
      "place_name": "Sabro",
      "postal_code": "8471",
      "country_code": "DK",
      "latitude": 56.2079,
      "longitude": 10.0395,
      "admin_name1": "Central Jutland"
    },
    {
      "place_name": "Stenderup",
      "postal_code": "8781",
      "country_code": "DK",
      "latitude": 55.7903,
      "longitude": 9.8068,
      "admin_name1": "Central Jutland"
    },
    {
      "place_name": "Tjele",
      "postal_code": "8830",
      "country_code": "DK",
      "latitude": 56.502,
      "longitude": 9.6119,
      "admin_name1": "Central Jutland"
    },
    {
      "place_name": "Skagen",
      "postal_code": "9990",
      "country_code": "DK",
      "latitude": 57.7208,
      "longitude": 10.5621,
      "admin_name1": "North Denmark"
    },
    {
      "place_name": "Tårs",
      "postal_code": "9830",
      "country_code": "DK",
      "latitude": 57.3804,
      "longitude": 10.1308,
      "admin_name1": "North Denmark"
    },
    {
      "place_name": "Asnæs",
      "postal_code": "4550",
      "country_code": "DK",
      "latitude": 55.8255,
      "longitude": 11.4991,
      "admin_name1": "Zealand"
    },
    {
      "place_name": "Orø",
      "postal_code": "4305",
      "country_code": "DK",
      "latitude": 55.7717,
      "longitude": 11.813,
      "admin_name1": "Zealand"
    },
    {
      "place_name": "Skælskør",
      "postal_code": "4230",
      "country_code": "DK",
      "latitude": 55.2517,
      "longitude": 11.3043,
      "admin_name1": "Zealand"
    },
    {
      "place_name": "Boeslunde",
      "postal_code": "4242",
      "country_code": "DK",
      "latitude": 55.305,
      "longitude": 11.2653,
      "admin_name1": "Zealand"
    },
    {
      "place_name": "Ejby",
      "postal_code": "5592",
      "country_code": "DK",
      "latitude": 55.4228,
      "longitude": 9.9224,
      "admin_name1": "South Denmark"
    },
    {
      "place_name": "Ebberup",
      "postal_code": "5631",
      "country_code": "DK",
      "latitude": 55.2081,
      "longitude": 9.9902,
      "admin_name1": "South Denmark"
    },
    {
      "place_name": "Kerteminde",
      "postal_code": "5300",
      "country_code": "DK",
      "latitude": 55.4519,
      "longitude": 10.6486,
      "admin_name1": "South Denmark"
    },
    {
      "place_name": "Rynkeby",
      "postal_code": "5350",
      "country_code": "DK",
      "latitude": 55.3997,
      "longitude": 10.6134,
      "admin_name1": "South Denmark"
    },
    {
      "place_name": "Gudme",
      "postal_code": "5884",
      "country_code": "DK",
      "latitude": 55.1497,
      "longitude": 10.7034,
      "admin_name1": "South Denmark"
    },
    {
      "place_name": "Løgumkloster",
      "postal_code": "6240",
      "country_code": "DK",
      "latitude": 55.0555,
      "longitude": 8.979,
      "admin_name1": "South Denmark"
    },
    {
      "place_name": "Branderup J",
      "postal_code": "6535",
      "country_code": "DK",
      "latitude": 55.1198,
      "longitude": 9.065,
      "admin_name1": "South Denmark"
    },
    {
      "place_name": "Esbjerg V",
      "postal_code": "6710",
      "country_code": "DK",
      "latitude": 55.5165,
      "longitude": 8.3942,
      "admin_name1": "South Denmark"
    },
    {
      "place_name": "Nørre Nebel",
      "postal_code": "6830",
      "country_code": "DK",
      "latitude": 55.7814,
      "longitude": 8.2688,
      "admin_name1": "South Denmark"
    },
    {
      "place_name": "Lintrup",
      "postal_code": "6660",
      "country_code": "DK",
      "latitude": 55.4117,
      "longitude": 8.9784,
      "admin_name1": "South Denmark"
    },
    {
      "place_name": "Vandel",
      "postal_code": "7184",
      "country_code": "DK",
      "latitude": 55.7109,
      "longitude": 9.2101,
      "admin_name1": "South Denmark"
    },
    {
      "place_name": "Skovlunde",
      "postal_code": "2740",
      "country_code": "DK",
      "latitude": 55.7154,
      "longitude": 12.3989,
      "admin_name1": "Capital Region"
    },
    {
      "place_name": "Helsingør",
      "postal_code": "3000",
      "country_code": "DK",
      "latitude": 56.0337,
      "longitude": 12.5881,
      "admin_name1": "Capital Region"
    },
    {
      "place_name": "Ørnhøj",
      "postal_code": "6973",
      "country_code": "DK",
      "latitude": 56.1973,
      "longitude": 8.5671,
      "admin_name1": "Central Jutland"
    },
    {
      "place_name": "Hammel",
      "postal_code": "8450",
      "country_code": "DK",
      "latitude": 56.2572,
      "longitude": 9.8651,
      "admin_name1": "Central Jutland"
    },
    {
      "place_name": "Klovborg",
      "postal_code": "8765",
      "country_code": "DK",
      "latitude": 55.9306,
      "longitude": 9.4903,
      "admin_name1": "Central Jutland"
    },
    {
      "place_name": "Stoholm Jyll",
      "postal_code": "7850",
      "country_code": "DK",
      "latitude": 56.484,
      "longitude": 9.1354,
      "admin_name1": "Central Jutland"
    },
    {
      "place_name": "Rødkærsbro",
      "postal_code": "8840",
      "country_code": "DK",
      "latitude": 56.3503,
      "longitude": 9.5115,
      "admin_name1": "Central Jutland"
    },
    {
      "place_name": "Thisted",
      "postal_code": "7700",
      "country_code": "DK",
      "latitude": 56.9726,
      "longitude": 8.6263,
      "admin_name1": "North Denmark"
    },
    {
      "place_name": "Vig",
      "postal_code": "4560",
      "country_code": "DK",
      "latitude": 55.8585,
      "longitude": 11.5577,
      "admin_name1": "Zealand"
    },
    {
      "place_name": "Rørvig",
      "postal_code": "4581",
      "country_code": "DK",
      "latitude": 55.9497,
      "longitude": 11.7498,
      "admin_name1": "Zealand"
    },
    {
      "place_name": "Store Merløse",
      "postal_code": "4370",
      "country_code": "DK",
      "latitude": 55.5462,
      "longitude": 11.7159,
      "admin_name1": "Zealand"
    },
    {
      "place_name": "Mørkøv",
      "postal_code": "4440",
      "country_code": "DK",
      "latitude": 55.6513,
      "longitude": 11.5085,
      "admin_name1": "Zealand"
    },
    {
      "place_name": "Rude",
      "postal_code": "4243",
      "country_code": "DK",
      "latitude": 55.2142,
      "longitude": 11.4891,
      "admin_name1": "Zealand"
    },
    {
      "place_name": "Glumsø",
      "postal_code": "4171",
      "country_code": "DK",
      "latitude": 55.3621,
      "longitude": 11.6897,
      "admin_name1": "Zealand"
    },
    {
      "place_name": "Nørre Alslev",
      "postal_code": "4840",
      "country_code": "DK",
      "latitude": 54.9069,
      "longitude": 11.8529,
      "admin_name1": "Zealand"
    },
    {
      "place_name": "Kettinge",
      "postal_code": "4892",
      "country_code": "DK",
      "latitude": 54.7008,
      "longitude": 11.747,
      "admin_name1": "Zealand"
    },
    {
      "place_name": "Tommerup",
      "postal_code": "5690",
      "country_code": "DK",
      "latitude": 55.3243,
      "longitude": 10.2044,
      "admin_name1": "South Denmark"
    },
    {
      "place_name": "Martofte",
      "postal_code": "5390",
      "country_code": "DK",
      "latitude": 55.5703,
      "longitude": 10.6254,
      "admin_name1": "South Denmark"
    },
    {
      "place_name": "Birkholm",
      "postal_code": "5965",
      "country_code": "DK",
      "latitude": 54.9307,
      "longitude": 10.5042,
      "admin_name1": "South Denmark"
    },
    {
      "place_name": "Tjæreborg",
      "postal_code": "6731",
      "country_code": "DK",
      "latitude": 55.4648,
      "longitude": 8.5852,
      "admin_name1": "South Denmark"
    },
    {
      "place_name": "Henne",
      "postal_code": "6854",
      "country_code": "DK",
      "latitude": 55.7332,
      "longitude": 8.2051,
      "admin_name1": "South Denmark"
    },
    {
      "place_name": "Almind",
      "postal_code": "6051",
      "country_code": "DK",
      "latitude": 55.5629,
      "longitude": 9.4824,
      "admin_name1": "South Denmark"
    },
    {
      "place_name": "Vallensbæk",
      "postal_code": "2625",
      "country_code": "DK",
      "latitude": 55.6477,
      "longitude": 12.3623,
      "admin_name1": "Capital Region"
    },
    {
      "place_name": "Allerød",
      "postal_code": "3450",
      "country_code": "DK",
      "latitude": 55.8692,
      "longitude": 12.3484,
      "admin_name1": "Capital Region"
    },
    {
      "place_name": "Græsted",
      "postal_code": "3230",
      "country_code": "DK",
      "latitude": 56.0765,
      "longitude": 12.2586,
      "admin_name1": "Capital Region"
    },
    {
      "place_name": "Gedved",
      "postal_code": "8751",
      "country_code": "DK",
      "latitude": 55.9319,
      "longitude": 9.8467,
      "admin_name1": "Central Jutland"
    },
    {
      "place_name": "Stakroge",
      "postal_code": "7270",
      "country_code": "DK",
      "latitude": 55.8965,
      "longitude": 8.847,
      "admin_name1": "Central Jutland"
    },
    {
      "place_name": "Hjerm",
      "postal_code": "7560",
      "country_code": "DK",
      "latitude": 56.4395,
      "longitude": 8.6457,
      "admin_name1": "Central Jutland"
    },
    {
      "place_name": "Ørum Djurs",
      "postal_code": "8586",
      "country_code": "DK",
      "latitude": 56.445,
      "longitude": 10.6601,
      "admin_name1": "Central Jutland"
    },
    {
      "place_name": "Hinnerup",
      "postal_code": "8382",
      "country_code": "DK",
      "latitude": 56.2595,
      "longitude": 10.0657,
      "admin_name1": "Central Jutland"
    },
    {
      "place_name": "Egå",
      "postal_code": "8250",
      "country_code": "DK",
      "latitude": 56.2216,
      "longitude": 10.293,
      "admin_name1": "Central Jutland"
    },
    {
      "place_name": "Tarm",
      "postal_code": "6880",
      "country_code": "DK",
      "latitude": 55.8883,
      "longitude": 8.5146,
      "admin_name1": "Central Jutland"
    },
    {
      "place_name": "Asaa",
      "postal_code": "9340",
      "country_code": "DK",
      "latitude": 57.1367,
      "longitude": 10.3919,
      "admin_name1": "North Denmark"
    },
    {
      "place_name": "Hadsund",
      "postal_code": "9560",
      "country_code": "DK",
      "latitude": 56.7505,
      "longitude": 10.2076,
      "admin_name1": "North Denmark"
    },
    {
      "place_name": "Blokhus",
      "postal_code": "9492",
      "country_code": "DK",
      "latitude": 57.2542,
      "longitude": 9.6048,
      "admin_name1": "North Denmark"
    },
    {
      "place_name": "Svenstrup J",
      "postal_code": "9230",
      "country_code": "DK",
      "latitude": 56.9679,
      "longitude": 9.8502,
      "admin_name1": "North Denmark"
    },
    {
      "place_name": "Sindal",
      "postal_code": "9870",
      "country_code": "DK",
      "latitude": 57.4677,
      "longitude": 10.236,
      "admin_name1": "North Denmark"
    },
    {
      "place_name": "Høng",
      "postal_code": "4270",
      "country_code": "DK",
      "latitude": 55.5073,
      "longitude": 11.296,
      "admin_name1": "Zealand"
    },
    {
      "place_name": "Askø",
      "postal_code": "4942",
      "country_code": "DK",
      "latitude": 54.893,
      "longitude": 11.4993,
      "admin_name1": "Zealand"
    },
    {
      "place_name": "Nykøbing F",
      "postal_code": "4800",
      "country_code": "DK",
      "latitude": 54.7723,
      "longitude": 11.884,
      "admin_name1": "Zealand"
    },
    {
      "place_name": "Brenderup Fyn",
      "postal_code": "5464",
      "country_code": "DK",
      "latitude": 55.4986,
      "longitude": 9.9731,
      "admin_name1": "South Denmark"
    },
    {
      "place_name": "Frørup",
      "postal_code": "5871",
      "country_code": "DK",
      "latitude": 55.2388,
      "longitude": 10.7645,
      "admin_name1": "South Denmark"
    },
    {
      "place_name": "Rudkøbing",
      "postal_code": "5900",
      "country_code": "DK",
      "latitude": 54.923,
      "longitude": 10.7403,
      "admin_name1": "South Denmark"
    },
    {
      "place_name": "Sommersted",
      "postal_code": "6560",
      "country_code": "DK",
      "latitude": 55.3226,
      "longitude": 9.284,
      "admin_name1": "South Denmark"
    },
    {
      "place_name": "Gråsten",
      "postal_code": "6300",
      "country_code": "DK",
      "latitude": 54.9146,
      "longitude": 9.5725,
      "admin_name1": "South Denmark"
    },
    {
      "place_name": "Esbjerg Ø",
      "postal_code": "6705",
      "country_code": "DK",
      "latitude": 55.4886,
      "longitude": 8.4965,
      "admin_name1": "South Denmark"
    },
    {
      "place_name": "Tistrup",
      "postal_code": "6862",
      "country_code": "DK",
      "latitude": 55.7165,
      "longitude": 8.612,
      "admin_name1": "South Denmark"
    },
    {
      "place_name": "Brørup",
      "postal_code": "6650",
      "country_code": "DK",
      "latitude": 55.4951,
      "longitude": 9.0153,
      "admin_name1": "South Denmark"
    },
    {
      "place_name": "Tinglev",
      "postal_code": "6360",
      "country_code": "DK",
      "latitude": 54.9316,
      "longitude": 9.2426,
      "admin_name1": "South Denmark"
    },
    {
      "place_name": "Børkop",
      "postal_code": "7080",
      "country_code": "DK",
      "latitude": 55.6471,
      "longitude": 9.6723,
      "admin_name1": "South Denmark"
    },
    {
      "place_name": "København C",
      "postal_code": "0900",
      "country_code": "DK",
      "latitude": 57.048,
      "longitude": 9.9187,
      "admin_name1": "Region Hovedstaden"
    },
    {
      "place_name": "København NV",
      "postal_code": "2400",
      "country_code": "DK",
      "latitude": 55.7086,
      "longitude": 12.5263,
      "admin_name1": "Capital Region"
    },
    {
      "place_name": "Aakirkeby",
      "postal_code": "3720",
      "country_code": "DK",
      "latitude": 55.053,
      "longitude": 14.9259,
      "admin_name1": "Capital Region"
    },
    {
      "place_name": "Hovedgård",
      "postal_code": "8732",
      "country_code": "DK",
      "latitude": 55.9484,
      "longitude": 9.9577,
      "admin_name1": "Central Jutland"
    },
    {
      "place_name": "Allingåbro",
      "postal_code": "8961",
      "country_code": "DK",
      "latitude": 56.4807,
      "longitude": 10.4173,
      "admin_name1": "Central Jutland"
    },
    {
      "place_name": "Harlev J",
      "postal_code": "8462",
      "country_code": "DK",
      "latitude": 56.1449,
      "longitude": 9.9963,
      "admin_name1": "Central Jutland"
    },
    {
      "place_name": "Lystrup",
      "postal_code": "8520",
      "country_code": "DK",
      "latitude": 56.2374,
      "longitude": 10.2318,
      "admin_name1": "Central Jutland"
    },
    {
      "place_name": "Farsø",
      "postal_code": "9640",
      "country_code": "DK",
      "latitude": 56.7691,
      "longitude": 9.2872,
      "admin_name1": "North Denmark"
    },
    {
      "place_name": "Aabybro",
      "postal_code": "9440",
      "country_code": "DK",
      "latitude": 57.1458,
      "longitude": 9.7416,
      "admin_name1": "North Denmark"
    },
    {
      "place_name": "Vestbjerg",
      "postal_code": "9380",
      "country_code": "DK",
      "latitude": 57.1318,
      "longitude": 9.9628,
      "admin_name1": "North Denmark"
    },
    {
      "place_name": "Havdrup",
      "postal_code": "4622",
      "country_code": "DK",
      "latitude": 55.5438,
      "longitude": 12.1221,
      "admin_name1": "Zealand"
    },
    {
      "place_name": "Sjællands Odde",
      "postal_code": "4583",
      "country_code": "DK",
      "latitude": 55.9712,
      "longitude": 11.3624,
      "admin_name1": "Zealand"
    },
    {
      "place_name": "Gislinge",
      "postal_code": "4532",
      "country_code": "DK",
      "latitude": 55.7328,
      "longitude": 11.5543,
      "admin_name1": "Zealand"
    },
    {
      "place_name": "Gørlev",
      "postal_code": "4281",
      "country_code": "DK",
      "latitude": 55.5324,
      "longitude": 11.1825,
      "admin_name1": "Zealand"
    },
    {
      "place_name": "Stenlille",
      "postal_code": "4295",
      "country_code": "DK",
      "latitude": 55.543,
      "longitude": 11.5842,
      "admin_name1": "Zealand"
    },
    {
      "place_name": "Toreby L",
      "postal_code": "4891",
      "country_code": "DK",
      "latitude": 54.7597,
      "longitude": 11.7775,
      "admin_name1": "Zealand"
    },
    {
      "place_name": "Askeby",
      "postal_code": "4792",
      "country_code": "DK",
      "latitude": 54.9063,
      "longitude": 12.1605,
      "admin_name1": "Zealand"
    },
    {
      "place_name": "Odense SV",
      "postal_code": "5250",
      "country_code": "DK",
      "latitude": 55.3585,
      "longitude": 10.3366,
      "admin_name1": "South Denmark"
    },
    {
      "place_name": "Skårup Fyn",
      "postal_code": "5881",
      "country_code": "DK",
      "latitude": 55.0869,
      "longitude": 10.6986,
      "admin_name1": "South Denmark"
    },
    {
      "place_name": "Otterup",
      "postal_code": "5450",
      "country_code": "DK",
      "latitude": 55.5401,
      "longitude": 10.4029,
      "admin_name1": "South Denmark"
    },
    {
      "place_name": "Bagenkop",
      "postal_code": "5935",
      "country_code": "DK",
      "latitude": 54.7511,
      "longitude": 10.6862,
      "admin_name1": "South Denmark"
    },
    {
      "place_name": "Vorbasse",
      "postal_code": "6623",
      "country_code": "DK",
      "latitude": 55.6354,
      "longitude": 9.0813,
      "admin_name1": "South Denmark"
    },
    {
      "place_name": "Egernsund",
      "postal_code": "6320",
      "country_code": "DK",
      "latitude": 54.9041,
      "longitude": 9.6154,
      "admin_name1": "South Denmark"
    },
    {
      "place_name": "Esbjerg N",
      "postal_code": "6715",
      "country_code": "DK",
      "latitude": 55.517,
      "longitude": 8.4587,
      "admin_name1": "South Denmark"
    },
    {
      "place_name": "Aabenraa",
      "postal_code": "6200",
      "country_code": "DK",
      "latitude": 55.033,
      "longitude": 9.4398,
      "admin_name1": "South Denmark"
    },
    {
      "place_name": "Frederiksberg",
      "postal_code": "2000",
      "country_code": "DK",
      "latitude": 55.6825,
      "longitude": 12.5179,
      "admin_name1": "Capital Region"
    },
    {
      "place_name": "Sørvad",
      "postal_code": "7550",
      "country_code": "DK",
      "latitude": 56.2605,
      "longitude": 8.6559,
      "admin_name1": "Central Jutland"
    },
    {
      "place_name": "Randers NØ",
      "postal_code": "8930",
      "country_code": "DK",
      "latitude": 56.4835,
      "longitude": 10.0844,
      "admin_name1": "Central Jutland"
    },
    {
      "place_name": "Hornsyld",
      "postal_code": "8783",
      "country_code": "DK",
      "latitude": 55.7627,
      "longitude": 9.8514,
      "admin_name1": "Central Jutland"
    },
    {
      "place_name": "Vils",
      "postal_code": "7980",
      "country_code": "DK",
      "latitude": 56.7585,
      "longitude": 8.7271,
      "admin_name1": "North Denmark"
    },
    {
      "place_name": "Bælum",
      "postal_code": "9574",
      "country_code": "DK",
      "latitude": 56.8271,
      "longitude": 10.1248,
      "admin_name1": "North Denmark"
    },
    {
      "place_name": "Grevinge",
      "postal_code": "4571",
      "country_code": "DK",
      "latitude": 55.7935,
      "longitude": 11.5885,
      "admin_name1": "Zealand"
    },
    {
      "place_name": "Kirke Eskilstrup",
      "postal_code": "4360",
      "country_code": "DK",
      "latitude": 55.5705,
      "longitude": 11.7737,
      "admin_name1": "Zealand"
    },
    {
      "place_name": "Faxe",
      "postal_code": "4640",
      "country_code": "DK",
      "latitude": 55.2452,
      "longitude": 12.12,
      "admin_name1": "Zealand"
    },
    {
      "place_name": "Horbelev",
      "postal_code": "4871",
      "country_code": "DK",
      "latitude": 54.8238,
      "longitude": 12.0644,
      "admin_name1": "Zealand"
    },
    {
      "place_name": "Øster Ulslev",
      "postal_code": "4894",
      "country_code": "DK",
      "latitude": 54.6958,
      "longitude": 11.6061,
      "admin_name1": "Zealand"
    },
    {
      "place_name": "Stensved",
      "postal_code": "4773",
      "country_code": "DK",
      "latitude": 54.995,
      "longitude": 12.0268,
      "admin_name1": "Zealand"
    },
    {
      "place_name": "Odense N",
      "postal_code": "5270",
      "country_code": "DK",
      "latitude": 55.4341,
      "longitude": 10.3612,
      "admin_name1": "South Denmark"
    },
    {
      "place_name": "Sønderborg",
      "postal_code": "6400",
      "country_code": "DK",
      "latitude": 54.9213,
      "longitude": 9.7764,
      "admin_name1": "South Denmark"
    },
    {
      "place_name": "Padborg",
      "postal_code": "6330",
      "country_code": "DK",
      "latitude": 54.8367,
      "longitude": 9.3538,
      "admin_name1": "South Denmark"
    },
    {
      "place_name": "Helsinge",
      "postal_code": "3200",
      "country_code": "DK",
      "latitude": 56.016,
      "longitude": 12.1849,
      "admin_name1": "Capital Region"
    },
    {
      "place_name": "Vejby",
      "postal_code": "3210",
      "country_code": "DK",
      "latitude": 56.0804,
      "longitude": 12.1437,
      "admin_name1": "Capital Region"
    },
    {
      "place_name": "Hornslet",
      "postal_code": "8543",
      "country_code": "DK",
      "latitude": 56.3161,
      "longitude": 10.3114,
      "admin_name1": "Central Jutland"
    },
    {
      "place_name": "Auning",
      "postal_code": "8963",
      "country_code": "DK",
      "latitude": 56.4306,
      "longitude": 10.3752,
      "admin_name1": "Central Jutland"
    },
    {
      "place_name": "Odder",
      "postal_code": "8300",
      "country_code": "DK",
      "latitude": 55.9626,
      "longitude": 10.1795,
      "admin_name1": "Central Jutland"
    },
    {
      "place_name": "Hedensted",
      "postal_code": "8722",
      "country_code": "DK",
      "latitude": 55.7692,
      "longitude": 9.7022,
      "admin_name1": "Central Jutland"
    },
    {
      "place_name": "Bjerringbro",
      "postal_code": "8850",
      "country_code": "DK",
      "latitude": 56.379,
      "longitude": 9.6515,
      "admin_name1": "Central Jutland"
    },
    {
      "place_name": "Sæby",
      "postal_code": "9300",
      "country_code": "DK",
      "latitude": 57.3102,
      "longitude": 10.5013,
      "admin_name1": "North Denmark"
    },
    {
      "place_name": "Storvorde",
      "postal_code": "9280",
      "country_code": "DK",
      "latitude": 56.9769,
      "longitude": 10.1718,
      "admin_name1": "North Denmark"
    },
    {
      "place_name": "Vipperød",
      "postal_code": "4390",
      "country_code": "DK",
      "latitude": 55.6675,
      "longitude": 11.7431,
      "admin_name1": "Zealand"
    },
    {
      "place_name": "Føllenslev",
      "postal_code": "4591",
      "country_code": "DK",
      "latitude": 55.746,
      "longitude": 11.3329,
      "admin_name1": "Zealand"
    },
    {
      "place_name": "Holeby",
      "postal_code": "4960",
      "country_code": "DK",
      "latitude": 54.7098,
      "longitude": 11.4829,
      "admin_name1": "Zealand"
    },
    {
      "place_name": "Væggerløse",
      "postal_code": "4873",
      "country_code": "DK",
      "latitude": 54.6829,
      "longitude": 11.9496,
      "admin_name1": "Zealand"
    },
    {
      "place_name": "Kværndrup",
      "postal_code": "5772",
      "country_code": "DK",
      "latitude": 55.179,
      "longitude": 10.5316,
      "admin_name1": "South Denmark"
    },
    {
      "place_name": "Blommenslyst",
      "postal_code": "5491",
      "country_code": "DK",
      "latitude": 55.3879,
      "longitude": 10.25,
      "admin_name1": "South Denmark"
    },
    {
      "place_name": "Bramming",
      "postal_code": "6740",
      "country_code": "DK",
      "latitude": 55.4711,
      "longitude": 8.7055,
      "admin_name1": "South Denmark"
    },
    {
      "place_name": "Oksbøl",
      "postal_code": "6840",
      "country_code": "DK",
      "latitude": 55.6419,
      "longitude": 8.2731,
      "admin_name1": "South Denmark"
    },
    {
      "place_name": "Rødding",
      "postal_code": "6630",
      "country_code": "DK",
      "latitude": 55.3707,
      "longitude": 9.1124,
      "admin_name1": "South Denmark"
    },
    {
      "place_name": "Barsø",
      "postal_code": "6210",
      "country_code": "DK",
      "latitude": 55.1214,
      "longitude": 9.5554,
      "admin_name1": "South Denmark"
    },
    {
      "place_name": "Bylderup-Bov",
      "postal_code": "6372",
      "country_code": "DK",
      "latitude": 54.9577,
      "longitude": 9.1024,
      "admin_name1": "South Denmark"
    },
    {
      "place_name": "Brønshøj",
      "postal_code": "2700",
      "country_code": "DK",
      "latitude": 55.7069,
      "longitude": 12.4845,
      "admin_name1": "Capital Region"
    },
    {
      "place_name": "Gentofte",
      "postal_code": "2820",
      "country_code": "DK",
      "latitude": 55.751,
      "longitude": 12.5302,
      "admin_name1": "Capital Region"
    },
    {
      "place_name": "Svaneke",
      "postal_code": "3740",
      "country_code": "DK",
      "latitude": 55.1313,
      "longitude": 15.1295,
      "admin_name1": "Capital Region"
    },
    {
      "place_name": "Østbirk",
      "postal_code": "8752",
      "country_code": "DK",
      "latitude": 55.9699,
      "longitude": 9.7518,
      "admin_name1": "Central Jutland"
    },
    {
      "place_name": "Mørke",
      "postal_code": "8544",
      "country_code": "DK",
      "latitude": 56.3521,
      "longitude": 10.3423,
      "admin_name1": "Central Jutland"
    },
    {
      "place_name": "Randers NV",
      "postal_code": "8920",
      "country_code": "DK",
      "latitude": 56.4764,
      "longitude": 9.9773,
      "admin_name1": "Central Jutland"
    },
    {
      "place_name": "Kjellerup",
      "postal_code": "8620",
      "country_code": "DK",
      "latitude": 56.286,
      "longitude": 9.4126,
      "admin_name1": "Central Jutland"
    },
    {
      "place_name": "Hørning",
      "postal_code": "8362",
      "country_code": "DK",
      "latitude": 56.0848,
      "longitude": 10.0333,
      "admin_name1": "Central Jutland"
    },
    {
      "place_name": "Viby J",
      "postal_code": "8260",
      "country_code": "DK",
      "latitude": 56.1284,
      "longitude": 10.1421,
      "admin_name1": "Central Jutland"
    },
    {
      "place_name": "Tilst",
      "postal_code": "8381",
      "country_code": "DK",
      "latitude": 56.1859,
      "longitude": 10.1089,
      "admin_name1": "Central Jutland"
    },
    {
      "place_name": "Skødstrup",
      "postal_code": "8541",
      "country_code": "DK",
      "latitude": 56.2658,
      "longitude": 10.3144,
      "admin_name1": "Central Jutland"
    },
    {
      "place_name": "Lem St",
      "postal_code": "6940",
      "country_code": "DK",
      "latitude": 56.0361,
      "longitude": 8.3917,
      "admin_name1": "Central Jutland"
    },
    {
      "place_name": "Spjald",
      "postal_code": "6971",
      "country_code": "DK",
      "latitude": 56.137,
      "longitude": 8.5018,
      "admin_name1": "Central Jutland"
    },
    {
      "place_name": "Brovst",
      "postal_code": "9460",
      "country_code": "DK",
      "latitude": 57.1072,
      "longitude": 9.5186,
      "admin_name1": "North Denmark"
    },
    {
      "place_name": "Pandrup",
      "postal_code": "9490",
      "country_code": "DK",
      "latitude": 57.2111,
      "longitude": 9.6381,
      "admin_name1": "North Denmark"
    },
    {
      "place_name": "Solrød Strand",
      "postal_code": "2680",
      "country_code": "DK",
      "latitude": 55.532,
      "longitude": 12.213,
      "admin_name1": "Zealand"
    },
    {
      "place_name": "Store Fuglede",
      "postal_code": "4480",
      "country_code": "DK",
      "latitude": 55.5759,
      "longitude": 11.1709,
      "admin_name1": "Zealand"
    },
    {
      "place_name": "Guldborg",
      "postal_code": "4862",
      "country_code": "DK",
      "latitude": 54.8637,
      "longitude": 11.7322,
      "admin_name1": "Zealand"
    },
    {
      "place_name": "Eskilstrup",
      "postal_code": "4863",
      "country_code": "DK",
      "latitude": 54.8542,
      "longitude": 11.8843,
      "admin_name1": "Zealand"
    },
    {
      "place_name": "Lundby",
      "postal_code": "4750",
      "country_code": "DK",
      "latitude": 55.1098,
      "longitude": 11.8361,
      "admin_name1": "Zealand"
    },
    {
      "place_name": "Gislev",
      "postal_code": "5854",
      "country_code": "DK",
      "latitude": 55.2161,
      "longitude": 10.6006,
      "admin_name1": "South Denmark"
    },
    {
      "place_name": "Odense NØ",
      "postal_code": "5240",
      "country_code": "DK",
      "latitude": 55.4176,
      "longitude": 10.4446,
      "admin_name1": "South Denmark"
    },
    {
      "place_name": "Gesten",
      "postal_code": "6621",
      "country_code": "DK",
      "latitude": 55.5269,
      "longitude": 9.2039,
      "admin_name1": "South Denmark"
    },
    {
      "place_name": "Fredericia",
      "postal_code": "7007",
      "country_code": "DK",
      "latitude": 55.5657,
      "longitude": 9.7526,
      "admin_name1": "Region Syddanmark"
    },
    {
      "place_name": "København Ø",
      "postal_code": "2100",
      "country_code": "DK",
      "latitude": 55.7072,
      "longitude": 12.572,
      "admin_name1": "Capital Region"
    },
    {
      "place_name": "Ballerup",
      "postal_code": "2750",
      "country_code": "DK",
      "latitude": 55.7333,
      "longitude": 12.3566,
      "admin_name1": "Capital Region"
    },
    {
      "place_name": "Hvidovre",
      "postal_code": "2650",
      "country_code": "DK",
      "latitude": 55.6367,
      "longitude": 12.4717,
      "admin_name1": "Capital Region"
    },
    {
      "place_name": "Snekkersten",
      "postal_code": "3070",
      "country_code": "DK",
      "latitude": 56.0119,
      "longitude": 12.5766,
      "admin_name1": "Capital Region"
    },
    {
      "place_name": "Ørsted",
      "postal_code": "8950",
      "country_code": "DK",
      "latitude": 56.5294,
      "longitude": 10.3334,
      "admin_name1": "Central Jutland"
    },
    {
      "place_name": "Mårslet",
      "postal_code": "8320",
      "country_code": "DK",
      "latitude": 56.0698,
      "longitude": 10.1619,
      "admin_name1": "Central Jutland"
    },
    {
      "place_name": "Løsning",
      "postal_code": "8723",
      "country_code": "DK",
      "latitude": 55.8028,
      "longitude": 9.6973,
      "admin_name1": "Central Jutland"
    },
    {
      "place_name": "Øster Assels",
      "postal_code": "7990",
      "country_code": "DK",
      "latitude": 56.7025,
      "longitude": 8.7222,
      "admin_name1": "North Denmark"
    },
    {
      "place_name": "Jerup",
      "postal_code": "9981",
      "country_code": "DK",
      "latitude": 57.5261,
      "longitude": 10.4362,
      "admin_name1": "North Denmark"
    },
    {
      "place_name": "Terndrup",
      "postal_code": "9575",
      "country_code": "DK",
      "latitude": 56.8125,
      "longitude": 10.0575,
      "admin_name1": "North Denmark"
    },
    {
      "place_name": "Løkken",
      "postal_code": "9480",
      "country_code": "DK",
      "latitude": 57.3825,
      "longitude": 9.7439,
      "admin_name1": "North Denmark"
    },
    {
      "place_name": "Køge",
      "postal_code": "4600",
      "country_code": "DK",
      "latitude": 55.4624,
      "longitude": 12.1696,
      "admin_name1": "Zealand"
    },
    {
      "place_name": "Højby",
      "postal_code": "4573",
      "country_code": "DK",
      "latitude": 55.9059,
      "longitude": 11.5548,
      "admin_name1": "Zealand"
    },
    {
      "place_name": "Nyrup",
      "postal_code": "4296",
      "country_code": "DK",
      "latitude": 55.5434,
      "longitude": 11.6494,
      "admin_name1": "Zealand"
    },
    {
      "place_name": "Nakskov",
      "postal_code": "4900",
      "country_code": "DK",
      "latitude": 54.8288,
      "longitude": 11.1277,
      "admin_name1": "Zealand"
    },
    {
      "place_name": "Præstø",
      "postal_code": "4720",
      "country_code": "DK",
      "latitude": 55.1112,
      "longitude": 12.0618,
      "admin_name1": "Zealand"
    },
    {
      "place_name": "Marslev",
      "postal_code": "5290",
      "country_code": "DK",
      "latitude": 55.395,
      "longitude": 10.5238,
      "admin_name1": "South Denmark"
    },
    {
      "place_name": "Tranekær",
      "postal_code": "5953",
      "country_code": "DK",
      "latitude": 55.0605,
      "longitude": 10.8773,
      "admin_name1": "South Denmark"
    },
    {
      "place_name": "Bredebro",
      "postal_code": "6261",
      "country_code": "DK",
      "latitude": 55.0545,
      "longitude": 8.7706,
      "admin_name1": "South Denmark"
    },
    {
      "place_name": "Agerskov",
      "postal_code": "6534",
      "country_code": "DK",
      "latitude": 55.1294,
      "longitude": 9.1426,
      "admin_name1": "South Denmark"
    },
    {
      "place_name": "Kolding",
      "postal_code": "6000",
      "country_code": "DK",
      "latitude": 55.4924,
      "longitude": 9.4798,
      "admin_name1": "South Denmark"
    },
    {
      "place_name": "Sjølund",
      "postal_code": "6093",
      "country_code": "DK",
      "latitude": 55.4074,
      "longitude": 9.5588,
      "admin_name1": "South Denmark"
    },
    {
      "place_name": "Bredsten",
      "postal_code": "7182",
      "country_code": "DK",
      "latitude": 55.7049,
      "longitude": 9.3603,
      "admin_name1": "South Denmark"
    },
    {
      "place_name": "Espergærde",
      "postal_code": "3060",
      "country_code": "DK",
      "latitude": 55.9917,
      "longitude": 12.5419,
      "admin_name1": "Capital Region"
    },
    {
      "place_name": "Trustrup",
      "postal_code": "8570",
      "country_code": "DK",
      "latitude": 56.3567,
      "longitude": 10.7585,
      "admin_name1": "Central Jutland"
    },
    {
      "place_name": "Gjerlev J",
      "postal_code": "8983",
      "country_code": "DK",
      "latitude": 56.5835,
      "longitude": 10.1393,
      "admin_name1": "Central Jutland"
    },
    {
      "place_name": "Brabrand",
      "postal_code": "8220",
      "country_code": "DK",
      "latitude": 56.1578,
      "longitude": 10.1092,
      "admin_name1": "Central Jutland"
    },
    {
      "place_name": "Risskov",
      "postal_code": "8240",
      "country_code": "DK",
      "latitude": 56.1976,
      "longitude": 10.2292,
      "admin_name1": "Central Jutland"
    },
    {
      "place_name": "Tim",
      "postal_code": "6980",
      "country_code": "DK",
      "latitude": 56.1977,
      "longitude": 8.2896,
      "admin_name1": "Central Jutland"
    },
    {
      "place_name": "Juelsminde",
      "postal_code": "7130",
      "country_code": "DK",
      "latitude": 55.7519,
      "longitude": 9.9985,
      "admin_name1": "Central Jutland"
    },
    {
      "place_name": "Vadum",
      "postal_code": "9430",
      "country_code": "DK",
      "latitude": 57.1195,
      "longitude": 9.8578,
      "admin_name1": "North Denmark"
    },
    {
      "place_name": "Bindslev",
      "postal_code": "9881",
      "country_code": "DK",
      "latitude": 57.5707,
      "longitude": 10.2023,
      "admin_name1": "North Denmark"
    },
    {
      "place_name": "Greve",
      "postal_code": "2670",
      "country_code": "DK",
      "latitude": 55.5906,
      "longitude": 12.3018,
      "admin_name1": "Zealand"
    },
    {
      "place_name": "Rønnede",
      "postal_code": "4683",
      "country_code": "DK",
      "latitude": 55.2514,
      "longitude": 12.0302,
      "admin_name1": "Zealand"
    },
    {
      "place_name": "Sejerø",
      "postal_code": "4592",
      "country_code": "DK",
      "latitude": 55.8916,
      "longitude": 11.1334,
      "admin_name1": "Zealand"
    },
    {
      "place_name": "Mern",
      "postal_code": "4735",
      "country_code": "DK",
      "latitude": 55.0464,
      "longitude": 12.0706,
      "admin_name1": "Zealand"
    },
    {
      "place_name": "Svendborg",
      "postal_code": "5700",
      "country_code": "DK",
      "latitude": 55.0528,
      "longitude": 10.6094,
      "admin_name1": "South Denmark"
    },
    {
      "place_name": "Veflinge",
      "postal_code": "5474",
      "country_code": "DK",
      "latitude": 55.4682,
      "longitude": 10.1526,
      "admin_name1": "South Denmark"
    },
    {
      "place_name": "Broager",
      "postal_code": "6310",
      "country_code": "DK",
      "latitude": 54.8859,
      "longitude": 9.6782,
      "admin_name1": "South Denmark"
    },
    {
      "place_name": "Bække",
      "postal_code": "6622",
      "country_code": "DK",
      "latitude": 55.5753,
      "longitude": 9.1472,
      "admin_name1": "South Denmark"
    },
    {
      "place_name": "Glejbjerg",
      "postal_code": "6752",
      "country_code": "DK",
      "latitude": 55.5571,
      "longitude": 8.8302,
      "admin_name1": "South Denmark"
    },
    {
      "place_name": "Rødekro",
      "postal_code": "6230",
      "country_code": "DK",
      "latitude": 55.072,
      "longitude": 9.3241,
      "admin_name1": "South Denmark"
    },
    {
      "place_name": "Randbøl",
      "postal_code": "7183",
      "country_code": "DK",
      "latitude": 55.687,
      "longitude": 9.2611,
      "admin_name1": "South Denmark"
    },
    {
      "place_name": "Brøndby Strand",
      "postal_code": "2660",
      "country_code": "DK",
      "latitude": 55.6227,
      "longitude": 12.417,
      "admin_name1": "Capital Region"
    },
    {
      "place_name": "Bagsværd",
      "postal_code": "2880",
      "country_code": "DK",
      "latitude": 55.7571,
      "longitude": 12.4558,
      "admin_name1": "Capital Region"
    },
    {
      "place_name": "Glostrup",
      "postal_code": "2600",
      "country_code": "DK",
      "latitude": 55.6813,
      "longitude": 12.4039,
      "admin_name1": "Capital Region"
    },
    {
      "place_name": "Albertslund",
      "postal_code": "2620",
      "country_code": "DK",
      "latitude": 55.6671,
      "longitude": 12.349,
      "admin_name1": "Capital Region"
    },
    {
      "place_name": "Kastrup",
      "postal_code": "2770",
      "country_code": "DK",
      "latitude": 55.6227,
      "longitude": 12.6094,
      "admin_name1": "Capital Region"
    },
    {
      "place_name": "Vallensbæk Strand",
      "postal_code": "2665",
      "country_code": "DK",
      "latitude": 55.6218,
      "longitude": 12.3864,
      "admin_name1": "Capital Region"
    },
    {
      "place_name": "Liseleje",
      "postal_code": "3360",
      "country_code": "DK",
      "latitude": 56.0078,
      "longitude": 11.9679,
      "admin_name1": "Capital Region"
    },
    {
      "place_name": "Rønne",
      "postal_code": "3700",
      "country_code": "DK",
      "latitude": 55.1065,
      "longitude": 14.7247,
      "admin_name1": "Capital Region"
    },
    {
      "place_name": "Herning",
      "postal_code": "7400",
      "country_code": "DK",
      "latitude": 56.1331,
      "longitude": 8.9736,
      "admin_name1": "Central Jutland"
    },
    {
      "place_name": "Holstebro",
      "postal_code": "7500",
      "country_code": "DK",
      "latitude": 56.363,
      "longitude": 8.6301,
      "admin_name1": "Central Jutland"
    },
    {
      "place_name": "Silkeborg",
      "postal_code": "8600",
      "country_code": "DK",
      "latitude": 56.1726,
      "longitude": 9.5564,
      "admin_name1": "Central Jutland"
    },
    {
      "place_name": "Lemming",
      "postal_code": "8632",
      "country_code": "DK",
      "latitude": 56.2401,
      "longitude": 9.5379,
      "admin_name1": "Central Jutland"
    },
    {
      "place_name": "Løgstør",
      "postal_code": "9670",
      "country_code": "DK",
      "latitude": 56.9303,
      "longitude": 9.2656,
      "admin_name1": "North Denmark"
    },
    {
      "place_name": "Nørager",
      "postal_code": "9610",
      "country_code": "DK",
      "latitude": 56.7454,
      "longitude": 9.6701,
      "admin_name1": "North Denmark"
    },
    {
      "place_name": "Aalborg Øst",
      "postal_code": "9220",
      "country_code": "DK",
      "latitude": 57.0291,
      "longitude": 9.9939,
      "admin_name1": "North Denmark"
    },
    {
      "place_name": "Bjæverskov",
      "postal_code": "4632",
      "country_code": "DK",
      "latitude": 55.4571,
      "longitude": 12.0418,
      "admin_name1": "Zealand"
    },
    {
      "place_name": "Ugerløse",
      "postal_code": "4350",
      "country_code": "DK",
      "latitude": 55.5881,
      "longitude": 11.6489,
      "admin_name1": "Zealand"
    },
    {
      "place_name": "Svinninge",
      "postal_code": "4520",
      "country_code": "DK",
      "latitude": 55.7188,
      "longitude": 11.4769,
      "admin_name1": "Zealand"
    },
    {
      "place_name": "Snertinge",
      "postal_code": "4460",
      "country_code": "DK",
      "latitude": 55.7118,
      "longitude": 11.3801,
      "admin_name1": "Zealand"
    },
    {
      "place_name": "Fejø",
      "postal_code": "4944",
      "country_code": "DK",
      "latitude": 54.9441,
      "longitude": 11.4089,
      "admin_name1": "Zealand"
    },
    {
      "place_name": "Fuglebjerg",
      "postal_code": "4250",
      "country_code": "DK",
      "latitude": 55.3092,
      "longitude": 11.5482,
      "admin_name1": "Zealand"
    },
    {
      "place_name": "Aarup",
      "postal_code": "5560",
      "country_code": "DK",
      "latitude": 55.3759,
      "longitude": 10.0484,
      "admin_name1": "South Denmark"
    },
    {
      "place_name": "Haarby",
      "postal_code": "5683",
      "country_code": "DK",
      "latitude": 55.2123,
      "longitude": 10.1075,
      "admin_name1": "South Denmark"
    },
    {
      "place_name": "Haderslev",
      "postal_code": "6100",
      "country_code": "DK",
      "latitude": 55.2431,
      "longitude": 9.5239,
      "admin_name1": "South Denmark"
    },
    {
      "place_name": "Ansager",
      "postal_code": "6823",
      "country_code": "DK",
      "latitude": 55.7173,
      "longitude": 8.7474,
      "admin_name1": "South Denmark"
    },
    {
      "place_name": "Bjert",
      "postal_code": "6091",
      "country_code": "DK",
      "latitude": 55.4528,
      "longitude": 9.5657,
      "admin_name1": "South Denmark"
    },
    {
      "place_name": "Hellerup",
      "postal_code": "2900",
      "country_code": "DK",
      "latitude": 55.7344,
      "longitude": 12.5601,
      "admin_name1": "Capital Region"
    },
    {
      "place_name": "Nivå",
      "postal_code": "2990",
      "country_code": "DK",
      "latitude": 55.9374,
      "longitude": 12.5002,
      "admin_name1": "Capital Region"
    },
    {
      "place_name": "Tikøb",
      "postal_code": "3080",
      "country_code": "DK",
      "latitude": 56.029,
      "longitude": 12.4465,
      "admin_name1": "Capital Region"
    },
    {
      "place_name": "Kvistgård",
      "postal_code": "3490",
      "country_code": "DK",
      "latitude": 55.9961,
      "longitude": 12.501,
      "admin_name1": "Capital Region"
    },
    {
      "place_name": "Hundslund",
      "postal_code": "8350",
      "country_code": "DK",
      "latitude": 55.913,
      "longitude": 10.0565,
      "admin_name1": "Central Jutland"
    },
    {
      "place_name": "Aarhus N",
      "postal_code": "8200",
      "country_code": "DK",
      "latitude": 56.1888,
      "longitude": 10.1901,
      "admin_name1": "Central Jutland"
    },
    {
      "place_name": "Nørre Snede",
      "postal_code": "8766",
      "country_code": "DK",
      "latitude": 55.9653,
      "longitude": 9.3974,
      "admin_name1": "Central Jutland"
    },
    {
      "place_name": "Redsted M",
      "postal_code": "7970",
      "country_code": "DK",
      "latitude": 56.741,
      "longitude": 8.6453,
      "admin_name1": "North Denmark"
    },
    {
      "place_name": "Aalborg SV",
      "postal_code": "9200",
      "country_code": "DK",
      "latitude": 57.0116,
      "longitude": 9.8702,
      "admin_name1": "North Denmark"
    },
    {
      "place_name": "Holbæk",
      "postal_code": "4300",
      "country_code": "DK",
      "latitude": 55.7186,
      "longitude": 11.7069,
      "admin_name1": "Zealand"
    },
    {
      "place_name": "Regstrup",
      "postal_code": "4420",
      "country_code": "DK",
      "latitude": 55.6664,
      "longitude": 11.6185,
      "admin_name1": "Zealand"
    },
    {
      "place_name": "Ringsted",
      "postal_code": "4100",
      "country_code": "DK",
      "latitude": 55.4442,
      "longitude": 11.8065,
      "admin_name1": "Zealand"
    },
    {
      "place_name": "Gedser",
      "postal_code": "4874",
      "country_code": "DK",
      "latitude": 54.5953,
      "longitude": 11.944,
      "admin_name1": "Zealand"
    },
    {
      "place_name": "Asperup",
      "postal_code": "5466",
      "country_code": "DK",
      "latitude": 55.4964,
      "longitude": 9.9025,
      "admin_name1": "South Denmark"
    },
    {
      "place_name": "Odense S",
      "postal_code": "5260",
      "country_code": "DK",
      "latitude": 55.3462,
      "longitude": 10.3902,
      "admin_name1": "South Denmark"
    },
    {
      "place_name": "Bevtoft",
      "postal_code": "6541",
      "country_code": "DK",
      "latitude": 55.198,
      "longitude": 9.204,
      "admin_name1": "South Denmark"
    },
    {
      "place_name": "Sønder Omme",
      "postal_code": "7260",
      "country_code": "DK",
      "latitude": 55.8425,
      "longitude": 8.8964,
      "admin_name1": "South Denmark"
    },
    {
      "place_name": "Skærbæk",
      "postal_code": "6780",
      "country_code": "DK",
      "latitude": 55.1659,
      "longitude": 8.7766,
      "admin_name1": "South Denmark"
    },
    {
      "place_name": "København N",
      "postal_code": "2200",
      "country_code": "DK",
      "latitude": 55.6948,
      "longitude": 12.5503,
      "admin_name1": "Capital Region"
    },
    {
      "place_name": "Dyssegård",
      "postal_code": "2870",
      "country_code": "DK",
      "latitude": 55.7328,
      "longitude": 12.5268,
      "admin_name1": "Capital Region"
    },
    {
      "place_name": "Herlev",
      "postal_code": "2730",
      "country_code": "DK",
      "latitude": 55.7338,
      "longitude": 12.4278,
      "admin_name1": "Capital Region"
    },
    {
      "place_name": "Rødovre",
      "postal_code": "2610",
      "country_code": "DK",
      "latitude": 55.6889,
      "longitude": 12.451,
      "admin_name1": "Capital Region"
    },
    {
      "place_name": "Hillerød",
      "postal_code": "3400",
      "country_code": "DK",
      "latitude": 55.9359,
      "longitude": 12.2918,
      "admin_name1": "Capital Region"
    },
    {
      "place_name": "Vedbæk",
      "postal_code": "2950",
      "country_code": "DK",
      "latitude": 55.8461,
      "longitude": 12.5454,
      "admin_name1": "Capital Region"
    },
    {
      "place_name": "Lemvig",
      "postal_code": "7620",
      "country_code": "DK",
      "latitude": 56.541,
      "longitude": 8.292,
      "admin_name1": "Central Jutland"
    },
    {
      "place_name": "Harboøre",
      "postal_code": "7673",
      "country_code": "DK",
      "latitude": 56.6012,
      "longitude": 8.1592,
      "admin_name1": "Central Jutland"
    },
    {
      "place_name": "Knebel",
      "postal_code": "8420",
      "country_code": "DK",
      "latitude": 56.1792,
      "longitude": 10.4728,
      "admin_name1": "Central Jutland"
    },
    {
      "place_name": "Glesborg",
      "postal_code": "8585",
      "country_code": "DK",
      "latitude": 56.5089,
      "longitude": 10.6657,
      "admin_name1": "Central Jutland"
    },
    {
      "place_name": "Ikast",
      "postal_code": "7430",
      "country_code": "DK",
      "latitude": 56.1334,
      "longitude": 9.1573,
      "admin_name1": "Central Jutland"
    },
    {
      "place_name": "Aars",
      "postal_code": "9600",
      "country_code": "DK",
      "latitude": 56.8062,
      "longitude": 9.4964,
      "admin_name1": "North Denmark"
    },
    {
      "place_name": "Omø",
      "postal_code": "4245",
      "country_code": "DK",
      "latitude": 55.1575,
      "longitude": 11.1527,
      "admin_name1": "Zealand"
    },
    {
      "place_name": "Idestrup",
      "postal_code": "4872",
      "country_code": "DK",
      "latitude": 54.7247,
      "longitude": 11.9782,
      "admin_name1": "Zealand"
    },
    {
      "place_name": "Nørre Aaby",
      "postal_code": "5580",
      "country_code": "DK",
      "latitude": 55.4544,
      "longitude": 9.8711,
      "admin_name1": "South Denmark"
    },
    {
      "place_name": "Ringe",
      "postal_code": "5750",
      "country_code": "DK",
      "latitude": 55.2326,
      "longitude": 10.4568,
      "admin_name1": "South Denmark"
    },
    {
      "place_name": "Billum",
      "postal_code": "6852",
      "country_code": "DK",
      "latitude": 55.6137,
      "longitude": 8.3274,
      "admin_name1": "South Denmark"
    },
    {
      "place_name": "Vejen",
      "postal_code": "6600",
      "country_code": "DK",
      "latitude": 55.4789,
      "longitude": 9.1389,
      "admin_name1": "South Denmark"
    },
    {
      "place_name": "Hovborg",
      "postal_code": "6682",
      "country_code": "DK",
      "latitude": 55.6063,
      "longitude": 8.9381,
      "admin_name1": "South Denmark"
    },
    {
      "place_name": "Hejls",
      "postal_code": "6094",
      "country_code": "DK",
      "latitude": 55.3733,
      "longitude": 9.5986,
      "admin_name1": "South Denmark"
    },
    {
      "place_name": "Valby",
      "postal_code": "2500",
      "country_code": "DK",
      "latitude": 55.661,
      "longitude": 12.5006,
      "admin_name1": "Capital Region"
    },
    {
      "place_name": "Vanløse",
      "postal_code": "2720",
      "country_code": "DK",
      "latitude": 55.6896,
      "longitude": 12.4869,
      "admin_name1": "Capital Region"
    },
    {
      "place_name": "Skibby",
      "postal_code": "4050",
      "country_code": "DK",
      "latitude": 55.7585,
      "longitude": 11.9552,
      "admin_name1": "Capital Region"
    },
    {
      "place_name": "Tisvildeleje",
      "postal_code": "3220",
      "country_code": "DK",
      "latitude": 56.0579,
      "longitude": 12.0915,
      "admin_name1": "Capital Region"
    },
    {
      "place_name": "Vildbjerg",
      "postal_code": "7480",
      "country_code": "DK",
      "latitude": 56.1877,
      "longitude": 8.7674,
      "admin_name1": "Central Jutland"
    },
    {
      "place_name": "Haderup",
      "postal_code": "7540",
      "country_code": "DK",
      "latitude": 56.3566,
      "longitude": 8.9744,
      "admin_name1": "Central Jutland"
    },
    {
      "place_name": "Klarup",
      "postal_code": "9270",
      "country_code": "DK",
      "latitude": 57.0119,
      "longitude": 10.05,
      "admin_name1": "North Denmark"
    },
    {
      "place_name": "Lille Skensved",
      "postal_code": "4623",
      "country_code": "DK",
      "latitude": 55.4975,
      "longitude": 12.096,
      "admin_name1": "Zealand"
    },
    {
      "place_name": "Fjenneslev",
      "postal_code": "4173",
      "country_code": "DK",
      "latitude": 55.4334,
      "longitude": 11.6617,
      "admin_name1": "Zealand"
    },
    {
      "place_name": "Stokkemarke",
      "postal_code": "4952",
      "country_code": "DK",
      "latitude": 54.843,
      "longitude": 11.3728,
      "admin_name1": "Zealand"
    },
    {
      "place_name": "Ryslinge",
      "postal_code": "5856",
      "country_code": "DK",
      "latitude": 55.2371,
      "longitude": 10.5366,
      "admin_name1": "South Denmark"
    },
    {
      "place_name": "Stenstrup",
      "postal_code": "5771",
      "country_code": "DK",
      "latitude": 55.1272,
      "longitude": 10.5131,
      "admin_name1": "South Denmark"
    },
    {
      "place_name": "Hesselager",
      "postal_code": "5874",
      "country_code": "DK",
      "latitude": 55.1711,
      "longitude": 10.766,
      "admin_name1": "South Denmark"
    },
    {
      "place_name": "Varde",
      "postal_code": "6800",
      "country_code": "DK",
      "latitude": 55.6349,
      "longitude": 8.5033,
      "admin_name1": "South Denmark"
    },
    {
      "place_name": "Blåvand",
      "postal_code": "6857",
      "country_code": "DK",
      "latitude": 55.5542,
      "longitude": 8.1504,
      "admin_name1": "South Denmark"
    },
    {
      "place_name": "Christiansfeld",
      "postal_code": "6070",
      "country_code": "DK",
      "latitude": 55.3609,
      "longitude": 9.4699,
      "admin_name1": "South Denmark"
    },
    {
      "place_name": "Kokkedal",
      "postal_code": "2980",
      "country_code": "DK",
      "latitude": 55.9115,
      "longitude": 12.4889,
      "admin_name1": "Capital Region"
    },
    {
      "place_name": "Nærum",
      "postal_code": "2850",
      "country_code": "DK",
      "latitude": 55.8182,
      "longitude": 12.533,
      "admin_name1": "Capital Region"
    },
    {
      "place_name": "Horsens",
      "postal_code": "8700",
      "country_code": "DK",
      "latitude": 55.8623,
      "longitude": 9.8468,
      "admin_name1": "Central Jutland"
    },
    {
      "place_name": "Struer",
      "postal_code": "7600",
      "country_code": "DK",
      "latitude": 56.4925,
      "longitude": 8.5722,
      "admin_name1": "Central Jutland"
    },
    {
      "place_name": "Randers SØ",
      "postal_code": "8960",
      "country_code": "DK",
      "latitude": 56.4422,
      "longitude": 10.1127,
      "admin_name1": "Central Jutland"
    },
    {
      "place_name": "Beder",
      "postal_code": "8330",
      "country_code": "DK",
      "latitude": 56.0578,
      "longitude": 10.2156,
      "admin_name1": "Central Jutland"
    },
    {
      "place_name": "Barrit",
      "postal_code": "7150",
      "country_code": "DK",
      "latitude": 55.7131,
      "longitude": 9.8894,
      "admin_name1": "Central Jutland"
    },
    {
      "place_name": "Rask Mølle",
      "postal_code": "8763",
      "country_code": "DK",
      "latitude": 55.875,
      "longitude": 9.6114,
      "admin_name1": "Central Jutland"
    },
    {
      "place_name": "Skals",
      "postal_code": "8832",
      "country_code": "DK",
      "latitude": 56.5807,
      "longitude": 9.3716,
      "admin_name1": "Central Jutland"
    },
    {
      "place_name": "Erslev",
      "postal_code": "7950",
      "country_code": "DK",
      "latitude": 56.8472,
      "longitude": 8.7063,
      "admin_name1": "North Denmark"
    },
    {
      "place_name": "Læsø",
      "postal_code": "9940",
      "country_code": "DK",
      "latitude": 57.288,
      "longitude": 11.0146,
      "admin_name1": "North Denmark"
    },
    {
      "place_name": "Jyllinge",
      "postal_code": "4040",
      "country_code": "DK",
      "latitude": 55.7585,
      "longitude": 12.1069,
      "admin_name1": "Zealand"
    },
    {
      "place_name": "Nørre Asmindrup",
      "postal_code": "4572",
      "country_code": "DK",
      "latitude": 55.8798,
      "longitude": 11.6151,
      "admin_name1": "Zealand"
    },
    {
      "place_name": "Agersø",
      "postal_code": "4244",
      "country_code": "DK",
      "latitude": 55.2155,
      "longitude": 11.186,
      "admin_name1": "Zealand"
    },
    {
      "place_name": "Hårlev",
      "postal_code": "4652",
      "country_code": "DK",
      "latitude": 55.3509,
      "longitude": 12.2291,
      "admin_name1": "Zealand"
    },
    {
      "place_name": "Sorø",
      "postal_code": "4180",
      "country_code": "DK",
      "latitude": 55.4361,
      "longitude": 11.5633,
      "admin_name1": "Zealand"
    },
    {
      "place_name": "Errindlev",
      "postal_code": "4895",
      "country_code": "DK",
      "latitude": 54.6636,
      "longitude": 11.5015,
      "admin_name1": "Zealand"
    },
    {
      "place_name": "Morud",
      "postal_code": "5462",
      "country_code": "DK",
      "latitude": 55.4437,
      "longitude": 10.1928,
      "admin_name1": "South Denmark"
    },
    {
      "place_name": "Gredstedbro",
      "postal_code": "6771",
      "country_code": "DK",
      "latitude": 55.4033,
      "longitude": 8.7495,
      "admin_name1": "South Denmark"
    },
    {
      "place_name": "Fanø",
      "postal_code": "6720",
      "country_code": "DK",
      "latitude": 55.4173,
      "longitude": 8.4037,
      "admin_name1": "South Denmark"
    },
    {
      "place_name": "Udland",
      "postal_code": "0960",
      "country_code": "DK",
      "latitude": 56.804,
      "longitude": 9.5144,
      "admin_name1": "Region Hovedstaden"
    },
    {
      "place_name": "Gørløse",
      "postal_code": "3330",
      "country_code": "DK",
      "latitude": 55.8839,
      "longitude": 12.1997,
      "admin_name1": "Capital Region"
    },
    {
      "place_name": "Hørsholm",
      "postal_code": "2970",
      "country_code": "DK",
      "latitude": 55.8892,
      "longitude": 12.4963,
      "admin_name1": "Capital Region"
    },
    {
      "place_name": "Them",
      "postal_code": "8653",
      "country_code": "DK",
      "latitude": 56.0898,
      "longitude": 9.5503,
      "admin_name1": "Central Jutland"
    },
    {
      "place_name": "Nykøbing M",
      "postal_code": "7900",
      "country_code": "DK",
      "latitude": 56.8107,
      "longitude": 8.8325,
      "admin_name1": "North Denmark"
    },
    {
      "place_name": "Karby",
      "postal_code": "7960",
      "country_code": "DK",
      "latitude": 56.7533,
      "longitude": 8.5789,
      "admin_name1": "North Denmark"
    },
    {
      "place_name": "Brønderslev",
      "postal_code": "9700",
      "country_code": "DK",
      "latitude": 57.273,
      "longitude": 9.9482,
      "admin_name1": "North Denmark"
    },
    {
      "place_name": "Dybvad",
      "postal_code": "9352",
      "country_code": "DK",
      "latitude": 57.2803,
      "longitude": 10.3281,
      "admin_name1": "North Denmark"
    },
    {
      "place_name": "Gedsted",
      "postal_code": "9631",
      "country_code": "DK",
      "latitude": 56.6911,
      "longitude": 9.3438,
      "admin_name1": "North Denmark"
    },
    {
      "place_name": "Korsør",
      "postal_code": "4220",
      "country_code": "DK",
      "latitude": 55.3415,
      "longitude": 11.1549,
      "admin_name1": "Zealand"
    },
    {
      "place_name": "Rødvig Stevns",
      "postal_code": "4673",
      "country_code": "DK",
      "latitude": 55.2576,
      "longitude": 12.3671,
      "admin_name1": "Zealand"
    },
    {
      "place_name": "Bogø By",
      "postal_code": "4793",
      "country_code": "DK",
      "latitude": 54.9233,
      "longitude": 12.0508,
      "admin_name1": "Zealand"
    },
    {
      "place_name": "Gelsted",
      "postal_code": "5591",
      "country_code": "DK",
      "latitude": 55.3948,
      "longitude": 9.9623,
      "admin_name1": "South Denmark"
    },
    {
      "place_name": "Vissenbjerg",
      "postal_code": "5492",
      "country_code": "DK",
      "latitude": 55.3875,
      "longitude": 10.137,
      "admin_name1": "South Denmark"
    },
    {
      "place_name": "Gørding",
      "postal_code": "6690",
      "country_code": "DK",
      "latitude": 55.4732,
      "longitude": 8.8019,
      "admin_name1": "South Denmark"
    },
    {
      "place_name": "Årre",
      "postal_code": "6818",
      "country_code": "DK",
      "latitude": 55.5748,
      "longitude": 8.6743,
      "admin_name1": "South Denmark"
    },
    {
      "place_name": "Viuf",
      "postal_code": "6052",
      "country_code": "DK",
      "latitude": 55.5882,
      "longitude": 9.4914,
      "admin_name1": "South Denmark"
    },
    {
      "place_name": "Vonge",
      "postal_code": "7173",
      "country_code": "DK",
      "latitude": 55.8628,
      "longitude": 9.4181,
      "admin_name1": "South Denmark"
    },
    {
      "place_name": "Aarhus C",
      "postal_code": "8100",
      "country_code": "DK",
      "latitude": 56.1567,
      "longitude": 10.2108,
      "admin_name1": "Region Midtjylland"
    },
    {
      "place_name": "København S",
      "postal_code": "2300",
      "country_code": "DK",
      "latitude": 55.6511,
      "longitude": 12.603,
      "admin_name1": "Capital Region"
    },
    {
      "place_name": "Brøndby",
      "postal_code": "2605",
      "country_code": "DK",
      "latitude": 55.6527,
      "longitude": 12.4132,
      "admin_name1": "Capital Region"
    },
    {
      "place_name": "Hedehusene",
      "postal_code": "2640",
      "country_code": "DK",
      "latitude": 55.6508,
      "longitude": 12.1977,
      "admin_name1": "Capital Region"
    },
    {
      "place_name": "Frederikssund",
      "postal_code": "3600",
      "country_code": "DK",
      "latitude": 55.8383,
      "longitude": 12.0732,
      "admin_name1": "Capital Region"
    },
    {
      "place_name": "Ans By",
      "postal_code": "8643",
      "country_code": "DK",
      "latitude": 56.2993,
      "longitude": 9.6023,
      "admin_name1": "Central Jutland"
    },
    {
      "place_name": "Hvide Sande",
      "postal_code": "6960",
      "country_code": "DK",
      "latitude": 55.9573,
      "longitude": 8.1433,
      "admin_name1": "Central Jutland"
    },
    {
      "place_name": "Spøttrup",
      "postal_code": "7860",
      "country_code": "DK",
      "latitude": 56.615,
      "longitude": 8.8218,
      "admin_name1": "Central Jutland"
    },
    {
      "place_name": "Hurup Thy",
      "postal_code": "7760",
      "country_code": "DK",
      "latitude": 56.7306,
      "longitude": 8.4147,
      "admin_name1": "North Denmark"
    },
    {
      "place_name": "Vodskov",
      "postal_code": "9310",
      "country_code": "DK",
      "latitude": 57.1002,
      "longitude": 10.0665,
      "admin_name1": "North Denmark"
    },
    {
      "place_name": "Hals",
      "postal_code": "9370",
      "country_code": "DK",
      "latitude": 57.0316,
      "longitude": 10.3312,
      "admin_name1": "North Denmark"
    },
    {
      "place_name": "Hjørring",
      "postal_code": "9800",
      "country_code": "DK",
      "latitude": 57.4654,
      "longitude": 9.9685,
      "admin_name1": "North Denmark"
    },
    {
      "place_name": "Gadstrup",
      "postal_code": "4621",
      "country_code": "DK",
      "latitude": 55.5705,
      "longitude": 12.1032,
      "admin_name1": "Zealand"
    },
    {
      "place_name": "Hørve",
      "postal_code": "4534",
      "country_code": "DK",
      "latitude": 55.7538,
      "longitude": 11.4328,
      "admin_name1": "Zealand"
    },
    {
      "place_name": "Eskebjerg",
      "postal_code": "4593",
      "country_code": "DK",
      "latitude": 55.7022,
      "longitude": 11.274,
      "admin_name1": "Zealand"
    },
    {
      "place_name": "Dianalund",
      "postal_code": "4293",
      "country_code": "DK",
      "latitude": 55.5331,
      "longitude": 11.4889,
      "admin_name1": "Zealand"
    },
    {
      "place_name": "Lejre",
      "postal_code": "4320",
      "country_code": "DK",
      "latitude": 55.5819,
      "longitude": 11.9668,
      "admin_name1": "Zealand"
    },
    {
      "place_name": "Glamsbjerg",
      "postal_code": "5620",
      "country_code": "DK",
      "latitude": 55.2758,
      "longitude": 10.0941,
      "admin_name1": "South Denmark"
    },
    {
      "place_name": "Nordborg",
      "postal_code": "6430",
      "country_code": "DK",
      "latitude": 55.0331,
      "longitude": 9.7881,
      "admin_name1": "South Denmark"
    },
    {
      "place_name": "Højer",
      "postal_code": "6280",
      "country_code": "DK",
      "latitude": 54.973,
      "longitude": 8.704,
      "admin_name1": "South Denmark"
    },
    {
      "place_name": "Vejle",
      "postal_code": "7100",
      "country_code": "DK",
      "latitude": 55.7042,
      "longitude": 9.5245,
      "admin_name1": "South Denmark"
    },
    {
      "place_name": "København SV",
      "postal_code": "2450",
      "country_code": "DK",
      "latitude": 55.6484,
      "longitude": 12.5359,
      "admin_name1": "Capital Region"
    },
    {
      "place_name": "Humlebæk",
      "postal_code": "3050",
      "country_code": "DK",
      "latitude": 55.9604,
      "longitude": 12.5221,
      "admin_name1": "Capital Region"
    },
    {
      "place_name": "Skævinge",
      "postal_code": "3320",
      "country_code": "DK",
      "latitude": 55.9179,
      "longitude": 12.1528,
      "admin_name1": "Capital Region"
    },
    {
      "place_name": "Veksø Sjælland",
      "postal_code": "3670",
      "country_code": "DK",
      "latitude": 55.7576,
      "longitude": 12.2386,
      "admin_name1": "Capital Region"
    },
    {
      "place_name": "Fårvang",
      "postal_code": "8882",
      "country_code": "DK",
      "latitude": 56.2703,
      "longitude": 9.7072,
      "admin_name1": "Central Jutland"
    },
    {
      "place_name": "Aarhus V",
      "postal_code": "8210",
      "country_code": "DK",
      "latitude": 56.1712,
      "longitude": 10.1605,
      "admin_name1": "Central Jutland"
    },
    {
      "place_name": "Frederikshavn",
      "postal_code": "9900",
      "country_code": "DK",
      "latitude": 57.4404,
      "longitude": 10.5041,
      "admin_name1": "North Denmark"
    },
    {
      "place_name": "Aalborg",
      "postal_code": "9000",
      "country_code": "DK",
      "latitude": 57.0394,
      "longitude": 9.9135,
      "admin_name1": "North Denmark"
    },
    {
      "place_name": "Nørresundby",
      "postal_code": "9400",
      "country_code": "DK",
      "latitude": 57.0698,
      "longitude": 9.9249,
      "admin_name1": "North Denmark"
    },
    {
      "place_name": "Roskilde",
      "postal_code": "4000",
      "country_code": "DK",
      "latitude": 55.6513,
      "longitude": 12.0958,
      "admin_name1": "Zealand"
    },
    {
      "place_name": "Svebølle",
      "postal_code": "4470",
      "country_code": "DK",
      "latitude": 55.6511,
      "longitude": 11.2885,
      "admin_name1": "Zealand"
    },
    {
      "place_name": "Vemmelev",
      "postal_code": "4241",
      "country_code": "DK",
      "latitude": 55.3612,
      "longitude": 11.2565,
      "admin_name1": "Zealand"
    },
    {
      "place_name": "Strøby",
      "postal_code": "4671",
      "country_code": "DK",
      "latitude": 55.395,
      "longitude": 12.2964,
      "admin_name1": "Zealand"
    },
    {
      "place_name": "Maribo",
      "postal_code": "4930",
      "country_code": "DK",
      "latitude": 54.7737,
      "longitude": 11.4972,
      "admin_name1": "Zealand"
    },
    {
      "place_name": "Stege",
      "postal_code": "4780",
      "country_code": "DK",
      "latitude": 54.9904,
      "longitude": 12.2915,
      "admin_name1": "Zealand"
    },
    {
      "place_name": "Agedrup",
      "postal_code": "5320",
      "country_code": "DK",
      "latitude": 55.4259,
      "longitude": 10.4757,
      "admin_name1": "South Denmark"
    },
    {
      "place_name": "Vester Skerninge",
      "postal_code": "5762",
      "country_code": "DK",
      "latitude": 55.0722,
      "longitude": 10.4594,
      "admin_name1": "South Denmark"
    },
    {
      "place_name": "Strynø",
      "postal_code": "5943",
      "country_code": "DK",
      "latitude": 54.9049,
      "longitude": 10.6108,
      "admin_name1": "South Denmark"
    },
    {
      "place_name": "Hejnsvig",
      "postal_code": "7250",
      "country_code": "DK",
      "latitude": 55.6884,
      "longitude": 8.9799,
      "admin_name1": "South Denmark"
    },
    {
      "place_name": "Sydals",
      "postal_code": "6470",
      "country_code": "DK",
      "latitude": 54.9011,
      "longitude": 9.9565,
      "admin_name1": "South Denmark"
    },
    {
      "place_name": "Ølgod",
      "postal_code": "6870",
      "country_code": "DK",
      "latitude": 55.8017,
      "longitude": 8.6196,
      "admin_name1": "South Denmark"
    },
    {
      "place_name": "Odense C",
      "postal_code": "5100",
      "country_code": "DK",
      "latitude": 55.3959,
      "longitude": 10.3883,
      "admin_name1": "Region Syddanmark"
    },
    {
      "place_name": "Holte",
      "postal_code": "2840",
      "country_code": "DK",
      "latitude": 55.8192,
      "longitude": 12.4855,
      "admin_name1": "Capital Region"
    },
    {
      "place_name": "Birkerød",
      "postal_code": "3460",
      "country_code": "DK",
      "latitude": 55.8423,
      "longitude": 12.4296,
      "admin_name1": "Capital Region"
    },
    {
      "place_name": "Smørum",
      "postal_code": "2765",
      "country_code": "DK",
      "latitude": 55.7361,
      "longitude": 12.2977,
      "admin_name1": "Capital Region"
    },
    {
      "place_name": "Allinge",
      "postal_code": "3770",
      "country_code": "DK",
      "latitude": 55.2654,
      "longitude": 14.805,
      "admin_name1": "Capital Region"
    },
    {
      "place_name": "Fårup",
      "postal_code": "8990",
      "country_code": "DK",
      "latitude": 56.5456,
      "longitude": 9.879,
      "admin_name1": "Central Jutland"
    },
    {
      "place_name": "Hjortshøj",
      "postal_code": "8530",
      "country_code": "DK",
      "latitude": 56.2628,
      "longitude": 10.2499,
      "admin_name1": "Central Jutland"
    },
    {
      "place_name": "Ejstrupholm",
      "postal_code": "7361",
      "country_code": "DK",
      "latitude": 55.9894,
      "longitude": 9.2921,
      "admin_name1": "Central Jutland"
    },
    {
      "place_name": "Roslev",
      "postal_code": "7870",
      "country_code": "DK",
      "latitude": 56.7234,
      "longitude": 8.9892,
      "admin_name1": "Central Jutland"
    },
    {
      "place_name": "Løgstrup",
      "postal_code": "8831",
      "country_code": "DK",
      "latitude": 56.519,
      "longitude": 9.3224,
      "admin_name1": "Central Jutland"
    },
    {
      "place_name": "Møldrup",
      "postal_code": "9632",
      "country_code": "DK",
      "latitude": 56.6077,
      "longitude": 9.5031,
      "admin_name1": "Central Jutland"
    },
    {
      "place_name": "Vesløs",
      "postal_code": "7742",
      "country_code": "DK",
      "latitude": 57.022,
      "longitude": 8.9721,
      "admin_name1": "North Denmark"
    },
    {
      "place_name": "Strandby",
      "postal_code": "9970",
      "country_code": "DK",
      "latitude": 57.4956,
      "longitude": 10.4893,
      "admin_name1": "North Denmark"
    },
    {
      "place_name": "Karise",
      "postal_code": "4653",
      "country_code": "DK",
      "latitude": 55.3055,
      "longitude": 12.1959,
      "admin_name1": "Zealand"
    },
    {
      "place_name": "Ruds Vedby",
      "postal_code": "4291",
      "country_code": "DK",
      "latitude": 55.5393,
      "longitude": 11.3794,
      "admin_name1": "Zealand"
    },
    {
      "place_name": "Harpelunde",
      "postal_code": "4912",
      "country_code": "DK",
      "latitude": 54.8771,
      "longitude": 11.0719,
      "admin_name1": "Zealand"
    },
    {
      "place_name": "Horslunde",
      "postal_code": "4913",
      "country_code": "DK",
      "latitude": 54.9212,
      "longitude": 11.2104,
      "admin_name1": "Zealand"
    },
    {
      "place_name": "Sandved",
      "postal_code": "4262",
      "country_code": "DK",
      "latitude": 55.2534,
      "longitude": 11.5218,
      "admin_name1": "Zealand"
    },
    {
      "place_name": "Næstved",
      "postal_code": "4700",
      "country_code": "DK",
      "latitude": 55.2237,
      "longitude": 11.7629,
      "admin_name1": "Zealand"
    },
    {
      "place_name": "Harndrup",
      "postal_code": "5463",
      "country_code": "DK",
      "latitude": 55.4572,
      "longitude": 10.0226,
      "admin_name1": "South Denmark"
    },
    {
      "place_name": "Mesinge",
      "postal_code": "5370",
      "country_code": "DK",
      "latitude": 55.508,
      "longitude": 10.629,
      "admin_name1": "South Denmark"
    },
    {
      "place_name": "Langeskov",
      "postal_code": "5550",
      "country_code": "DK",
      "latitude": 55.3614,
      "longitude": 10.5855,
      "admin_name1": "South Denmark"
    },
    {
      "place_name": "Vejers Strand",
      "postal_code": "6853",
      "country_code": "DK",
      "latitude": 55.6247,
      "longitude": 8.1316,
      "admin_name1": "South Denmark"
    },
    {
      "place_name": "Jordrup",
      "postal_code": "6064",
      "country_code": "DK",
      "latitude": 55.5509,
      "longitude": 9.3138,
      "admin_name1": "South Denmark"
    },
    {
      "place_name": "Hellebæk",
      "postal_code": "3150",
      "country_code": "DK",
      "latitude": 56.0668,
      "longitude": 12.5577,
      "admin_name1": "Capital Region"
    },
    {
      "place_name": "Hundested",
      "postal_code": "3390",
      "country_code": "DK",
      "latitude": 55.9662,
      "longitude": 11.8782,
      "admin_name1": "Capital Region"
    },
    {
      "place_name": "Rønde",
      "postal_code": "8410",
      "country_code": "DK",
      "latitude": 56.3108,
      "longitude": 10.4664,
      "admin_name1": "Central Jutland"
    },
    {
      "place_name": "Kolind",
      "postal_code": "8560",
      "country_code": "DK",
      "latitude": 56.3532,
      "longitude": 10.5908,
      "admin_name1": "Central Jutland"
    },
    {
      "place_name": "Solbjerg",
      "postal_code": "8355",
      "country_code": "DK",
      "latitude": 56.0396,
      "longitude": 10.0881,
      "admin_name1": "Central Jutland"
    },
    {
      "place_name": "Skjern",
      "postal_code": "6900",
      "country_code": "DK",
      "latitude": 55.9668,
      "longitude": 8.4999,
      "admin_name1": "Central Jutland"
    },
    {
      "place_name": "Suldrup",
      "postal_code": "9541",
      "country_code": "DK",
      "latitude": 56.8479,
      "longitude": 9.6904,
      "admin_name1": "North Denmark"
    },
    {
      "place_name": "Kongerslev",
      "postal_code": "9293",
      "country_code": "DK",
      "latitude": 56.8928,
      "longitude": 10.1153,
      "admin_name1": "North Denmark"
    },
    {
      "place_name": "Herfølge",
      "postal_code": "4681",
      "country_code": "DK",
      "latitude": 55.4109,
      "longitude": 12.1414,
      "admin_name1": "Zealand"
    },
    {
      "place_name": "Faxe Ladeplads",
      "postal_code": "4654",
      "country_code": "DK",
      "latitude": 55.2174,
      "longitude": 12.1601,
      "admin_name1": "Zealand"
    },
    {
      "place_name": "Klippinge",
      "postal_code": "4672",
      "country_code": "DK",
      "latitude": 55.3553,
      "longitude": 12.3319,
      "admin_name1": "Zealand"
    },
    {
      "place_name": "Munke Bjergby",
      "postal_code": "4190",
      "country_code": "DK",
      "latitude": 55.4991,
      "longitude": 11.5253,
      "admin_name1": "Zealand"
    },
    {
      "place_name": "Dannemare",
      "postal_code": "4983",
      "country_code": "DK",
      "latitude": 54.7396,
      "longitude": 11.189,
      "admin_name1": "Zealand"
    },
    {
      "place_name": "Tappernøje",
      "postal_code": "4733",
      "country_code": "DK",
      "latitude": 55.1769,
      "longitude": 11.9719,
      "admin_name1": "Zealand"
    },
    {
      "place_name": "Faaborg",
      "postal_code": "5600",
      "country_code": "DK",
      "latitude": 55.1049,
      "longitude": 10.2503,
      "admin_name1": "South Denmark"
    },
    {
      "place_name": "Søndersø",
      "postal_code": "5471",
      "country_code": "DK",
      "latitude": 55.4912,
      "longitude": 10.2028,
      "admin_name1": "South Denmark"
    },
    {
      "place_name": "Grindsted",
      "postal_code": "7200",
      "country_code": "DK",
      "latitude": 55.7602,
      "longitude": 8.9211,
      "admin_name1": "South Denmark"
    },
    {
      "place_name": "Sønder Stenderup",
      "postal_code": "6092",
      "country_code": "DK",
      "latitude": 55.4581,
      "longitude": 9.6225,
      "admin_name1": "South Denmark"
    },
    {
      "place_name": "Give",
      "postal_code": "7323",
      "country_code": "DK",
      "latitude": 55.8507,
      "longitude": 9.25,
      "admin_name1": "South Denmark"
    },
    {
      "place_name": "Risskov Ø",
      "postal_code": "8245",
      "country_code": "DK",
      "latitude": 56.1972,
      "longitude": 10.248,
      "admin_name1": "Region Midtjylland"
    },
    {
      "place_name": "Esbjerg",
      "postal_code": "6701",
      "country_code": "DK",
      "latitude": 55.4703,
      "longitude": 8.4519,
      "admin_name1": "Region Syddanmark"
    },
    {
      "place_name": "Klampenborg",
      "postal_code": "2930",
      "country_code": "DK",
      "latitude": 55.7701,
      "longitude": 12.5886,
      "admin_name1": "Capital Region"
    },
    {
      "place_name": "Kongens Lyngby",
      "postal_code": "2800",
      "country_code": "DK",
      "latitude": 55.7801,
      "longitude": 12.5122,
      "admin_name1": "Capital Region"
    },
    {
      "place_name": "Rungsted Kyst",
      "postal_code": "2960",
      "country_code": "DK",
      "latitude": 55.8868,
      "longitude": 12.5306,
      "admin_name1": "Capital Region"
    },
    {
      "place_name": "Skodsborg",
      "postal_code": "2942",
      "country_code": "DK",
      "latitude": 55.8275,
      "longitude": 12.5719,
      "admin_name1": "Capital Region"
    },
    {
      "place_name": "Frederiksværk",
      "postal_code": "3300",
      "country_code": "DK",
      "latitude": 55.9787,
      "longitude": 12.0242,
      "admin_name1": "Capital Region"
    },
    {
      "place_name": "Hasle",
      "postal_code": "3790",
      "country_code": "DK",
      "latitude": 55.1928,
      "longitude": 14.7193,
      "admin_name1": "Capital Region"
    },
    {
      "place_name": "Endelave",
      "postal_code": "8789",
      "country_code": "DK",
      "latitude": 55.755,
      "longitude": 10.284,
      "admin_name1": "Central Jutland"
    },
    {
      "place_name": "Balle",
      "postal_code": "8444",
      "country_code": "DK",
      "latitude": 56.3145,
      "longitude": 10.7922,
      "admin_name1": "Central Jutland"
    },
    {
      "place_name": "Hasselager",
      "postal_code": "8361",
      "country_code": "DK",
      "latitude": 56.1077,
      "longitude": 10.0882,
      "admin_name1": "Central Jutland"
    },
    {
      "place_name": "Videbæk",
      "postal_code": "6920",
      "country_code": "DK",
      "latitude": 56.0762,
      "longitude": 8.6563,
      "admin_name1": "Central Jutland"
    },
    {
      "place_name": "Ranum",
      "postal_code": "9681",
      "country_code": "DK",
      "latitude": 56.8967,
      "longitude": 9.2038,
      "admin_name1": "North Denmark"
    },
    {
      "place_name": "Skørping",
      "postal_code": "9520",
      "country_code": "DK",
      "latitude": 56.8442,
      "longitude": 9.9058,
      "admin_name1": "North Denmark"
    },
    {
      "place_name": "Dalmose",
      "postal_code": "4261",
      "country_code": "DK",
      "latitude": 55.2855,
      "longitude": 11.4168,
      "admin_name1": "Zealand"
    },
    {
      "place_name": "Bandholm",
      "postal_code": "4941",
      "country_code": "DK",
      "latitude": 54.8389,
      "longitude": 11.4681,
      "admin_name1": "Zealand"
    },
    {
      "place_name": "Nysted",
      "postal_code": "4880",
      "country_code": "DK",
      "latitude": 54.6704,
      "longitude": 11.7255,
      "admin_name1": "Zealand"
    },
    {
      "place_name": "Vordingborg",
      "postal_code": "4760",
      "country_code": "DK",
      "latitude": 55.0184,
      "longitude": 11.9152,
      "admin_name1": "Zealand"
    },
    {
      "place_name": "Kruså",
      "postal_code": "6340",
      "country_code": "DK",
      "latitude": 54.858,
      "longitude": 9.4359,
      "admin_name1": "South Denmark"
    },
    {
      "place_name": "Lunderskov",
      "postal_code": "6640",
      "country_code": "DK",
      "latitude": 55.4831,
      "longitude": 9.3079,
      "admin_name1": "South Denmark"
    },
    {
      "place_name": "Jelling",
      "postal_code": "7300",
      "country_code": "DK",
      "latitude": 55.7642,
      "longitude": 9.425,
      "admin_name1": "South Denmark"
    },
    {
      "place_name": "Ishøj",
      "postal_code": "2635",
      "country_code": "DK",
      "latitude": 55.6154,
      "longitude": 12.3395,
      "admin_name1": "Capital Region"
    },
    {
      "place_name": "Stenløse",
      "postal_code": "3660",
      "country_code": "DK",
      "latitude": 55.7772,
      "longitude": 12.2177,
      "admin_name1": "Capital Region"
    },
    {
      "place_name": "Gudhjem",
      "postal_code": "3760",
      "country_code": "DK",
      "latitude": 55.1964,
      "longitude": 14.9504,
      "admin_name1": "Capital Region"
    },
    {
      "place_name": "Ebeltoft",
      "postal_code": "8400",
      "country_code": "DK",
      "latitude": 56.2173,
      "longitude": 10.6747,
      "admin_name1": "Central Jutland"
    },
    {
      "place_name": "Randers SV",
      "postal_code": "8940",
      "country_code": "DK",
      "latitude": 56.4358,
      "longitude": 10.0334,
      "admin_name1": "Central Jutland"
    },
    {
      "place_name": "Åbyhøj",
      "postal_code": "8230",
      "country_code": "DK",
      "latitude": 56.1526,
      "longitude": 10.1602,
      "admin_name1": "Central Jutland"
    },
    {
      "place_name": "Daugård",
      "postal_code": "8721",
      "country_code": "DK",
      "latitude": 55.7314,
      "longitude": 9.7117,
      "admin_name1": "Central Jutland"
    },
    {
      "place_name": "Fjerritslev",
      "postal_code": "9690",
      "country_code": "DK",
      "latitude": 57.0961,
      "longitude": 9.2608,
      "admin_name1": "North Denmark"
    },
    {
      "place_name": "Tylstrup",
      "postal_code": "9382",
      "country_code": "DK",
      "latitude": 57.1981,
      "longitude": 9.9408,
      "admin_name1": "North Denmark"
    },
    {
      "place_name": "Kirke Hyllinge",
      "postal_code": "4070",
      "country_code": "DK",
      "latitude": 55.7007,
      "longitude": 11.8935,
      "admin_name1": "Zealand"
    },
    {
      "place_name": "Kalvehave",
      "postal_code": "4771",
      "country_code": "DK",
      "latitude": 55.003,
      "longitude": 12.1508,
      "admin_name1": "Zealand"
    },
    {
      "place_name": "Ferritslev Fyn",
      "postal_code": "5863",
      "country_code": "DK",
      "latitude": 55.3133,
      "longitude": 10.5821,
      "admin_name1": "South Denmark"
    },
    {
      "place_name": "Munkebo",
      "postal_code": "5330",
      "country_code": "DK",
      "latitude": 55.458,
      "longitude": 10.5544,
      "admin_name1": "South Denmark"
    },
    {
      "place_name": "Toftlund",
      "postal_code": "6520",
      "country_code": "DK",
      "latitude": 55.1794,
      "longitude": 9.0356,
      "admin_name1": "South Denmark"
    },
    {
      "place_name": "Ribe",
      "postal_code": "6760",
      "country_code": "DK",
      "latitude": 55.3209,
      "longitude": 8.7714,
      "admin_name1": "South Denmark"
    },
    {
      "place_name": "Janderup Vestj",
      "postal_code": "6851",
      "country_code": "DK",
      "latitude": 55.6306,
      "longitude": 8.3734,
      "admin_name1": "South Denmark"
    },
    {
      "place_name": "Sunds",
      "postal_code": "7451",
      "country_code": "DK",
      "latitude": 56.2173,
      "longitude": 9.0229,
      "admin_name1": "Central Jutland"
    },
    {
      "place_name": "Hadsten",
      "postal_code": "8370",
      "country_code": "DK",
      "latitude": 56.3324,
      "longitude": 10.0663,
      "admin_name1": "Central Jutland"
    },
    {
      "place_name": "Randers C",
      "postal_code": "8900",
      "country_code": "DK",
      "latitude": 56.464,
      "longitude": 10.0341,
      "admin_name1": "Central Jutland"
    },
    {
      "place_name": "Havndal",
      "postal_code": "8970",
      "country_code": "DK",
      "latitude": 56.6359,
      "longitude": 10.2281,
      "admin_name1": "Central Jutland"
    },
    {
      "place_name": "Tranbjerg J",
      "postal_code": "8310",
      "country_code": "DK",
      "latitude": 56.0904,
      "longitude": 10.1318,
      "admin_name1": "Central Jutland"
    },
    {
      "place_name": "Vestervig",
      "postal_code": "7770",
      "country_code": "DK",
      "latitude": 56.7726,
      "longitude": 8.2802,
      "admin_name1": "North Denmark"
    },
    {
      "place_name": "Saltum",
      "postal_code": "9493",
      "country_code": "DK",
      "latitude": 57.2809,
      "longitude": 9.6602,
      "admin_name1": "North Denmark"
    },
    {
      "place_name": "Sulsted",
      "postal_code": "9381",
      "country_code": "DK",
      "latitude": 57.1645,
      "longitude": 9.9601,
      "admin_name1": "North Denmark"
    },
    {
      "place_name": "Vrå",
      "postal_code": "9760",
      "country_code": "DK",
      "latitude": 57.3581,
      "longitude": 9.9481,
      "admin_name1": "North Denmark"
    },
    {
      "place_name": "Tune",
      "postal_code": "4030",
      "country_code": "DK",
      "latitude": 55.5955,
      "longitude": 12.1851,
      "admin_name1": "Zealand"
    },
    {
      "place_name": "Kirke Såby",
      "postal_code": "4060",
      "country_code": "DK",
      "latitude": 55.6459,
      "longitude": 11.8572,
      "admin_name1": "Zealand"
    },
    {
      "place_name": "Søllested",
      "postal_code": "4920",
      "country_code": "DK",
      "latitude": 54.8032,
      "longitude": 11.278,
      "admin_name1": "Zealand"
    },
    {
      "place_name": "Torrig L",
      "postal_code": "4943",
      "country_code": "DK",
      "latitude": 54.9085,
      "longitude": 11.3244,
      "admin_name1": "Zealand"
    },
    {
      "place_name": "Femø",
      "postal_code": "4945",
      "country_code": "DK",
      "latitude": 54.9739,
      "longitude": 11.5378,
      "admin_name1": "Zealand"
    },
    {
      "place_name": "Sakskøbing",
      "postal_code": "4990",
      "country_code": "DK",
      "latitude": 54.7971,
      "longitude": 11.6452,
      "admin_name1": "Zealand"
    },
    {
      "place_name": "Ullerslev",
      "postal_code": "5540",
      "country_code": "DK",
      "latitude": 55.3583,
      "longitude": 10.6646,
      "admin_name1": "South Denmark"
    },
    {
      "place_name": "Oure",
      "postal_code": "5883",
      "country_code": "DK",
      "latitude": 55.1218,
      "longitude": 10.725,
      "admin_name1": "South Denmark"
    },
    {
      "place_name": "Marstal",
      "postal_code": "5960",
      "country_code": "DK",
      "latitude": 54.8575,
      "longitude": 10.5085,
      "admin_name1": "South Denmark"
    },
    {
      "place_name": "Agerbæk",
      "postal_code": "6753",
      "country_code": "DK",
      "latitude": 55.6024,
      "longitude": 8.8009,
      "admin_name1": "South Denmark"
    },
    {
      "place_name": "Gadbjerg",
      "postal_code": "7321",
      "country_code": "DK",
      "latitude": 55.7698,
      "longitude": 9.3054,
      "admin_name1": "South Denmark"
    },
    {
      "place_name": "Nordhavn",
      "postal_code": "2150",
      "country_code": "DK",
      "latitude": 55.7119,
      "longitude": 12.5984,
      "admin_name1": "Capital Region"
    },
    {
      "place_name": "Virum",
      "postal_code": "2830",
      "country_code": "DK",
      "latitude": 55.7912,
      "longitude": 12.4705,
      "admin_name1": "Capital Region"
    },
    {
      "place_name": "Værløse",
      "postal_code": "3500",
      "country_code": "DK",
      "latitude": 55.7763,
      "longitude": 12.364,
      "admin_name1": "Capital Region"
    },
    {
      "place_name": "Thyborøn",
      "postal_code": "7680",
      "country_code": "DK",
      "latitude": 56.6984,
      "longitude": 8.2122,
      "admin_name1": "Central Jutland"
    },
    {
      "place_name": "Anholt",
      "postal_code": "8592",
      "country_code": "DK",
      "latitude": 56.7066,
      "longitude": 11.5396,
      "admin_name1": "Central Jutland"
    },
    {
      "place_name": "Langå",
      "postal_code": "8870",
      "country_code": "DK",
      "latitude": 56.4097,
      "longitude": 9.9173,
      "admin_name1": "Central Jutland"
    },
    {
      "place_name": "Låsby",
      "postal_code": "8670",
      "country_code": "DK",
      "latitude": 56.1514,
      "longitude": 9.8075,
      "admin_name1": "Central Jutland"
    },
    {
      "place_name": "Stouby",
      "postal_code": "7140",
      "country_code": "DK",
      "latitude": 55.7077,
      "longitude": 9.798,
      "admin_name1": "Central Jutland"
    },
    {
      "place_name": "Karup J",
      "postal_code": "7470",
      "country_code": "DK",
      "latitude": 56.3262,
      "longitude": 9.2049,
      "admin_name1": "Central Jutland"
    },
    {
      "place_name": "Dronninglund",
      "postal_code": "9330",
      "country_code": "DK",
      "latitude": 57.1791,
      "longitude": 10.2976,
      "admin_name1": "North Denmark"
    },
    {
      "place_name": "Østervrå",
      "postal_code": "9750",
      "country_code": "DK",
      "latitude": 57.3401,
      "longitude": 10.2594,
      "admin_name1": "North Denmark"
    },
    {
      "place_name": "Nibe",
      "postal_code": "9240",
      "country_code": "DK",
      "latitude": 56.9807,
      "longitude": 9.6229,
      "admin_name1": "North Denmark"
    },
    {
      "place_name": "Karlslunde",
      "postal_code": "2690",
      "country_code": "DK",
      "latitude": 55.5663,
      "longitude": 12.2468,
      "admin_name1": "Zealand"
    },
    {
      "place_name": "Nykøbing Sj",
      "postal_code": "4500",
      "country_code": "DK",
      "latitude": 55.9281,
      "longitude": 11.6393,
      "admin_name1": "Zealand"
    },
    {
      "place_name": "Kalundborg",
      "postal_code": "4400",
      "country_code": "DK",
      "latitude": 55.6882,
      "longitude": 11.0848,
      "admin_name1": "Zealand"
    },
    {
      "place_name": "Holsted",
      "postal_code": "6670",
      "country_code": "DK",
      "latitude": 55.4998,
      "longitude": 8.9129,
      "admin_name1": "South Denmark"
    },
    {
      "place_name": "Centraltastning",
      "postal_code": "1513",
      "country_code": "DK",
      "latitude": 55.6711,
      "longitude": 12.5653,
      "admin_name1": "Region Hovedstaden"
    },
    {
      "place_name": "Søborg",
      "postal_code": "2860",
      "country_code": "DK",
      "latitude": 55.7361,
      "longitude": 12.483,
      "admin_name1": "Capital Region"
    },
    {
      "place_name": "Farum",
      "postal_code": "3520",
      "country_code": "DK",
      "latitude": 55.8171,
      "longitude": 12.3713,
      "admin_name1": "Capital Region"
    },
    {
      "place_name": "Ølstykke",
      "postal_code": "3650",
      "country_code": "DK",
      "latitude": 55.7836,
      "longitude": 12.1609,
      "admin_name1": "Capital Region"
    },
    {
      "place_name": "Gilleleje",
      "postal_code": "3250",
      "country_code": "DK",
      "latitude": 56.116,
      "longitude": 12.2866,
      "admin_name1": "Capital Region"
    },
    {
      "place_name": "Kibæk",
      "postal_code": "6933",
      "country_code": "DK",
      "latitude": 56.0102,
      "longitude": 8.8682,
      "admin_name1": "Central Jutland"
    },
    {
      "place_name": "Sønder Felding",
      "postal_code": "7280",
      "country_code": "DK",
      "latitude": 55.9411,
      "longitude": 8.7837,
      "admin_name1": "Central Jutland"
    },
    {
      "place_name": "Aulum",
      "postal_code": "7490",
      "country_code": "DK",
      "latitude": 56.2731,
      "longitude": 8.8037,
      "admin_name1": "Central Jutland"
    },
    {
      "place_name": "Vinderup",
      "postal_code": "7830",
      "country_code": "DK",
      "latitude": 56.4743,
      "longitude": 8.7959,
      "admin_name1": "Central Jutland"
    },
    {
      "place_name": "Ryomgård",
      "postal_code": "8550",
      "country_code": "DK",
      "latitude": 56.3849,
      "longitude": 10.4826,
      "admin_name1": "Central Jutland"
    },
    {
      "place_name": "Tunø",
      "postal_code": "8799",
      "country_code": "DK",
      "latitude": 55.9512,
      "longitude": 10.4371,
      "admin_name1": "Central Jutland"
    },
    {
      "place_name": "Bryrup",
      "postal_code": "8654",
      "country_code": "DK",
      "latitude": 56.026,
      "longitude": 9.517,
      "admin_name1": "Central Jutland"
    },
    {
      "place_name": "Hampen",
      "postal_code": "7362",
      "country_code": "DK",
      "latitude": 56.0173,
      "longitude": 9.3582,
      "admin_name1": "Central Jutland"
    },
    {
      "place_name": "Engesvang",
      "postal_code": "7442",
      "country_code": "DK",
      "latitude": 56.1689,
      "longitude": 9.3436,
      "admin_name1": "Central Jutland"
    },
    {
      "place_name": "Ringkøbing",
      "postal_code": "6950",
      "country_code": "DK",
      "latitude": 56.1039,
      "longitude": 8.2118,
      "admin_name1": "Central Jutland"
    },
    {
      "place_name": "Uldum",
      "postal_code": "7171",
      "country_code": "DK",
      "latitude": 55.8443,
      "longitude": 9.591,
      "admin_name1": "Central Jutland"
    },
    {
      "place_name": "Ålbæk",
      "postal_code": "9982",
      "country_code": "DK",
      "latitude": 57.5996,
      "longitude": 10.4044,
      "admin_name1": "North Denmark"
    },
    {
      "place_name": "Aalborg SØ",
      "postal_code": "9210",
      "country_code": "DK",
      "latitude": 57.0108,
      "longitude": 9.9382,
      "admin_name1": "North Denmark"
    },
    {
      "place_name": "Slagelse",
      "postal_code": "4200",
      "country_code": "DK",
      "latitude": 55.4044,
      "longitude": 11.3353,
      "admin_name1": "Zealand"
    },
    {
      "place_name": "Hvalsø",
      "postal_code": "4330",
      "country_code": "DK",
      "latitude": 55.5938,
      "longitude": 11.8649,
      "admin_name1": "Zealand"
    },
    {
      "place_name": "Vesterborg",
      "postal_code": "4953",
      "country_code": "DK",
      "latitude": 54.8652,
      "longitude": 11.2954,
      "admin_name1": "Zealand"
    },
    {
      "place_name": "Herlufmagle",
      "postal_code": "4160",
      "country_code": "DK",
      "latitude": 55.3139,
      "longitude": 11.751,
      "admin_name1": "Zealand"
    },
    {
      "place_name": "Skamby",
      "postal_code": "5485",
      "country_code": "DK",
      "latitude": 55.5188,
      "longitude": 10.2766,
      "admin_name1": "South Denmark"
    },
    {
      "place_name": "Gram",
      "postal_code": "6510",
      "country_code": "DK",
      "latitude": 55.2814,
      "longitude": 9.0265,
      "admin_name1": "South Denmark"
    },
    {
      "place_name": "Tønder",
      "postal_code": "6270",
      "country_code": "DK",
      "latitude": 54.9442,
      "longitude": 8.8692,
      "admin_name1": "South Denmark"
    },
    {
      "place_name": "Føvling",
      "postal_code": "6683",
      "country_code": "DK",
      "latitude": 55.4394,
      "longitude": 8.9093,
      "admin_name1": "South Denmark"
    },
    {
      "place_name": "Københavns Pakkecent",
      "postal_code": "0917",
      "country_code": "DK",
      "latitude": 55.6759,
      "longitude": 12.5655,
      "admin_name1": "Region Hovedstaden"
    },
    {
      "place_name": "Ålsgårde",
      "postal_code": "3140",
      "country_code": "DK",
      "latitude": 56.0774,
      "longitude": 12.5283,
      "admin_name1": "Capital Region"
    },
    {
      "place_name": "Jægerspris",
      "postal_code": "3630",
      "country_code": "DK",
      "latitude": 55.8631,
      "longitude": 11.96,
      "admin_name1": "Capital Region"
    },
    {
      "place_name": "Ølsted",
      "postal_code": "3310",
      "country_code": "DK",
      "latitude": 55.9124,
      "longitude": 12.0604,
      "admin_name1": "Capital Region"
    },
    {
      "place_name": "Nexø",
      "postal_code": "3730",
      "country_code": "DK",
      "latitude": 55.0428,
      "longitude": 15.1073,
      "admin_name1": "Capital Region"
    },
    {
      "place_name": "Klemensker",
      "postal_code": "3782",
      "country_code": "DK",
      "latitude": 55.18,
      "longitude": 14.8112,
      "admin_name1": "Capital Region"
    },
    {
      "place_name": "Bøvlingbjerg",
      "postal_code": "7650",
      "country_code": "DK",
      "latitude": 56.4376,
      "longitude": 8.2097,
      "admin_name1": "Central Jutland"
    },
    {
      "place_name": "Nimtofte",
      "postal_code": "8581",
      "country_code": "DK",
      "latitude": 56.4133,
      "longitude": 10.5803,
      "admin_name1": "Central Jutland"
    },
    {
      "place_name": "Spentrup",
      "postal_code": "8981",
      "country_code": "DK",
      "latitude": 56.54,
      "longitude": 10.0408,
      "admin_name1": "Central Jutland"
    },
    {
      "place_name": "Bording",
      "postal_code": "7441",
      "country_code": "DK",
      "latitude": 56.1509,
      "longitude": 9.2703,
      "admin_name1": "Central Jutland"
    },
    {
      "place_name": "Højslev",
      "postal_code": "7840",
      "country_code": "DK",
      "latitude": 56.5815,
      "longitude": 9.1723,
      "admin_name1": "Central Jutland"
    },
    {
      "place_name": "Fur",
      "postal_code": "7884",
      "country_code": "DK",
      "latitude": 56.822,
      "longitude": 9.0224,
      "admin_name1": "Central Jutland"
    },
    {
      "place_name": "Hobro",
      "postal_code": "9500",
      "country_code": "DK",
      "latitude": 56.6469,
      "longitude": 9.7953,
      "admin_name1": "North Denmark"
    },
    {
      "place_name": "Gistrup",
      "postal_code": "9260",
      "country_code": "DK",
      "latitude": 56.9813,
      "longitude": 9.9943,
      "admin_name1": "North Denmark"
    },
    {
      "place_name": "Hirtshals",
      "postal_code": "9850",
      "country_code": "DK",
      "latitude": 57.5707,
      "longitude": 9.9667,
      "admin_name1": "North Denmark"
    },
    {
      "place_name": "Middelfart",
      "postal_code": "5500",
      "country_code": "DK",
      "latitude": 55.5063,
      "longitude": 9.764,
      "admin_name1": "South Denmark"
    },
    {
      "place_name": "Ørbæk",
      "postal_code": "5853",
      "country_code": "DK",
      "latitude": 55.264,
      "longitude": 10.6608,
      "admin_name1": "South Denmark"
    },
    {
      "place_name": "Bogense",
      "postal_code": "5400",
      "country_code": "DK",
      "latitude": 55.5548,
      "longitude": 10.0939,
      "admin_name1": "South Denmark"
    },
    {
      "place_name": "Vojens",
      "postal_code": "6500",
      "country_code": "DK",
      "latitude": 55.2428,
      "longitude": 9.2999,
      "admin_name1": "South Denmark"
    },
    {
      "place_name": "Rømø",
      "postal_code": "6792",
      "country_code": "DK",
      "latitude": 55.1154,
      "longitude": 8.5377,
      "admin_name1": "South Denmark"
    },
    {
      "place_name": "Bolderslev",
      "postal_code": "6392",
      "country_code": "DK",
      "latitude": 54.9917,
      "longitude": 9.2719,
      "admin_name1": "South Denmark"
    },
    {
      "place_name": "Thorsø",
      "postal_code": "8881",
      "country_code": "DK",
      "latitude": 56.3045,
      "longitude": 9.7856,
      "admin_name1": "Central Jutland"
    },
    {
      "place_name": "Trige",
      "postal_code": "8380",
      "country_code": "DK",
      "latitude": 56.2648,
      "longitude": 10.1466,
      "admin_name1": "Central Jutland"
    },
    {
      "place_name": "Brande",
      "postal_code": "7330",
      "country_code": "DK",
      "latitude": 55.9339,
      "longitude": 9.11,
      "admin_name1": "Central Jutland"
    },
    {
      "place_name": "Flemming",
      "postal_code": "8762",
      "country_code": "DK",
      "latitude": 55.8706,
      "longitude": 9.6629,
      "admin_name1": "Central Jutland"
    },
    {
      "place_name": "Snedsted",
      "postal_code": "7752",
      "country_code": "DK",
      "latitude": 56.8782,
      "longitude": 8.5045,
      "admin_name1": "North Denmark"
    },
    {
      "place_name": "Mariager",
      "postal_code": "9550",
      "country_code": "DK",
      "latitude": 56.6527,
      "longitude": 10.008,
      "admin_name1": "North Denmark"
    },
    {
      "place_name": "Viby Sjælland",
      "postal_code": "4130",
      "country_code": "DK",
      "latitude": 55.5499,
      "longitude": 12.0221,
      "admin_name1": "Zealand"
    },
    {
      "place_name": "Stubbekøbing",
      "postal_code": "4850",
      "country_code": "DK",
      "latitude": 54.8846,
      "longitude": 12.0383,
      "admin_name1": "Zealand"
    },
    {
      "place_name": "Langebæk",
      "postal_code": "4772",
      "country_code": "DK",
      "latitude": 54.9976,
      "longitude": 12.0811,
      "admin_name1": "Zealand"
    },
    {
      "place_name": "Millinge",
      "postal_code": "5642",
      "country_code": "DK",
      "latitude": 55.1412,
      "longitude": 10.1733,
      "admin_name1": "South Denmark"
    },
    {
      "place_name": "Årslev",
      "postal_code": "5792",
      "country_code": "DK",
      "latitude": 55.3009,
      "longitude": 10.4407,
      "admin_name1": "South Denmark"
    },
    {
      "place_name": "Outrup",
      "postal_code": "6855",
      "country_code": "DK",
      "latitude": 55.7166,
      "longitude": 8.353,
      "admin_name1": "South Denmark"
    },
    {
      "place_name": "Høje Taastrup",
      "postal_code": "0800",
      "country_code": "DK",
      "latitude": 55.6471,
      "longitude": 12.2742,
      "admin_name1": "Region Hovedstaden"
    },
    {
      "place_name": "Taastrup",
      "postal_code": "2630",
      "country_code": "DK",
      "latitude": 55.65,
      "longitude": 12.2904,
      "admin_name1": "Capital Region"
    },
    {
      "place_name": "Fredensborg",
      "postal_code": "3480",
      "country_code": "DK",
      "latitude": 55.9727,
      "longitude": 12.4105,
      "admin_name1": "Capital Region"
    },
    {
      "place_name": "Hornbæk",
      "postal_code": "3100",
      "country_code": "DK",
      "latitude": 56.084,
      "longitude": 12.4523,
      "admin_name1": "Capital Region"
    },
    {
      "place_name": "Sorring",
      "postal_code": "8641",
      "country_code": "DK",
      "latitude": 56.1772,
      "longitude": 9.7805,
      "admin_name1": "Central Jutland"
    },
    {
      "place_name": "Hemmet",
      "postal_code": "6893",
      "country_code": "DK",
      "latitude": 55.8418,
      "longitude": 8.3124,
      "admin_name1": "Central Jutland"
    },
    {
      "place_name": "Hanstholm",
      "postal_code": "7730",
      "country_code": "DK",
      "latitude": 57.107,
      "longitude": 8.6391,
      "admin_name1": "North Denmark"
    },
    {
      "place_name": "Bedsted Thy",
      "postal_code": "7755",
      "country_code": "DK",
      "latitude": 56.821,
      "longitude": 8.4021,
      "admin_name1": "North Denmark"
    },
    {
      "place_name": "Aalestrup",
      "postal_code": "9620",
      "country_code": "DK",
      "latitude": 56.694,
      "longitude": 9.4909,
      "admin_name1": "North Denmark"
    },
    {
      "place_name": "Fårevejle",
      "postal_code": "4540",
      "country_code": "DK",
      "latitude": 55.8166,
      "longitude": 11.4282,
      "admin_name1": "Zealand"
    },
    {
      "place_name": "Tølløse",
      "postal_code": "4340",
      "country_code": "DK",
      "latitude": 55.6114,
      "longitude": 11.727,
      "admin_name1": "Zealand"
    },
    {
      "place_name": "Jerslev Sjælland",
      "postal_code": "4490",
      "country_code": "DK",
      "latitude": 55.6163,
      "longitude": 11.2278,
      "admin_name1": "Zealand"
    },
    {
      "place_name": "Store Heddinge",
      "postal_code": "4660",
      "country_code": "DK",
      "latitude": 55.3096,
      "longitude": 12.3772,
      "admin_name1": "Zealand"
    },
    {
      "place_name": "Nørreballe",
      "postal_code": "4951",
      "country_code": "DK",
      "latitude": 54.8094,
      "longitude": 11.4285,
      "admin_name1": "Zealand"
    },
    {
      "place_name": "Karrebæksminde",
      "postal_code": "4736",
      "country_code": "DK",
      "latitude": 55.1778,
      "longitude": 11.6523,
      "admin_name1": "Zealand"
    },
    {
      "place_name": "Lyø",
      "postal_code": "5601",
      "country_code": "DK",
      "latitude": 55.0434,
      "longitude": 10.1513,
      "admin_name1": "South Denmark"
    },
    {
      "place_name": "Avernakø",
      "postal_code": "5602",
      "country_code": "DK",
      "latitude": 55.025,
      "longitude": 10.2758,
      "admin_name1": "South Denmark"
    },
    {
      "place_name": "Bjørnø",
      "postal_code": "5603",
      "country_code": "DK",
      "latitude": 55.0639,
      "longitude": 10.2517,
      "admin_name1": "South Denmark"
    },
    {
      "place_name": "Odense NV",
      "postal_code": "5210",
      "country_code": "DK",
      "latitude": 55.415,
      "longitude": 10.3132,
      "admin_name1": "South Denmark"
    },
    {
      "place_name": "Odense SØ",
      "postal_code": "5220",
      "country_code": "DK",
      "latitude": 55.3727,
      "longitude": 10.4601,
      "admin_name1": "South Denmark"
    },
    {
      "place_name": "Odense M",
      "postal_code": "5230",
      "country_code": "DK",
      "latitude": 55.381,
      "longitude": 10.4017,
      "admin_name1": "South Denmark"
    },
    {
      "place_name": "Vejstrup",
      "postal_code": "5882",
      "country_code": "DK",
      "latitude": 55.1092,
      "longitude": 10.7094,
      "admin_name1": "South Denmark"
    },
    {
      "place_name": "Gudbjerg Sydfyn",
      "postal_code": "5892",
      "country_code": "DK",
      "latitude": 55.157,
      "longitude": 10.6569,
      "admin_name1": "South Denmark"
    },
    {
      "place_name": "Egtved",
      "postal_code": "6040",
      "country_code": "DK",
      "latitude": 55.61,
      "longitude": 9.3509,
      "admin_name1": "South Denmark"
    },
    {
      "place_name": "Vejle Øst",
      "postal_code": "7120",
      "country_code": "DK",
      "latitude": 55.7229,
      "longitude": 9.6142,
      "admin_name1": "South Denmark"
    },
    {
      "place_name": "Slangerup",
      "postal_code": "3550",
      "country_code": "DK",
      "latitude": 55.8462,
      "longitude": 12.1744,
      "admin_name1": "Capital Region"
    },
    {
      "place_name": "Bækmarksbro",
      "postal_code": "7660",
      "country_code": "DK",
      "latitude": 56.4146,
      "longitude": 8.3202,
      "admin_name1": "Central Jutland"
    },
    {
      "place_name": "Thyholm",
      "postal_code": "7790",
      "country_code": "DK",
      "latitude": 56.6368,
      "longitude": 8.5454,
      "admin_name1": "Central Jutland"
    },
    {
      "place_name": "Grenaa",
      "postal_code": "8500",
      "country_code": "DK",
      "latitude": 56.4213,
      "longitude": 10.8743,
      "admin_name1": "Central Jutland"
    },
    {
      "place_name": "Sporup",
      "postal_code": "8472",
      "country_code": "DK",
      "latitude": 56.2128,
      "longitude": 9.8331,
      "admin_name1": "Central Jutland"
    },
    {
      "place_name": "Gjern",
      "postal_code": "8883",
      "country_code": "DK",
      "latitude": 56.2244,
      "longitude": 9.738,
      "admin_name1": "Central Jutland"
    },
    {
      "place_name": "Højbjerg",
      "postal_code": "8270",
      "country_code": "DK",
      "latitude": 56.1119,
      "longitude": 10.1907,
      "admin_name1": "Central Jutland"
    },
    {
      "place_name": "Tørring",
      "postal_code": "7160",
      "country_code": "DK",
      "latitude": 55.8592,
      "longitude": 9.504,
      "admin_name1": "Central Jutland"
    },
    {
      "place_name": "Skive",
      "postal_code": "7800",
      "country_code": "DK",
      "latitude": 56.5678,
      "longitude": 9.0226,
      "admin_name1": "Central Jutland"
    },
    {
      "place_name": "Frøstrup",
      "postal_code": "7741",
      "country_code": "DK",
      "latitude": 57.1063,
      "longitude": 8.9832,
      "admin_name1": "North Denmark"
    },
    {
      "place_name": "Hjallerup",
      "postal_code": "9320",
      "country_code": "DK",
      "latitude": 57.1772,
      "longitude": 10.1484,
      "admin_name1": "North Denmark"
    },
    {
      "place_name": "Jerslev J",
      "postal_code": "9740",
      "country_code": "DK",
      "latitude": 57.2896,
      "longitude": 10.1101,
      "admin_name1": "North Denmark"
    },
    {
      "place_name": "Støvring",
      "postal_code": "9530",
      "country_code": "DK",
      "latitude": 56.8945,
      "longitude": 9.8197,
      "admin_name1": "North Denmark"
    },
    {
      "place_name": "Gandrup",
      "postal_code": "9362",
      "country_code": "DK",
      "latitude": 57.0555,
      "longitude": 10.1854,
      "admin_name1": "North Denmark"
    },
    {
      "place_name": "Tureby",
      "postal_code": "4682",
      "country_code": "DK",
      "latitude": 55.3841,
      "longitude": 12.0821,
      "admin_name1": "Zealand"
    },
    {
      "place_name": "Jyderup",
      "postal_code": "4450",
      "country_code": "DK",
      "latitude": 55.6602,
      "longitude": 11.4104,
      "admin_name1": "Zealand"
    },
    {
      "place_name": "Haslev",
      "postal_code": "4690",
      "country_code": "DK",
      "latitude": 55.325,
      "longitude": 11.9696,
      "admin_name1": "Zealand"
    },
    {
      "place_name": "Jystrup Midtsj",
      "postal_code": "4174",
      "country_code": "DK",
      "latitude": 55.5176,
      "longitude": 11.8643,
      "admin_name1": "Zealand"
    },
    {
      "place_name": "Rødby",
      "postal_code": "4970",
      "country_code": "DK",
      "latitude": 54.6835,
      "longitude": 11.3591,
      "admin_name1": "Zealand"
    },
    {
      "place_name": "Holmegaard",
      "postal_code": "4684",
      "country_code": "DK",
      "latitude": 55.268,
      "longitude": 11.8297,
      "admin_name1": "Zealand"
    },
    {
      "place_name": "Odense V",
      "postal_code": "5200",
      "country_code": "DK",
      "latitude": 55.3953,
      "longitude": 10.3289,
      "admin_name1": "South Denmark"
    },
    {
      "place_name": "Ærøskøbing",
      "postal_code": "5970",
      "country_code": "DK",
      "latitude": 54.8771,
      "longitude": 10.3895,
      "admin_name1": "South Denmark"
    },
    {
      "place_name": "Søby Ærø",
      "postal_code": "5985",
      "country_code": "DK",
      "latitude": 54.9319,
      "longitude": 10.2671,
      "admin_name1": "South Denmark"
    },
    {
      "place_name": "Billund",
      "postal_code": "7190",
      "country_code": "DK",
      "latitude": 55.7261,
      "longitude": 9.1164,
      "admin_name1": "South Denmark"
    },
    {
      "place_name": "Augustenborg",
      "postal_code": "6440",
      "country_code": "DK",
      "latitude": 54.9631,
      "longitude": 9.9198,
      "admin_name1": "South Denmark"
    },
    {
      "place_name": "Vamdrup",
      "postal_code": "6580",
      "country_code": "DK",
      "latitude": 55.4235,
      "longitude": 9.3053,
      "admin_name1": "South Denmark"
    }
  ]
]