[
  [
    {
      "place_name": "Yigo",
      "postal_code": "96929",
      "country_code": "GU",
      "latitude": 13.5702,
      "longitude": 144.8834,
      "admin_name1": "Gu"
    },
    {
      "place_name": "Umatac",
      "postal_code": "96918",
      "country_code": "GU",
      "latitude": 13.4443,
      "longitude": 144.7863,
      "admin_name1": "Gu"
    },
    {
      "place_name": "Merizo",
      "postal_code": "96916",
      "country_code": "GU",
      "latitude": 13.2637,
      "longitude": 144.7016,
      "admin_name1": "Gu"
    },
    {
      "place_name": "Inarajan",
      "postal_code": "96917",
      "country_code": "GU",
      "latitude": 13.2944,
      "longitude": 144.7211,
      "admin_name1": "Gu"
    },
    {
      "place_name": "Asan",
      "postal_code": "96922",
      "country_code": "GU",
      "latitude": 13.4443,
      "longitude": 144.7863,
      "admin_name1": "Gu"
    },
    {
      "place_name": "Agat",
      "postal_code": "96928",
      "country_code": "GU",
      "latitude": 13.3893,
      "longitude": 144.6604,
      "admin_name1": "Gu"
    },
    {
      "place_name": "Agana Heights",
      "postal_code": "96919",
      "country_code": "GU",
      "latitude": 13.4443,
      "longitude": 144.7863,
      "admin_name1": "Gu"
    },
    {
      "place_name": "Hagatna",
      "postal_code": "96910",
      "country_code": "GU",
      "latitude": 13.452,
      "longitude": 144.7465,
      "admin_name1": "Gu"
    },
    {
      "place_name": "Piti",
      "postal_code": "96925",
      "country_code": "GU",
      "latitude": 13.4443,
      "longitude": 144.7863,
      "admin_name1": "Gu"
    },
    {
      "place_name": "Tamuning",
      "postal_code": "96911",
      "country_code": "GU",
      "latitude": 13.4443,
      "longitude": 144.7863,
      "admin_name1": "Gu"
    },
    {
      "place_name": "Barrigada",
      "postal_code": "96913",
      "country_code": "GU",
      "latitude": 13.4443,
      "longitude": 144.7863,
      "admin_name1": "Gu"
    },
    {
      "place_name": "Dededo",
      "postal_code": "96912",
      "country_code": "GU",
      "latitude": 13.4443,
      "longitude": 144.7863,
      "admin_name1": "Gu"
    },
    {
      "place_name": "Mangilao",
      "postal_code": "96923",
      "country_code": "GU",
      "latitude": 13.4443,
      "longitude": 144.7863,
      "admin_name1": "Gu"
    },
    {
      "place_name": "Sinajana",
      "postal_code": "96926",
      "country_code": "GU",
      "latitude": 13.4443,
      "longitude": 144.7863,
      "admin_name1": "Gu"
    },
    {
      "place_name": "Mongmong",
      "postal_code": "96927",
      "country_code": "GU",
      "latitude": 13.4443,
      "longitude": 144.7863,
      "admin_name1": "Gu"
    },
    {
      "place_name": "Talofofo",
      "postal_code": "96930",
      "country_code": "GU",
      "latitude": 13.4443,
      "longitude": 144.7863,
      "admin_name1": "Gu"
    }
  ]
]