[
  [
    {
      "place_name": "Terre-Neuve",
      "postal_code": "HT4220",
      "country_code": "HT",
      "latitude": 19.5995,
      "longitude": -72.7809,
      "admin_name1": "Artibonite"
    },
    {
      "place_name": "Petite-Rivière-de-l’Artibonite",
      "postal_code": "HT4420",
      "country_code": "HT",
      "latitude": 19.124,
      "longitude": -72.4817,
      "admin_name1": "Artibonite"
    },
    {
      "place_name": "Saint-Michel-de-l’Attalaye",
      "postal_code": "HT4520",
      "country_code": "HT",
      "latitude": 19.5174,
      "longitude": -72.3613,
      "admin_name1": "Artibonite"
    },
    {
      "place_name": "La Victoire",
      "postal_code": "HT1450",
      "country_code": "HT",
      "latitude": 19.3375,
      "longitude": -72.0206,
      "admin_name1": "Nord"
    },
    {
      "place_name": "Pilate",
      "postal_code": "HT1720",
      "country_code": "HT",
      "latitude": 19.6675,
      "longitude": -72.5523,
      "admin_name1": "Nord"
    },
    {
      "place_name": "Aquin",
      "postal_code": "HT8310",
      "country_code": "HT",
      "latitude": 18.2797,
      "longitude": -73.3943,
      "admin_name1": "Sud"
    },
    {
      "place_name": "Côteaux",
      "postal_code": "HT8410",
      "country_code": "HT",
      "latitude": 18.206,
      "longitude": -74.0401,
      "admin_name1": "Sud"
    },
    {
      "place_name": "Grand Gosier",
      "postal_code": "HT9320",
      "country_code": "HT",
      "latitude": 18.1854,
      "longitude": -71.9182,
      "admin_name1": "Sud-Est"
    },
    {
      "place_name": "Lesson",
      "postal_code": "HT7221",
      "country_code": "HT",
      "latitude": 18.6167,
      "longitude": -74.3667,
      "admin_name1": "Grande Anse"
    },
    {
      "place_name": "Saint-Michel-du-Sud",
      "postal_code": "HT7411",
      "country_code": "HT",
      "latitude": 18.3732,
      "longitude": -73.1167,
      "admin_name1": "Nippes"
    },
    {
      "place_name": "L'Estère",
      "postal_code": "HT4130",
      "country_code": "HT",
      "latitude": 19.3031,
      "longitude": -72.6097,
      "admin_name1": "Artibonite"
    },
    {
      "place_name": "Anse-Rouge",
      "postal_code": "HT4230",
      "country_code": "HT",
      "latitude": 19.6345,
      "longitude": -72.9179,
      "admin_name1": "Artibonite"
    },
    {
      "place_name": "Robillard",
      "postal_code": "HT1221",
      "country_code": "HT",
      "latitude": 19.612,
      "longitude": -72.2607,
      "admin_name1": "Nord"
    },
    {
      "place_name": "Borgne",
      "postal_code": "HT1510",
      "country_code": "HT",
      "latitude": 19.8451,
      "longitude": -72.5235,
      "admin_name1": "Nord"
    },
    {
      "place_name": "Margot",
      "postal_code": "HT1522",
      "country_code": "HT",
      "latitude": 19.8036,
      "longitude": -72.5428,
      "admin_name1": "Nord"
    },
    {
      "place_name": "Martissant et Fontamara",
      "postal_code": "HT6119",
      "country_code": "HT",
      "latitude": 18.5333,
      "longitude": -72.3374,
      "admin_name1": "Ouest"
    },
    {
      "place_name": "Côte-Page, Mahotière",
      "postal_code": "HT6133",
      "country_code": "HT",
      "latitude": 18.5406,
      "longitude": -72.4171,
      "admin_name1": "Ouest"
    },
    {
      "place_name": "Sources Chaudes",
      "postal_code": "HT7141",
      "country_code": "HT",
      "latitude": 18.4839,
      "longitude": -74.2867,
      "admin_name1": "Grande Anse"
    },
    {
      "place_name": "Paillant",
      "postal_code": "HT7412",
      "country_code": "HT",
      "latitude": 18.4176,
      "longitude": -73.1457,
      "admin_name1": "Nippes"
    },
    {
      "place_name": "Pèlerin",
      "postal_code": "HT6142",
      "country_code": "HT",
      "latitude": 18.5042,
      "longitude": -72.2958,
      "admin_name1": "Ouest"
    },
    {
      "place_name": "PetitGoâve",
      "postal_code": "HT6220",
      "country_code": "HT",
      "latitude": 18.4194,
      "longitude": -72.9334,
      "admin_name1": "Ouest"
    },
    {
      "place_name": "Maniche",
      "postal_code": "HT8150",
      "country_code": "HT",
      "latitude": 18.345,
      "longitude": -73.7772,
      "admin_name1": "Sud"
    },
    {
      "place_name": "Pestel",
      "postal_code": "HT7340",
      "country_code": "HT",
      "latitude": 18.5413,
      "longitude": -73.7952,
      "admin_name1": "Grande Anse"
    },
    {
      "place_name": "Fonds-des-Nègres",
      "postal_code": "HT7413",
      "country_code": "HT",
      "latitude": 18.4123,
      "longitude": -73.1173,
      "admin_name1": "Nippes"
    },
    {
      "place_name": "Milot",
      "postal_code": "HT1230",
      "country_code": "HT",
      "latitude": 19.6084,
      "longitude": -72.2132,
      "admin_name1": "Nord"
    },
    {
      "place_name": "Port-au-Prince",
      "postal_code": "HT6110",
      "country_code": "HT",
      "latitude": 18.5435,
      "longitude": -72.3388,
      "admin_name1": "Ouest"
    },
    {
      "place_name": "Turgeau",
      "postal_code": "HT6113",
      "country_code": "HT",
      "latitude": 18.5347,
      "longitude": -72.3317,
      "admin_name1": "Ouest"
    },
    {
      "place_name": "Croix-des-Missions",
      "postal_code": "HT6125",
      "country_code": "HT",
      "latitude": 18.5968,
      "longitude": -72.2852,
      "admin_name1": "Ouest"
    },
    {
      "place_name": "Vialet",
      "postal_code": "HT6221",
      "country_code": "HT",
      "latitude": 18.4194,
      "longitude": -72.9334,
      "admin_name1": "Ouest"
    },
    {
      "place_name": "Cornillon",
      "postal_code": "HT6330",
      "country_code": "HT",
      "latitude": 18.6755,
      "longitude": -71.9527,
      "admin_name1": "Ouest"
    },
    {
      "place_name": "Belle-Anse",
      "postal_code": "HT9310",
      "country_code": "HT",
      "latitude": 18.2377,
      "longitude": -72.0664,
      "admin_name1": "Sud-Est"
    },
    {
      "place_name": "Saint-Louis-du-Nord",
      "postal_code": "HT3210",
      "country_code": "HT",
      "latitude": 19.9038,
      "longitude": -72.6868,
      "admin_name1": "Nord-Ouest"
    },
    {
      "place_name": "Maïssade",
      "postal_code": "HT5120",
      "country_code": "HT",
      "latitude": 19.1761,
      "longitude": -72.1396,
      "admin_name1": "Centre"
    },
    {
      "place_name": "Bois Verna",
      "postal_code": "HT6114",
      "country_code": "HT",
      "latitude": 18.5364,
      "longitude": -72.33,
      "admin_name1": "Ouest"
    },
    {
      "place_name": "Carrefour Feuilles",
      "postal_code": "HT6116",
      "country_code": "HT",
      "latitude": 18.5231,
      "longitude": -72.3378,
      "admin_name1": "Ouest"
    },
    {
      "place_name": "Thomassin",
      "postal_code": "HT6145",
      "country_code": "HT",
      "latitude": 18.4966,
      "longitude": -72.2896,
      "admin_name1": "Ouest"
    },
    {
      "place_name": "Jacmel",
      "postal_code": "HT9110",
      "country_code": "HT",
      "latitude": 18.2343,
      "longitude": -72.5354,
      "admin_name1": "Sud-Est"
    },
    {
      "place_name": "Bodarie",
      "postal_code": "HT9321",
      "country_code": "HT",
      "latitude": 18.2569,
      "longitude": -71.8988,
      "admin_name1": "Sud-Est"
    },
    {
      "place_name": "Abricots",
      "postal_code": "HT7120",
      "country_code": "HT",
      "latitude": 18.649,
      "longitude": -74.3079,
      "admin_name1": "Grande Anse"
    },
    {
      "place_name": "Corail",
      "postal_code": "HT7310",
      "country_code": "HT",
      "latitude": 18.5677,
      "longitude": -73.8894,
      "admin_name1": "Grande Anse"
    },
    {
      "place_name": "La Pointe",
      "postal_code": "HT3111",
      "country_code": "HT",
      "latitude": 19.9452,
      "longitude": -72.7751,
      "admin_name1": "Nord-Ouest"
    },
    {
      "place_name": "Guichard",
      "postal_code": "HT3212",
      "country_code": "HT",
      "latitude": 19.9,
      "longitude": -72.7167,
      "admin_name1": "Nord-Ouest"
    },
    {
      "place_name": "Gros Morne",
      "postal_code": "HT4210",
      "country_code": "HT",
      "latitude": 19.6708,
      "longitude": -72.6781,
      "admin_name1": "Artibonite"
    },
    {
      "place_name": "Louverture",
      "postal_code": "HT5121",
      "country_code": "HT",
      "latitude": 19.4263,
      "longitude": -72.3139,
      "admin_name1": "Centre"
    },
    {
      "place_name": "Cap-Haïtien (la ville)",
      "postal_code": "HT1110",
      "country_code": "HT",
      "latitude": 19.7394,
      "longitude": -72.1825,
      "admin_name1": "Nord"
    },
    {
      "place_name": "Quartier-Morin",
      "postal_code": "HT1120",
      "country_code": "HT",
      "latitude": 19.697,
      "longitude": -72.1571,
      "admin_name1": "Nord"
    },
    {
      "place_name": "Sainte-Suzanne",
      "postal_code": "HT2320",
      "country_code": "HT",
      "latitude": 19.5834,
      "longitude": -72.0889,
      "admin_name1": "Nord-Est"
    },
    {
      "place_name": "Tabarre (zone1)",
      "postal_code": "HT6123",
      "country_code": "HT",
      "latitude": 18.5201,
      "longitude": -72.4911,
      "admin_name1": "Ouest"
    },
    {
      "place_name": "Les Anglais",
      "postal_code": "HT8520",
      "country_code": "HT",
      "latitude": 18.3054,
      "longitude": -74.2197,
      "admin_name1": "Sud"
    },
    {
      "place_name": "Cayes Jacmel",
      "postal_code": "HT9130",
      "country_code": "HT",
      "latitude": 18.2311,
      "longitude": -72.3954,
      "admin_name1": "Sud-Est"
    },
    {
      "place_name": "Roseaux",
      "postal_code": "HT7320",
      "country_code": "HT",
      "latitude": 18.6006,
      "longitude": -74.0195,
      "admin_name1": "Grande Anse"
    },
    {
      "place_name": "Désarmes",
      "postal_code": "HT4321",
      "country_code": "HT",
      "latitude": 18.9935,
      "longitude": -72.3906,
      "admin_name1": "Artibonite"
    },
    {
      "place_name": "Marmelade",
      "postal_code": "HT4510",
      "country_code": "HT",
      "latitude": 19.5174,
      "longitude": -72.3613,
      "admin_name1": "Artibonite"
    },
    {
      "place_name": "Petite-Anse",
      "postal_code": "HT1114",
      "country_code": "HT",
      "latitude": 19.7394,
      "longitude": -72.1825,
      "admin_name1": "Nord"
    },
    {
      "place_name": "Carrefour-des-Pères",
      "postal_code": "HT1231",
      "country_code": "HT",
      "latitude": 19.685,
      "longitude": -72.2047,
      "admin_name1": "Nord"
    },
    {
      "place_name": "Saint Jean du Sud",
      "postal_code": "HT8220",
      "country_code": "HT",
      "latitude": 18.0761,
      "longitude": -73.8125,
      "admin_name1": "Sud"
    },
    {
      "place_name": "Thiotte",
      "postal_code": "HT9330",
      "country_code": "HT",
      "latitude": 18.2438,
      "longitude": -71.8416,
      "admin_name1": "Sud-Est"
    },
    {
      "place_name": "Banane",
      "postal_code": "HT9341",
      "country_code": "HT",
      "latitude": 18.1428,
      "longitude": -71.7612,
      "admin_name1": "Sud-Est"
    },
    {
      "place_name": "Léon",
      "postal_code": "HT7111",
      "country_code": "HT",
      "latitude": 18.6162,
      "longitude": -74.1674,
      "admin_name1": "Grande Anse"
    },
    {
      "place_name": "Bonbon",
      "postal_code": "HT7130",
      "country_code": "HT",
      "latitude": 18.6655,
      "longitude": -74.2451,
      "admin_name1": "Grande Anse"
    },
    {
      "place_name": "Bassin-Bleu",
      "postal_code": "HT3130",
      "country_code": "HT",
      "latitude": 19.9637,
      "longitude": -72.7993,
      "admin_name1": "Nord-Ouest"
    },
    {
      "place_name": "Liancourt",
      "postal_code": "HT4323",
      "country_code": "HT",
      "latitude": 19.1247,
      "longitude": -72.5371,
      "admin_name1": "Artibonite"
    },
    {
      "place_name": "Fonds Parisien et Galette Bonbon",
      "postal_code": "HT6331",
      "country_code": "HT",
      "latitude": 18.6035,
      "longitude": -72.008,
      "admin_name1": "Ouest"
    },
    {
      "place_name": "La Tortue",
      "postal_code": "HT3120",
      "country_code": "HT",
      "latitude": 20.0251,
      "longitude": -72.7778,
      "admin_name1": "Nord-Ouest"
    },
    {
      "place_name": "Lamielle",
      "postal_code": "HT5412",
      "country_code": "HT",
      "latitude": 19.2432,
      "longitude": -71.7288,
      "admin_name1": "Centre"
    },
    {
      "place_name": "Bande-du-Nord (quartier du Cap)",
      "postal_code": "HT1111",
      "country_code": "HT",
      "latitude": 19.7394,
      "longitude": -72.1825,
      "admin_name1": "Nord"
    },
    {
      "place_name": "Bas-Limbé",
      "postal_code": "HT1620",
      "country_code": "HT",
      "latitude": 19.7684,
      "longitude": -72.3847,
      "admin_name1": "Nord"
    },
    {
      "place_name": "Les Cayes",
      "postal_code": "HT8110",
      "country_code": "HT",
      "latitude": 18.1933,
      "longitude": -73.746,
      "admin_name1": "Sud"
    },
    {
      "place_name": "La Côte",
      "postal_code": "HT8412",
      "country_code": "HT",
      "latitude": 18.2197,
      "longitude": -74.0534,
      "admin_name1": "Sud"
    },
    {
      "place_name": "Desdunes",
      "postal_code": "HT4440",
      "country_code": "HT",
      "latitude": 19.2924,
      "longitude": -72.6448,
      "admin_name1": "Artibonite"
    },
    {
      "place_name": "Péligre",
      "postal_code": "HT5231",
      "country_code": "HT",
      "latitude": 18.9033,
      "longitude": -72.0392,
      "admin_name1": "Centre"
    },
    {
      "place_name": "Lalue",
      "postal_code": "HT6115",
      "country_code": "HT",
      "latitude": 18.5333,
      "longitude": -72.3374,
      "admin_name1": "Ouest"
    },
    {
      "place_name": "Bizoton",
      "postal_code": "HT6131",
      "country_code": "HT",
      "latitude": 18.5298,
      "longitude": -72.3777,
      "admin_name1": "Ouest"
    },
    {
      "place_name": "Grand Goâve",
      "postal_code": "HT6230",
      "country_code": "HT",
      "latitude": 18.4259,
      "longitude": -72.7699,
      "admin_name1": "Ouest"
    },
    {
      "place_name": "Chantal",
      "postal_code": "HT8130",
      "country_code": "HT",
      "latitude": 18.2017,
      "longitude": -73.8896,
      "admin_name1": "Sud"
    },
    {
      "place_name": "Marfranc",
      "postal_code": "HT7112",
      "country_code": "HT",
      "latitude": 18.5825,
      "longitude": -74.2182,
      "admin_name1": "Grande Anse"
    },
    {
      "place_name": "Dame-Marie",
      "postal_code": "HT7220",
      "country_code": "HT",
      "latitude": 18.5611,
      "longitude": -74.4217,
      "admin_name1": "Grande Anse"
    },
    {
      "place_name": "Miragoâne",
      "postal_code": "HT7410",
      "country_code": "HT",
      "latitude": 18.446,
      "longitude": -73.0896,
      "admin_name1": "Nippes"
    },
    {
      "place_name": "Montrouis",
      "postal_code": "HT4311",
      "country_code": "HT",
      "latitude": 19.0977,
      "longitude": -72.7082,
      "admin_name1": "Artibonite"
    },
    {
      "place_name": "Saltadère",
      "postal_code": "HT5411",
      "country_code": "HT",
      "latitude": 19.1342,
      "longitude": -71.7327,
      "admin_name1": "Centre"
    },
    {
      "place_name": "Thomassique",
      "postal_code": "HT5420",
      "country_code": "HT",
      "latitude": 19.0821,
      "longitude": -71.8385,
      "admin_name1": "Centre"
    },
    {
      "place_name": "Plaine-du-Nord",
      "postal_code": "HT1220",
      "country_code": "HT",
      "latitude": 19.612,
      "longitude": -72.2607,
      "admin_name1": "Nord"
    },
    {
      "place_name": "Petit-Bourg-de-Borgne",
      "postal_code": "HT1511",
      "country_code": "HT",
      "latitude": 19.8451,
      "longitude": -72.5235,
      "admin_name1": "Nord"
    },
    {
      "place_name": "Bon Repos",
      "postal_code": "HT6312",
      "country_code": "HT",
      "latitude": 18.6278,
      "longitude": -72.2693,
      "admin_name1": "Ouest"
    },
    {
      "place_name": "puits Blain",
      "postal_code": "HT8121",
      "country_code": "HT",
      "latitude": 18.1978,
      "longitude": -73.847,
      "admin_name1": "Sud"
    },
    {
      "place_name": "Dessalines (Marchand-Dessalines)",
      "postal_code": "HT4410",
      "country_code": "HT",
      "latitude": 19.1731,
      "longitude": -72.5656,
      "admin_name1": "Artibonite"
    },
    {
      "place_name": "Saut-d’Eau",
      "postal_code": "HT5220",
      "country_code": "HT",
      "latitude": 18.7502,
      "longitude": -72.8095,
      "admin_name1": "Centre"
    },
    {
      "place_name": "Camp-Coq",
      "postal_code": "HT1611",
      "country_code": "HT",
      "latitude": 19.6333,
      "longitude": -72.4333,
      "admin_name1": "Nord"
    },
    {
      "place_name": "Mombin-Crochu",
      "postal_code": "HT2430",
      "country_code": "HT",
      "latitude": 19.3688,
      "longitude": -71.9824,
      "admin_name1": "Nord-Est"
    },
    {
      "place_name": "Diquini, Thor",
      "postal_code": "HT6132",
      "country_code": "HT",
      "latitude": 18.5406,
      "longitude": -72.4171,
      "admin_name1": "Ouest"
    },
    {
      "place_name": "Ducis",
      "postal_code": "HT8122",
      "country_code": "HT",
      "latitude": 18.2323,
      "longitude": -73.8846,
      "admin_name1": "Sud"
    },
    {
      "place_name": "Saint Louis du Sud",
      "postal_code": "HT8320",
      "country_code": "HT",
      "latitude": 18.2624,
      "longitude": -73.546,
      "admin_name1": "Sud"
    },
    {
      "place_name": "Jérémie",
      "postal_code": "HT7110",
      "country_code": "HT",
      "latitude": 18.65,
      "longitude": -74.1167,
      "admin_name1": "Grande Anse"
    },
    {
      "place_name": "Mont-Organisé",
      "postal_code": "HT2230",
      "country_code": "HT",
      "latitude": 19.4082,
      "longitude": -71.7813,
      "admin_name1": "Nord-Est"
    },
    {
      "place_name": "Terrier-Rouge",
      "postal_code": "HT2330",
      "country_code": "HT",
      "latitude": 19.6363,
      "longitude": -71.9548,
      "admin_name1": "Nord-Est"
    },
    {
      "place_name": "Bolosse",
      "postal_code": "HT6118",
      "country_code": "HT",
      "latitude": 18.5286,
      "longitude": -72.3489,
      "admin_name1": "Ouest"
    },
    {
      "place_name": "Petite Place Cazeau, Tabarre zone 2",
      "postal_code": "HT6124",
      "country_code": "HT",
      "latitude": 18.5201,
      "longitude": -72.4911,
      "admin_name1": "Ouest"
    },
    {
      "place_name": "Orangers",
      "postal_code": "HT6212",
      "country_code": "HT",
      "latitude": 18.4438,
      "longitude": -72.5467,
      "admin_name1": "Ouest"
    },
    {
      "place_name": "Camp Perrin",
      "postal_code": "HT8140",
      "country_code": "HT",
      "latitude": 18.3265,
      "longitude": -73.8673,
      "admin_name1": "Sud"
    },
    {
      "place_name": "La Vallée de Jacmel",
      "postal_code": "HT9140",
      "country_code": "HT",
      "latitude": 18.2694,
      "longitude": -72.667,
      "admin_name1": "Sud-Est"
    },
    {
      "place_name": "Môle-Saint-Nicolas",
      "postal_code": "HT3310",
      "country_code": "HT",
      "latitude": 19.7361,
      "longitude": -73.2461,
      "admin_name1": "Nord-Ouest"
    },
    {
      "place_name": "Mirebalais",
      "postal_code": "HT5210",
      "country_code": "HT",
      "latitude": 18.8345,
      "longitude": -72.1048,
      "admin_name1": "Centre"
    },
    {
      "place_name": "Trou-duNord",
      "postal_code": "HT2310",
      "country_code": "HT",
      "latitude": 19.6231,
      "longitude": -71.9885,
      "admin_name1": "Nord-Est"
    },
    {
      "place_name": "Phaëton",
      "postal_code": "HT2331",
      "country_code": "HT",
      "latitude": 19.6753,
      "longitude": -71.8969,
      "admin_name1": "Nord-Est"
    },
    {
      "place_name": "Puits Blain 38",
      "postal_code": "HT3408",
      "country_code": "HT",
      "latitude": 19.8843,
      "longitude": -72.8844,
      "admin_name1": "Ouest"
    },
    {
      "place_name": "Thomazeau",
      "postal_code": "HT6320",
      "country_code": "HT",
      "latitude": 18.653,
      "longitude": -72.0939,
      "admin_name1": "Ouest"
    },
    {
      "place_name": "Anse à Galets (La Gonâve)",
      "postal_code": "HT6510",
      "country_code": "HT",
      "latitude": 18.8345,
      "longitude": -72.8664,
      "admin_name1": "Ouest"
    },
    {
      "place_name": "Vieux Bourg d’Aquin",
      "postal_code": "HT8312",
      "country_code": "HT",
      "latitude": 18.2982,
      "longitude": -73.3222,
      "admin_name1": "Sud"
    },
    {
      "place_name": "Marbial",
      "postal_code": "HT9111",
      "country_code": "HT",
      "latitude": 18.3327,
      "longitude": -72.4661,
      "admin_name1": "Sud-Est"
    },
    {
      "place_name": "Marigot",
      "postal_code": "HT9120",
      "country_code": "HT",
      "latitude": 18.2317,
      "longitude": -72.3229,
      "admin_name1": "Sud-Est"
    },
    {
      "place_name": "Mapou",
      "postal_code": "HT9311",
      "country_code": "HT",
      "latitude": 18.3,
      "longitude": -72.05,
      "admin_name1": "Sud-Est"
    },
    {
      "place_name": "Limonade",
      "postal_code": "HT1130",
      "country_code": "HT",
      "latitude": 19.6701,
      "longitude": -72.1243,
      "admin_name1": "Nord"
    },
    {
      "place_name": "Grande-Rivière-du-Nord",
      "postal_code": "HT1310",
      "country_code": "HT",
      "latitude": 19.631,
      "longitude": -72.3013,
      "admin_name1": "Nord"
    },
    {
      "place_name": "Limbé",
      "postal_code": "HT1610",
      "country_code": "HT",
      "latitude": 19.706,
      "longitude": -72.4034,
      "admin_name1": "Nord"
    },
    {
      "place_name": "Paulette",
      "postal_code": "HT2332",
      "country_code": "HT",
      "latitude": 19.6676,
      "longitude": -71.9232,
      "admin_name1": "Nord-Est"
    },
    {
      "place_name": "Morne de l’Hôpital",
      "postal_code": "HT6117",
      "country_code": "HT",
      "latitude": 18.5333,
      "longitude": -72.3374,
      "admin_name1": "Ouest"
    },
    {
      "place_name": "Lamentin",
      "postal_code": "HT6136",
      "country_code": "HT",
      "latitude": 18.5521,
      "longitude": -72.4089,
      "admin_name1": "Ouest"
    },
    {
      "place_name": "Trouin",
      "postal_code": "HT6211",
      "country_code": "HT",
      "latitude": 18.3651,
      "longitude": -72.6557,
      "admin_name1": "Ouest"
    },
    {
      "place_name": "Baradères",
      "postal_code": "HT7520",
      "country_code": "HT",
      "latitude": 18.4826,
      "longitude": -73.6388,
      "admin_name1": "Nippes"
    },
    {
      "place_name": "Bonneau",
      "postal_code": "HT3211",
      "country_code": "HT",
      "latitude": 19.9076,
      "longitude": -72.6569,
      "admin_name1": "Nord-Ouest"
    },
    {
      "place_name": "Grande-Saline",
      "postal_code": "HT4430",
      "country_code": "HT",
      "latitude": 19.2651,
      "longitude": -72.769,
      "admin_name1": "Artibonite"
    },
    {
      "place_name": "Ravine-Trompette",
      "postal_code": "HT1723",
      "country_code": "HT",
      "latitude": 19.6675,
      "longitude": -72.5523,
      "admin_name1": "Nord"
    },
    {
      "place_name": "Bois-Laurence",
      "postal_code": "HT2431",
      "country_code": "HT",
      "latitude": 19.3281,
      "longitude": -71.8625,
      "admin_name1": "Nord-Est"
    },
    {
      "place_name": "Tête de l’Eau",
      "postal_code": "HT6143",
      "country_code": "HT",
      "latitude": 18.5,
      "longitude": -72.2833,
      "admin_name1": "Ouest"
    },
    {
      "place_name": "Laboule",
      "postal_code": "HT6144",
      "country_code": "HT",
      "latitude": 18.4966,
      "longitude": -72.2896,
      "admin_name1": "Ouest"
    },
    {
      "place_name": "Cahonane",
      "postal_code": "HT8531",
      "country_code": "HT",
      "latitude": 18.3259,
      "longitude": -74.396,
      "admin_name1": "Sud"
    },
    {
      "place_name": "Anse à Pitre",
      "postal_code": "HT9340",
      "country_code": "HT",
      "latitude": 18.05,
      "longitude": -71.75,
      "admin_name1": "Sud-Est"
    },
    {
      "place_name": "Dufailly",
      "postal_code": "HT5211",
      "country_code": "HT",
      "latitude": 18.5128,
      "longitude": -74.2844,
      "admin_name1": "Centre"
    },
    {
      "place_name": "Lascahobas",
      "postal_code": "HT5310",
      "country_code": "HT",
      "latitude": 18.8305,
      "longitude": -71.9356,
      "admin_name1": "Centre"
    },
    {
      "place_name": "Haut-du-Cap (quartier du Cap)",
      "postal_code": "HT1113",
      "country_code": "HT",
      "latitude": 19.7394,
      "longitude": -72.1825,
      "admin_name1": "Nord"
    },
    {
      "place_name": "Thomonde",
      "postal_code": "HT5130",
      "country_code": "HT",
      "latitude": 19.0173,
      "longitude": -71.9623,
      "admin_name1": "Centre"
    },
    {
      "place_name": "Boucan-Carré",
      "postal_code": "HT5230",
      "country_code": "HT",
      "latitude": 18.9033,
      "longitude": -72.0392,
      "admin_name1": "Centre"
    },
    {
      "place_name": "Ranquitte",
      "postal_code": "HT1430",
      "country_code": "HT",
      "latitude": 19.4133,
      "longitude": -72.0808,
      "admin_name1": "Nord"
    },
    {
      "place_name": "Pergnier",
      "postal_code": "HT6147",
      "country_code": "HT",
      "latitude": 18.4966,
      "longitude": -72.2896,
      "admin_name1": "Ouest"
    },
    {
      "place_name": "Gressier",
      "postal_code": "HT6160",
      "country_code": "HT",
      "latitude": 18.5409,
      "longitude": -72.5268,
      "admin_name1": "Ouest"
    },
    {
      "place_name": "Cabaret",
      "postal_code": "HT6420",
      "country_code": "HT",
      "latitude": 18.7358,
      "longitude": -72.4193,
      "admin_name1": "Ouest"
    },
    {
      "place_name": "Grand-Boucan",
      "postal_code": "HT7521",
      "country_code": "HT",
      "latitude": 18.5535,
      "longitude": -73.5915,
      "admin_name1": "Nippes"
    },
    {
      "place_name": "Pointe des Oiseaux",
      "postal_code": "HT3121",
      "country_code": "HT",
      "latitude": 20.0157,
      "longitude": -72.764,
      "admin_name1": "Nord-Ouest"
    },
    {
      "place_name": "Anse-à-Foleur",
      "postal_code": "HT3220",
      "country_code": "HT",
      "latitude": 19.8926,
      "longitude": -72.6201,
      "admin_name1": "Nord-Ouest"
    },
    {
      "place_name": "Bombardopolis",
      "postal_code": "HT3320",
      "country_code": "HT",
      "latitude": 19.6914,
      "longitude": -73.3377,
      "admin_name1": "Nord-Ouest"
    },
    {
      "place_name": "Verrettes",
      "postal_code": "HT4320",
      "country_code": "HT",
      "latitude": 19.0505,
      "longitude": -72.4658,
      "admin_name1": "Artibonite"
    },
    {
      "place_name": "Deschapelles",
      "postal_code": "HT4322",
      "country_code": "HT",
      "latitude": 19.0736,
      "longitude": -72.4918,
      "admin_name1": "Artibonite"
    },
    {
      "place_name": "La Soufrière",
      "postal_code": "HT1211",
      "country_code": "HT",
      "latitude": 19.6052,
      "longitude": -72.3522,
      "admin_name1": "Nord"
    },
    {
      "place_name": "Capotille",
      "postal_code": "HT2220",
      "country_code": "HT",
      "latitude": 19.448,
      "longitude": -71.6929,
      "admin_name1": "Nord-Est"
    },
    {
      "place_name": "Carice",
      "postal_code": "HT2420",
      "country_code": "HT",
      "latitude": 19.3779,
      "longitude": -71.8303,
      "admin_name1": "Nord-Est"
    },
    {
      "place_name": "Kenscoff",
      "postal_code": "HT6150",
      "country_code": "HT",
      "latitude": 18.4477,
      "longitude": -72.284,
      "admin_name1": "Ouest"
    },
    {
      "place_name": "Léogâne",
      "postal_code": "HT6210",
      "country_code": "HT",
      "latitude": 18.5111,
      "longitude": -72.6334,
      "admin_name1": "Ouest"
    },
    {
      "place_name": "Arniquet",
      "postal_code": "HT8230",
      "country_code": "HT",
      "latitude": 18.1167,
      "longitude": -73.9167,
      "admin_name1": "Sud"
    },
    {
      "place_name": "Roche à Bateau",
      "postal_code": "HT8430",
      "country_code": "HT",
      "latitude": 18.1818,
      "longitude": -74.0034,
      "admin_name1": "Sud"
    },
    {
      "place_name": "Tiburon",
      "postal_code": "HT8530",
      "country_code": "HT",
      "latitude": 18.3259,
      "longitude": -74.396,
      "admin_name1": "Sud"
    },
    {
      "place_name": "Bainet",
      "postal_code": "HT9210",
      "country_code": "HT",
      "latitude": 18.184,
      "longitude": -72.7523,
      "admin_name1": "Sud-Est"
    },
    {
      "place_name": "Belladère",
      "postal_code": "HT5320",
      "country_code": "HT",
      "latitude": 18.8679,
      "longitude": -71.7622,
      "admin_name1": "Centre"
    },
    {
      "place_name": "Port-Margot",
      "postal_code": "HT1520",
      "country_code": "HT",
      "latitude": 19.7518,
      "longitude": -72.4301,
      "admin_name1": "Nord"
    },
    {
      "place_name": "Dupity",
      "postal_code": "HT2321",
      "country_code": "HT",
      "latitude": 19.4833,
      "longitude": -72.05,
      "admin_name1": "Nord-Est"
    },
    {
      "place_name": "Pétion-Ville",
      "postal_code": "HT6140",
      "country_code": "HT",
      "latitude": 18.5125,
      "longitude": -72.2853,
      "admin_name1": "Ouest"
    },
    {
      "place_name": "Torbeck",
      "postal_code": "HT8120",
      "country_code": "HT",
      "latitude": 18.1634,
      "longitude": -73.8095,
      "admin_name1": "Sud"
    },
    {
      "place_name": "La Colline",
      "postal_code": "HT8313",
      "country_code": "HT",
      "latitude": 18.3167,
      "longitude": -73.25,
      "admin_name1": "Sud"
    },
    {
      "place_name": "Petite-Rivière-de-Nippes",
      "postal_code": "HT7420",
      "country_code": "HT",
      "latitude": 18.4761,
      "longitude": -73.2349,
      "admin_name1": "Nippes"
    },
    {
      "place_name": "Gonaïves",
      "postal_code": "HT4110",
      "country_code": "HT",
      "latitude": 19.4475,
      "longitude": -72.6893,
      "admin_name1": "Artibonite"
    },
    {
      "place_name": "Labadie (quartier du Cap)",
      "postal_code": "HT1112",
      "country_code": "HT",
      "latitude": 19.7394,
      "longitude": -72.1825,
      "admin_name1": "Nord"
    },
    {
      "place_name": "Côte-de-Fer et Fond",
      "postal_code": "HT1517",
      "country_code": "HT",
      "latitude": 19.8451,
      "longitude": -72.5235,
      "admin_name1": "Nord"
    },
    {
      "place_name": "Fort-Liberté",
      "postal_code": "HT2110",
      "country_code": "HT",
      "latitude": 19.5868,
      "longitude": -71.8483,
      "admin_name1": "Nord-Est"
    },
    {
      "place_name": "Varreux",
      "postal_code": "HT6121",
      "country_code": "HT",
      "latitude": 18.3833,
      "longitude": -72.85,
      "admin_name1": "Ouest"
    },
    {
      "place_name": "Arcahaie",
      "postal_code": "HT6410",
      "country_code": "HT",
      "latitude": 18.7702,
      "longitude": -72.5123,
      "admin_name1": "Ouest"
    },
    {
      "place_name": "Saintard",
      "postal_code": "HT6411",
      "country_code": "HT",
      "latitude": 18.8253,
      "longitude": -72.5496,
      "admin_name1": "Ouest"
    },
    {
      "place_name": "Anse-à-Veau",
      "postal_code": "HT7510",
      "country_code": "HT",
      "latitude": 18.4863,
      "longitude": -73.5382,
      "admin_name1": "Nippes"
    },
    {
      "place_name": "Chansolme",
      "postal_code": "HT3140",
      "country_code": "HT",
      "latitude": 19.8832,
      "longitude": -72.8355,
      "admin_name1": "Nord-Ouest"
    },
    {
      "place_name": "Los Palis",
      "postal_code": "HT5111",
      "country_code": "HT",
      "latitude": 19.1417,
      "longitude": -71.9402,
      "admin_name1": "Centre"
    },
    {
      "place_name": "Acul-du-Nord",
      "postal_code": "HT1210",
      "country_code": "HT",
      "latitude": 19.6052,
      "longitude": -72.3522,
      "admin_name1": "Nord"
    },
    {
      "place_name": "Dondon",
      "postal_code": "HT1420",
      "country_code": "HT",
      "latitude": 19.5273,
      "longitude": -72.2434,
      "admin_name1": "Nord"
    },
    {
      "place_name": "Acul Samedi",
      "postal_code": "HT2112",
      "country_code": "HT",
      "latitude": 19.5188,
      "longitude": -71.8821,
      "admin_name1": "Nord-Est"
    },
    {
      "place_name": "Pointe à Raquette (La Gonâve)",
      "postal_code": "HT6520",
      "country_code": "HT",
      "latitude": 18.8345,
      "longitude": -72.8664,
      "admin_name1": "Ouest"
    },
    {
      "place_name": "Petit-Trou-de-Nippes",
      "postal_code": "HT7530",
      "country_code": "HT",
      "latitude": 18.5254,
      "longitude": -73.5081,
      "admin_name1": "Nippes"
    },
    {
      "place_name": "Cerca-Carvajal",
      "postal_code": "HT5140",
      "country_code": "HT",
      "latitude": 19.2696,
      "longitude": -71.9386,
      "admin_name1": "Centre"
    },
    {
      "place_name": "Cerca-la-Source",
      "postal_code": "HT5410",
      "country_code": "HT",
      "latitude": 19.1887,
      "longitude": -71.7308,
      "admin_name1": "Centre"
    },
    {
      "place_name": "Maïs Gâté, Tabarre zone 1",
      "postal_code": "HT6123",
      "country_code": "HT",
      "latitude": 18.5201,
      "longitude": -72.4911,
      "admin_name1": "Ouest"
    },
    {
      "place_name": "Merger",
      "postal_code": "HT6136",
      "country_code": "HT",
      "latitude": 18.5415,
      "longitude": -72.4902,
      "admin_name1": "Ouest"
    },
    {
      "place_name": "Ganthier",
      "postal_code": "HT6330",
      "country_code": "HT",
      "latitude": 18.5316,
      "longitude": -72.0633,
      "admin_name1": "Ouest"
    },
    {
      "place_name": "L’Ïle à Vaches",
      "postal_code": "HT8160",
      "country_code": "HT",
      "latitude": 18.2437,
      "longitude": -73.829,
      "admin_name1": "Sud"
    },
    {
      "place_name": "Fond-Des-Blancs",
      "postal_code": "HT8311",
      "country_code": "HT",
      "latitude": 18.2982,
      "longitude": -73.3222,
      "admin_name1": "Sud"
    },
    {
      "place_name": "Damassin",
      "postal_code": "HT8411",
      "country_code": "HT",
      "latitude": 18.2333,
      "longitude": -74.0667,
      "admin_name1": "Sud"
    },
    {
      "place_name": "Chambellan",
      "postal_code": "HT7150",
      "country_code": "HT",
      "latitude": 18.5504,
      "longitude": -74.3132,
      "admin_name1": "Grande Anse"
    },
    {
      "place_name": "Mare Rouge",
      "postal_code": "HT3122",
      "country_code": "HT",
      "latitude": 20.0344,
      "longitude": -72.7916,
      "admin_name1": "Nord-Ouest"
    },
    {
      "place_name": "Baie-de-Henne",
      "postal_code": "HT3330",
      "country_code": "HT",
      "latitude": 19.6631,
      "longitude": -73.2094,
      "admin_name1": "Nord-Ouest"
    },
    {
      "place_name": "Petite Rivière de l’Artibonite",
      "postal_code": "HT4111",
      "country_code": "HT",
      "latitude": 19.124,
      "longitude": -72.4817,
      "admin_name1": "Artibonite"
    },
    {
      "place_name": "Dérac",
      "postal_code": "HT2111",
      "country_code": "HT",
      "latitude": 19.6548,
      "longitude": -71.8145,
      "admin_name1": "Nord-Est"
    },
    {
      "place_name": "Ferrier",
      "postal_code": "HT2120",
      "country_code": "HT",
      "latitude": 19.6155,
      "longitude": -71.7779,
      "admin_name1": "Nord-Est"
    },
    {
      "place_name": "Warney",
      "postal_code": "HT6134",
      "country_code": "HT",
      "latitude": 18.5425,
      "longitude": -72.3986,
      "admin_name1": "Ouest"
    },
    {
      "place_name": "Fermathe",
      "postal_code": "HT6146",
      "country_code": "HT",
      "latitude": 18.4696,
      "longitude": -72.294,
      "admin_name1": "Ouest"
    },
    {
      "place_name": "Port-Salut",
      "postal_code": "HT8210",
      "country_code": "HT",
      "latitude": 18.077,
      "longitude": -73.9173,
      "admin_name1": "Sud"
    },
    {
      "place_name": "Randel",
      "postal_code": "HT8511",
      "country_code": "HT",
      "latitude": 18.309,
      "longitude": -74.1009,
      "admin_name1": "Sud"
    },
    {
      "place_name": "Anse-d’Hainault",
      "postal_code": "HT7210",
      "country_code": "HT",
      "latitude": 18.4882,
      "longitude": -74.4216,
      "admin_name1": "Grande Anse"
    },
    {
      "place_name": "Les Irois",
      "postal_code": "HT7230",
      "country_code": "HT",
      "latitude": 18.4049,
      "longitude": -74.4528,
      "admin_name1": "Grande Anse"
    },
    {
      "place_name": "Carcasse",
      "postal_code": "HT7231",
      "country_code": "HT",
      "latitude": 18.3703,
      "longitude": -74.4453,
      "admin_name1": "Grande Anse"
    },
    {
      "place_name": "Port-de-Paix",
      "postal_code": "HT3110",
      "country_code": "HT",
      "latitude": 19.9398,
      "longitude": -72.8304,
      "admin_name1": "Nord-Ouest"
    },
    {
      "place_name": "Baptiste",
      "postal_code": "HT5321",
      "country_code": "HT",
      "latitude": 18.7976,
      "longitude": -71.7831,
      "admin_name1": "Centre"
    },
    {
      "place_name": "Maribahoux",
      "postal_code": "HT2121",
      "country_code": "HT",
      "latitude": 19.6155,
      "longitude": -71.7779,
      "admin_name1": "Nord-Est"
    },
    {
      "place_name": "Cité soleil",
      "postal_code": "HT6122",
      "country_code": "HT",
      "latitude": 18.5803,
      "longitude": -72.3381,
      "admin_name1": "Ouest"
    },
    {
      "place_name": "Tabarre (zone2)",
      "postal_code": "HT6124",
      "country_code": "HT",
      "latitude": 18.5201,
      "longitude": -72.4911,
      "admin_name1": "Ouest"
    },
    {
      "place_name": "Croix-des-Bouquets",
      "postal_code": "HT6310",
      "country_code": "HT",
      "latitude": 18.5768,
      "longitude": -72.2262,
      "admin_name1": "Ouest"
    },
    {
      "place_name": "Chardonnières",
      "postal_code": "HT8510",
      "country_code": "HT",
      "latitude": 18.2748,
      "longitude": -74.1661,
      "admin_name1": "Sud"
    },
    {
      "place_name": "Côtes de Fer",
      "postal_code": "HT9220",
      "country_code": "HT",
      "latitude": 18.1887,
      "longitude": -73.0029,
      "admin_name1": "Sud-Est"
    },
    {
      "place_name": "Jean-Rabel",
      "postal_code": "HT3340",
      "country_code": "HT",
      "latitude": 19.8538,
      "longitude": -73.1913,
      "admin_name1": "Nord-Ouest"
    },
    {
      "place_name": "Savane à Roches",
      "postal_code": "HT4421",
      "country_code": "HT",
      "latitude": 19.011,
      "longitude": -72.367,
      "admin_name1": "Artibonite"
    },
    {
      "place_name": "Ouanaminthe",
      "postal_code": "HT2210",
      "country_code": "HT",
      "latitude": 19.5493,
      "longitude": -71.7248,
      "admin_name1": "Nord-Est"
    },
    {
      "place_name": "Grosse-Roche",
      "postal_code": "HT2411",
      "country_code": "HT",
      "latitude": 19.4355,
      "longitude": -71.9209,
      "admin_name1": "Nord-Est"
    },
    {
      "place_name": "Carrefour",
      "postal_code": "HT6130",
      "country_code": "HT",
      "latitude": 18.5411,
      "longitude": -72.3992,
      "admin_name1": "Ouest"
    },
    {
      "place_name": "Moreau Paye",
      "postal_code": "HT4530",
      "country_code": "HT",
      "latitude": 19.5174,
      "longitude": -72.3613,
      "admin_name1": "Artibonite"
    },
    {
      "place_name": "Savanette",
      "postal_code": "HT5330",
      "country_code": "HT",
      "latitude": 18.7443,
      "longitude": -71.8219,
      "admin_name1": "Centre"
    },
    {
      "place_name": "Perches",
      "postal_code": "HT2130",
      "country_code": "HT",
      "latitude": 19.522,
      "longitude": -71.9232,
      "admin_name1": "Nord-Est"
    },
    {
      "place_name": "Bel-Air et Bourdon",
      "postal_code": "HT6111",
      "country_code": "HT",
      "latitude": 18.5333,
      "longitude": -72.3374,
      "admin_name1": "Ouest"
    },
    {
      "place_name": "L’Asile",
      "postal_code": "HT7540",
      "country_code": "HT",
      "latitude": 18.384,
      "longitude": -73.4144,
      "admin_name1": "Nippes"
    },
    {
      "place_name": "Hinche",
      "postal_code": "HT5110",
      "country_code": "HT",
      "latitude": 19.15,
      "longitude": -72.0167,
      "admin_name1": "Centre"
    },
    {
      "place_name": "Pignon",
      "postal_code": "HT1440",
      "country_code": "HT",
      "latitude": 19.3359,
      "longitude": -72.1166,
      "admin_name1": "Nord"
    },
    {
      "place_name": "Brochette",
      "postal_code": "HT6135",
      "country_code": "HT",
      "latitude": 18.5358,
      "longitude": -72.4175,
      "admin_name1": "Ouest"
    },
    {
      "place_name": "Frères, pergnier,peguy-ville",
      "postal_code": "HT6141",
      "country_code": "HT",
      "latitude": 18.4966,
      "longitude": -72.2896,
      "admin_name1": "Ouest"
    },
    {
      "place_name": "Fonds Verettes",
      "postal_code": "HT6340",
      "country_code": "HT",
      "latitude": 18.3957,
      "longitude": -71.8563,
      "admin_name1": "Ouest"
    },
    {
      "place_name": "Port à Piment",
      "postal_code": "HT8420",
      "country_code": "HT",
      "latitude": 18.2496,
      "longitude": -74.0971,
      "admin_name1": "Sud"
    }
  ]
]