[
  [
    {
      "place_name": "Pécs",
      "postal_code": "7622",
      "country_code": "HU",
      "latitude": 46.0833,
      "longitude": 18.2333,
      "admin_name1": "Baranya"
    },
    {
      "place_name": "Husztót",
      "postal_code": "7678",
      "country_code": "HU",
      "latitude": 46.1667,
      "longitude": 18.0833,
      "admin_name1": "Baranya"
    },
    {
      "place_name": "Cserdi",
      "postal_code": "7683",
      "country_code": "HU",
      "latitude": 46.0831,
      "longitude": 17.9904,
      "admin_name1": "Baranya"
    },
    {
      "place_name": "Pócsa",
      "postal_code": "7756",
      "country_code": "HU",
      "latitude": 45.9097,
      "longitude": 18.4708,
      "admin_name1": "Baranya"
    },
    {
      "place_name": "Lothárd",
      "postal_code": "7761",
      "country_code": "HU",
      "latitude": 46.0016,
      "longitude": 18.354,
      "admin_name1": "Baranya"
    },
    {
      "place_name": "Bosta",
      "postal_code": "7811",
      "country_code": "HU",
      "latitude": 45.9504,
      "longitude": 18.2108,
      "admin_name1": "Baranya"
    },
    {
      "place_name": "Vejti",
      "postal_code": "7838",
      "country_code": "HU",
      "latitude": 45.8104,
      "longitude": 17.971,
      "admin_name1": "Baranya"
    },
    {
      "place_name": "Botykapeterd",
      "postal_code": "7900",
      "country_code": "HU",
      "latitude": 46.0505,
      "longitude": 17.8666,
      "admin_name1": "Baranya"
    },
    {
      "place_name": "Gyöngyfa",
      "postal_code": "7954",
      "country_code": "HU",
      "latitude": 45.9602,
      "longitude": 17.9513,
      "admin_name1": "Baranya"
    },
    {
      "place_name": "Zádor",
      "postal_code": "7976",
      "country_code": "HU",
      "latitude": 45.9593,
      "longitude": 17.6593,
      "admin_name1": "Baranya"
    },
    {
      "place_name": "Hunya",
      "postal_code": "5555",
      "country_code": "HU",
      "latitude": 46.8167,
      "longitude": 20.85,
      "admin_name1": "Békés"
    },
    {
      "place_name": "Békésszentandrás",
      "postal_code": "5561",
      "country_code": "HU",
      "latitude": 46.8667,
      "longitude": 20.4833,
      "admin_name1": "Békés"
    },
    {
      "place_name": "Medgyesegyháza",
      "postal_code": "5752",
      "country_code": "HU",
      "latitude": 46.5,
      "longitude": 21.0333,
      "admin_name1": "Békés"
    },
    {
      "place_name": "Kisdombegyház",
      "postal_code": "5837",
      "country_code": "HU",
      "latitude": 46.3667,
      "longitude": 21.1,
      "admin_name1": "Békés"
    },
    {
      "place_name": "Nyárlőrinc",
      "postal_code": "6032",
      "country_code": "HU",
      "latitude": 46.8602,
      "longitude": 19.8784,
      "admin_name1": "Bács-Kiskun"
    },
    {
      "place_name": "Soltszentimre",
      "postal_code": "6223",
      "country_code": "HU",
      "latitude": 46.7714,
      "longitude": 19.287,
      "admin_name1": "Bács-Kiskun"
    },
    {
      "place_name": "Budapest",
      "postal_code": "1021",
      "country_code": "HU",
      "latitude": 47.4984,
      "longitude": 19.0404,
      "admin_name1": "Budapest"
    },
    {
      "place_name": "Miskolc",
      "postal_code": "3501",
      "country_code": "HU",
      "latitude": 48.1,
      "longitude": 20.7833,
      "admin_name1": "Borsod-Abaúj-Zemplén"
    },
    {
      "place_name": "Bükkszentkereszt",
      "postal_code": "3557",
      "country_code": "HU",
      "latitude": 48.0667,
      "longitude": 20.6333,
      "admin_name1": "Borsod-Abaúj-Zemplén"
    },
    {
      "place_name": "Múcsony",
      "postal_code": "3744",
      "country_code": "HU",
      "latitude": 48.2667,
      "longitude": 20.6833,
      "admin_name1": "Borsod-Abaúj-Zemplén"
    },
    {
      "place_name": "Jósvafő",
      "postal_code": "3758",
      "country_code": "HU",
      "latitude": 48.4833,
      "longitude": 20.5667,
      "admin_name1": "Borsod-Abaúj-Zemplén"
    },
    {
      "place_name": "Parasznya",
      "postal_code": "3777",
      "country_code": "HU",
      "latitude": 48.1667,
      "longitude": 20.65,
      "admin_name1": "Borsod-Abaúj-Zemplén"
    },
    {
      "place_name": "Alsóvadász",
      "postal_code": "3811",
      "country_code": "HU",
      "latitude": 48.25,
      "longitude": 20.9167,
      "admin_name1": "Borsod-Abaúj-Zemplén"
    },
    {
      "place_name": "Krasznokvajda",
      "postal_code": "3821",
      "country_code": "HU",
      "latitude": 48.4667,
      "longitude": 20.9833,
      "admin_name1": "Borsod-Abaúj-Zemplén"
    },
    {
      "place_name": "Aszaló",
      "postal_code": "3841",
      "country_code": "HU",
      "latitude": 48.2167,
      "longitude": 20.9667,
      "admin_name1": "Borsod-Abaúj-Zemplén"
    },
    {
      "place_name": "Baskó",
      "postal_code": "3881",
      "country_code": "HU",
      "latitude": 48.3333,
      "longitude": 21.3333,
      "admin_name1": "Borsod-Abaúj-Zemplén"
    },
    {
      "place_name": "Boldogkőváralja",
      "postal_code": "3885",
      "country_code": "HU",
      "latitude": 48.3333,
      "longitude": 21.2333,
      "admin_name1": "Borsod-Abaúj-Zemplén"
    },
    {
      "place_name": "Erdőbénye",
      "postal_code": "3932",
      "country_code": "HU",
      "latitude": 48.2667,
      "longitude": 21.3667,
      "admin_name1": "Borsod-Abaúj-Zemplén"
    },
    {
      "place_name": "Szeged",
      "postal_code": "6729",
      "country_code": "HU",
      "latitude": 46.253,
      "longitude": 20.1482,
      "admin_name1": "Csongrád"
    },
    {
      "place_name": "Balástya",
      "postal_code": "6764",
      "country_code": "HU",
      "latitude": 46.4228,
      "longitude": 20.0082,
      "admin_name1": "Csongrád"
    },
    {
      "place_name": "Ópusztaszer",
      "postal_code": "6767",
      "country_code": "HU",
      "latitude": 46.4859,
      "longitude": 20.0872,
      "admin_name1": "Csongrád"
    },
    {
      "place_name": "Klárafalva",
      "postal_code": "6773",
      "country_code": "HU",
      "latitude": 46.2167,
      "longitude": 20.3333,
      "admin_name1": "Csongrád"
    },
    {
      "place_name": "Sáregres",
      "postal_code": "7014",
      "country_code": "HU",
      "latitude": 46.7809,
      "longitude": 18.5924,
      "admin_name1": "Fejér"
    },
    {
      "place_name": "Balinka",
      "postal_code": "8054",
      "country_code": "HU",
      "latitude": 47.3135,
      "longitude": 18.1895,
      "admin_name1": "Fejér"
    },
    {
      "place_name": "Sukoró",
      "postal_code": "8096",
      "country_code": "HU",
      "latitude": 47.2393,
      "longitude": 18.6034,
      "admin_name1": "Fejér"
    },
    {
      "place_name": "Zichyújfalu",
      "postal_code": "8112",
      "country_code": "HU",
      "latitude": 47.1333,
      "longitude": 18.6833,
      "admin_name1": "Fejér"
    },
    {
      "place_name": "Soponya",
      "postal_code": "8123",
      "country_code": "HU",
      "latitude": 47.0148,
      "longitude": 18.4534,
      "admin_name1": "Fejér"
    },
    {
      "place_name": "Rábacsanak",
      "postal_code": "9313",
      "country_code": "HU",
      "latitude": 47.526,
      "longitude": 17.2899,
      "admin_name1": "Győr-Moson-Sopron"
    },
    {
      "place_name": "Harka",
      "postal_code": "9422",
      "country_code": "HU",
      "latitude": 47.6333,
      "longitude": 16.6,
      "admin_name1": "Győr-Moson-Sopron"
    },
    {
      "place_name": "Pinnye",
      "postal_code": "9481",
      "country_code": "HU",
      "latitude": 47.5849,
      "longitude": 16.7691,
      "admin_name1": "Győr-Moson-Sopron"
    },
    {
      "place_name": "Sopron",
      "postal_code": "9494",
      "country_code": "HU",
      "latitude": 47.685,
      "longitude": 16.5905,
      "admin_name1": "Győr-Moson-Sopron"
    },
    {
      "place_name": "Hajdúböszörmény",
      "postal_code": "4074",
      "country_code": "HU",
      "latitude": 47.6667,
      "longitude": 21.5167,
      "admin_name1": "Hajdú-Bihar"
    },
    {
      "place_name": "Komádi",
      "postal_code": "4138",
      "country_code": "HU",
      "latitude": 47.0,
      "longitude": 21.5,
      "admin_name1": "Hajdú-Bihar"
    },
    {
      "place_name": "Hajdúhadház",
      "postal_code": "4242",
      "country_code": "HU",
      "latitude": 47.6833,
      "longitude": 21.6667,
      "admin_name1": "Hajdú-Bihar"
    },
    {
      "place_name": "Nyíracsád",
      "postal_code": "4262",
      "country_code": "HU",
      "latitude": 47.6033,
      "longitude": 21.9721,
      "admin_name1": "Hajdú-Bihar"
    },
    {
      "place_name": "Mátraszentimre",
      "postal_code": "3235",
      "country_code": "HU",
      "latitude": 47.9093,
      "longitude": 19.8782,
      "admin_name1": "Heves"
    },
    {
      "place_name": "Abasár",
      "postal_code": "3261",
      "country_code": "HU",
      "latitude": 47.797,
      "longitude": 20.0032,
      "admin_name1": "Heves"
    },
    {
      "place_name": "Visonta",
      "postal_code": "3272",
      "country_code": "HU",
      "latitude": 47.78,
      "longitude": 20.0291,
      "admin_name1": "Heves"
    },
    {
      "place_name": "Kisköre",
      "postal_code": "3384",
      "country_code": "HU",
      "latitude": 47.5,
      "longitude": 20.5,
      "admin_name1": "Heves"
    },
    {
      "place_name": "Tiszajenő",
      "postal_code": "5094",
      "country_code": "HU",
      "latitude": 47.0333,
      "longitude": 20.15,
      "admin_name1": "Jász-Nagykun-Szolnok"
    },
    {
      "place_name": "Jászfelsőszentgyörgy",
      "postal_code": "5111",
      "country_code": "HU",
      "latitude": 47.5074,
      "longitude": 19.7839,
      "admin_name1": "Jász-Nagykun-Szolnok"
    },
    {
      "place_name": "Jászágó",
      "postal_code": "5124",
      "country_code": "HU",
      "latitude": 47.5931,
      "longitude": 19.8559,
      "admin_name1": "Jász-Nagykun-Szolnok"
    },
    {
      "place_name": "Tiszapüspöki",
      "postal_code": "5211",
      "country_code": "HU",
      "latitude": 47.2167,
      "longitude": 20.3167,
      "admin_name1": "Jász-Nagykun-Szolnok"
    },
    {
      "place_name": "Kisbér",
      "postal_code": "2870",
      "country_code": "HU",
      "latitude": 47.5029,
      "longitude": 18.0367,
      "admin_name1": "Komárom-Esztergom"
    },
    {
      "place_name": "Magyarnándor",
      "postal_code": "2694",
      "country_code": "HU",
      "latitude": 47.9652,
      "longitude": 19.3378,
      "admin_name1": "Nógrád"
    },
    {
      "place_name": "Mátramindszent",
      "postal_code": "3155",
      "country_code": "HU",
      "latitude": 47.9856,
      "longitude": 19.9402,
      "admin_name1": "Nógrád"
    },
    {
      "place_name": "Budakalász",
      "postal_code": "2011",
      "country_code": "HU",
      "latitude": 47.6167,
      "longitude": 19.05,
      "admin_name1": "Pest"
    },
    {
      "place_name": "Visegrád",
      "postal_code": "2026",
      "country_code": "HU",
      "latitude": 47.7853,
      "longitude": 18.9709,
      "admin_name1": "Pest"
    },
    {
      "place_name": "Pilisjászfalu",
      "postal_code": "2080",
      "country_code": "HU",
      "latitude": 47.6553,
      "longitude": 18.7894,
      "admin_name1": "Pest"
    },
    {
      "place_name": "Piliscsaba",
      "postal_code": "2081",
      "country_code": "HU",
      "latitude": 47.6342,
      "longitude": 18.8289,
      "admin_name1": "Pest"
    },
    {
      "place_name": "Veresegyház",
      "postal_code": "2112",
      "country_code": "HU",
      "latitude": 47.6459,
      "longitude": 19.2954,
      "admin_name1": "Pest"
    },
    {
      "place_name": "Göd",
      "postal_code": "2131",
      "country_code": "HU",
      "latitude": 47.6832,
      "longitude": 19.1342,
      "admin_name1": "Pest"
    },
    {
      "place_name": "Kisnémedi",
      "postal_code": "2165",
      "country_code": "HU",
      "latitude": 47.7402,
      "longitude": 19.285,
      "admin_name1": "Pest"
    },
    {
      "place_name": "Bugyi",
      "postal_code": "2347",
      "country_code": "HU",
      "latitude": 47.2275,
      "longitude": 19.1466,
      "admin_name1": "Pest"
    },
    {
      "place_name": "Ócsa",
      "postal_code": "2364",
      "country_code": "HU",
      "latitude": 47.2999,
      "longitude": 19.2306,
      "admin_name1": "Pest"
    },
    {
      "place_name": "Pusztavacs",
      "postal_code": "2378",
      "country_code": "HU",
      "latitude": 47.1716,
      "longitude": 19.4992,
      "admin_name1": "Pest"
    },
    {
      "place_name": "Újlengyel",
      "postal_code": "2724",
      "country_code": "HU",
      "latitude": 47.2285,
      "longitude": 19.4494,
      "admin_name1": "Pest"
    },
    {
      "place_name": "Hetes",
      "postal_code": "7432",
      "country_code": "HU",
      "latitude": 46.4222,
      "longitude": 17.6932,
      "admin_name1": "Somogy"
    },
    {
      "place_name": "Sántos",
      "postal_code": "7479",
      "country_code": "HU",
      "latitude": 46.3424,
      "longitude": 17.8787,
      "admin_name1": "Somogy"
    },
    {
      "place_name": "Segesd",
      "postal_code": "7562",
      "country_code": "HU",
      "latitude": 46.3414,
      "longitude": 17.3513,
      "admin_name1": "Somogy"
    },
    {
      "place_name": "Balatonszárszó",
      "postal_code": "8624",
      "country_code": "HU",
      "latitude": 46.8295,
      "longitude": 17.8243,
      "admin_name1": "Somogy"
    },
    {
      "place_name": "Kánya",
      "postal_code": "8667",
      "country_code": "HU",
      "latitude": 46.7004,
      "longitude": 18.0673,
      "admin_name1": "Somogy"
    },
    {
      "place_name": "Libickozma",
      "postal_code": "8707",
      "country_code": "HU",
      "latitude": 46.522,
      "longitude": 17.5328,
      "admin_name1": "Somogy"
    },
    {
      "place_name": "Inke",
      "postal_code": "8724",
      "country_code": "HU",
      "latitude": 46.3952,
      "longitude": 17.1978,
      "admin_name1": "Somogy"
    },
    {
      "place_name": "Hollád",
      "postal_code": "8731",
      "country_code": "HU",
      "latitude": 46.6413,
      "longitude": 17.3096,
      "admin_name1": "Somogy"
    },
    {
      "place_name": "Szenta",
      "postal_code": "8849",
      "country_code": "HU",
      "latitude": 46.2523,
      "longitude": 17.1699,
      "admin_name1": "Somogy"
    },
    {
      "place_name": "Zákány",
      "postal_code": "8852",
      "country_code": "HU",
      "latitude": 46.2826,
      "longitude": 16.9487,
      "admin_name1": "Somogy"
    },
    {
      "place_name": "Geszteréd",
      "postal_code": "4232",
      "country_code": "HU",
      "latitude": 47.7667,
      "longitude": 21.7833,
      "admin_name1": "Szabolcs-Szatmár-Bereg"
    },
    {
      "place_name": "Érpatak",
      "postal_code": "4245",
      "country_code": "HU",
      "latitude": 47.8,
      "longitude": 21.7667,
      "admin_name1": "Szabolcs-Szatmár-Bereg"
    },
    {
      "place_name": "Vállaj",
      "postal_code": "4351",
      "country_code": "HU",
      "latitude": 47.7676,
      "longitude": 22.3813,
      "admin_name1": "Szabolcs-Szatmár-Bereg"
    },
    {
      "place_name": "Tiszavasvári",
      "postal_code": "4440",
      "country_code": "HU",
      "latitude": 47.9667,
      "longitude": 21.35,
      "admin_name1": "Szabolcs-Szatmár-Bereg"
    },
    {
      "place_name": "Kékcse",
      "postal_code": "4494",
      "country_code": "HU",
      "latitude": 48.2492,
      "longitude": 22.0057,
      "admin_name1": "Szabolcs-Szatmár-Bereg"
    },
    {
      "place_name": "Napkor",
      "postal_code": "4552",
      "country_code": "HU",
      "latitude": 47.938,
      "longitude": 21.8676,
      "admin_name1": "Szabolcs-Szatmár-Bereg"
    },
    {
      "place_name": "Csengersima",
      "postal_code": "4743",
      "country_code": "HU",
      "latitude": 47.8678,
      "longitude": 22.7263,
      "admin_name1": "Szabolcs-Szatmár-Bereg"
    },
    {
      "place_name": "Csengerújfalu",
      "postal_code": "4764",
      "country_code": "HU",
      "latitude": 47.8059,
      "longitude": 22.6269,
      "admin_name1": "Szabolcs-Szatmár-Bereg"
    },
    {
      "place_name": "Vásárosnamény",
      "postal_code": "4800",
      "country_code": "HU",
      "latitude": 48.1254,
      "longitude": 22.3133,
      "admin_name1": "Szabolcs-Szatmár-Bereg"
    },
    {
      "place_name": "Lónya",
      "postal_code": "4836",
      "country_code": "HU",
      "latitude": 48.3311,
      "longitude": 22.2653,
      "admin_name1": "Szabolcs-Szatmár-Bereg"
    },
    {
      "place_name": "Tolnanémedi",
      "postal_code": "7083",
      "country_code": "HU",
      "latitude": 46.7188,
      "longitude": 18.4827,
      "admin_name1": "Tolna"
    },
    {
      "place_name": "Sárpilis",
      "postal_code": "7145",
      "country_code": "HU",
      "latitude": 46.2486,
      "longitude": 18.7424,
      "admin_name1": "Tolna"
    },
    {
      "place_name": "Kisvejke",
      "postal_code": "7183",
      "country_code": "HU",
      "latitude": 46.3813,
      "longitude": 18.4142,
      "admin_name1": "Tolna"
    },
    {
      "place_name": "Csikóstőttős",
      "postal_code": "7341",
      "country_code": "HU",
      "latitude": 46.3404,
      "longitude": 18.1577,
      "admin_name1": "Tolna"
    },
    {
      "place_name": "Vönöck",
      "postal_code": "9516",
      "country_code": "HU",
      "latitude": 47.3142,
      "longitude": 17.1604,
      "admin_name1": "Vas"
    },
    {
      "place_name": "Sótony",
      "postal_code": "9681",
      "country_code": "HU",
      "latitude": 47.1997,
      "longitude": 16.955,
      "admin_name1": "Vas"
    },
    {
      "place_name": "Tanakajd",
      "postal_code": "9762",
      "country_code": "HU",
      "latitude": 47.1862,
      "longitude": 16.7394,
      "admin_name1": "Vas"
    },
    {
      "place_name": "Pornóapáti",
      "postal_code": "9796",
      "country_code": "HU",
      "latitude": 47.1563,
      "longitude": 16.4646,
      "admin_name1": "Vas"
    },
    {
      "place_name": "Győrvár",
      "postal_code": "9821",
      "country_code": "HU",
      "latitude": 46.9851,
      "longitude": 16.8397,
      "admin_name1": "Vas"
    },
    {
      "place_name": "Oszkó",
      "postal_code": "9825",
      "country_code": "HU",
      "latitude": 47.0384,
      "longitude": 16.8769,
      "admin_name1": "Vas"
    },
    {
      "place_name": "Kám",
      "postal_code": "9841",
      "country_code": "HU",
      "latitude": 47.1038,
      "longitude": 16.8722,
      "admin_name1": "Vas"
    },
    {
      "place_name": "Felsőmarác",
      "postal_code": "9918",
      "country_code": "HU",
      "latitude": 46.9339,
      "longitude": 16.5199,
      "admin_name1": "Vas"
    },
    {
      "place_name": "Alsószölnök",
      "postal_code": "9983",
      "country_code": "HU",
      "latitude": 46.9269,
      "longitude": 16.2024,
      "admin_name1": "Vas"
    },
    {
      "place_name": "Balatonakarattya",
      "postal_code": "8172",
      "country_code": "HU",
      "latitude": 47.0195,
      "longitude": 18.1565,
      "admin_name1": "Veszprém"
    },
    {
      "place_name": "Örvényes",
      "postal_code": "8242",
      "country_code": "HU",
      "latitude": 46.915,
      "longitude": 17.8158,
      "admin_name1": "Veszprém"
    },
    {
      "place_name": "Káptalanfa",
      "postal_code": "8471",
      "country_code": "HU",
      "latitude": 47.0652,
      "longitude": 17.3438,
      "admin_name1": "Veszprém"
    },
    {
      "place_name": "Nóráp",
      "postal_code": "8591",
      "country_code": "HU",
      "latitude": 47.2731,
      "longitude": 17.4567,
      "admin_name1": "Veszprém"
    },
    {
      "place_name": "Várvölgy",
      "postal_code": "8316",
      "country_code": "HU",
      "latitude": 46.8696,
      "longitude": 17.2964,
      "admin_name1": "Zala"
    },
    {
      "place_name": "Vindornyafok",
      "postal_code": "8354",
      "country_code": "HU",
      "latitude": 46.8561,
      "longitude": 17.1727,
      "admin_name1": "Zala"
    },
    {
      "place_name": "Rezi",
      "postal_code": "8373",
      "country_code": "HU",
      "latitude": 46.8434,
      "longitude": 17.2204,
      "admin_name1": "Zala"
    },
    {
      "place_name": "Zalavár",
      "postal_code": "8392",
      "country_code": "HU",
      "latitude": 46.6684,
      "longitude": 17.156,
      "admin_name1": "Zala"
    },
    {
      "place_name": "Orosztony",
      "postal_code": "8744",
      "country_code": "HU",
      "latitude": 46.6277,
      "longitude": 17.0619,
      "admin_name1": "Zala"
    },
    {
      "place_name": "Szentpéterfölde",
      "postal_code": "8953",
      "country_code": "HU",
      "latitude": 46.6149,
      "longitude": 16.7573,
      "admin_name1": "Zala"
    },
    {
      "place_name": "Rédics",
      "postal_code": "8978",
      "country_code": "HU",
      "latitude": 46.6142,
      "longitude": 16.4775,
      "admin_name1": "Zala"
    },
    {
      "place_name": "Zalalövő",
      "postal_code": "8999",
      "country_code": "HU",
      "latitude": 46.848,
      "longitude": 16.5875,
      "admin_name1": "Zala"
    },
    {
      "place_name": "Mekényes",
      "postal_code": "7344",
      "country_code": "HU",
      "latitude": 46.3912,
      "longitude": 18.3334,
      "admin_name1": "Baranya"
    },
    {
      "place_name": "Gödre",
      "postal_code": "7386",
      "country_code": "HU",
      "latitude": 46.2861,
      "longitude": 17.9729,
      "admin_name1": "Baranya"
    },
    {
      "place_name": "Pereked",
      "postal_code": "7664",
      "country_code": "HU",
      "latitude": 46.0937,
      "longitude": 18.3765,
      "admin_name1": "Baranya"
    },
    {
      "place_name": "Bár",
      "postal_code": "7711",
      "country_code": "HU",
      "latitude": 46.0531,
      "longitude": 18.7164,
      "admin_name1": "Baranya"
    },
    {
      "place_name": "Lovászhetény",
      "postal_code": "7720",
      "country_code": "HU",
      "latitude": 46.1559,
      "longitude": 18.4739,
      "admin_name1": "Baranya"
    },
    {
      "place_name": "Villány",
      "postal_code": "7773",
      "country_code": "HU",
      "latitude": 45.8689,
      "longitude": 18.4539,
      "admin_name1": "Baranya"
    },
    {
      "place_name": "Szava",
      "postal_code": "7813",
      "country_code": "HU",
      "latitude": 45.9024,
      "longitude": 18.1777,
      "admin_name1": "Baranya"
    },
    {
      "place_name": "Nagyharsány",
      "postal_code": "7822",
      "country_code": "HU",
      "latitude": 45.8474,
      "longitude": 18.3971,
      "admin_name1": "Baranya"
    },
    {
      "place_name": "Nagycsány",
      "postal_code": "7838",
      "country_code": "HU",
      "latitude": 45.8717,
      "longitude": 17.9443,
      "admin_name1": "Baranya"
    },
    {
      "place_name": "Drávacsepely",
      "postal_code": "7846",
      "country_code": "HU",
      "latitude": 45.8292,
      "longitude": 18.1386,
      "admin_name1": "Baranya"
    },
    {
      "place_name": "Basal",
      "postal_code": "7923",
      "country_code": "HU",
      "latitude": 46.0734,
      "longitude": 17.7839,
      "admin_name1": "Baranya"
    },
    {
      "place_name": "Somogyhárságy",
      "postal_code": "7925",
      "country_code": "HU",
      "latitude": 46.1619,
      "longitude": 17.7731,
      "admin_name1": "Baranya"
    },
    {
      "place_name": "Kisasszonyfa",
      "postal_code": "7954",
      "country_code": "HU",
      "latitude": 45.9467,
      "longitude": 18.0061,
      "admin_name1": "Baranya"
    },
    {
      "place_name": "Szeghalom",
      "postal_code": "5520",
      "country_code": "HU",
      "latitude": 47.0333,
      "longitude": 21.1667,
      "admin_name1": "Békés"
    },
    {
      "place_name": "Kertészsziget",
      "postal_code": "5526",
      "country_code": "HU",
      "latitude": 47.15,
      "longitude": 21.0667,
      "admin_name1": "Békés"
    },
    {
      "place_name": "Mezőberény",
      "postal_code": "5650",
      "country_code": "HU",
      "latitude": 46.8167,
      "longitude": 21.0333,
      "admin_name1": "Békés"
    },
    {
      "place_name": "Csanádapáca",
      "postal_code": "5662",
      "country_code": "HU",
      "latitude": 46.55,
      "longitude": 20.8833,
      "admin_name1": "Békés"
    },
    {
      "place_name": "Sarkad",
      "postal_code": "5720",
      "country_code": "HU",
      "latitude": 46.75,
      "longitude": 21.3833,
      "admin_name1": "Békés"
    },
    {
      "place_name": "Kevermes",
      "postal_code": "5744",
      "country_code": "HU",
      "latitude": 46.4167,
      "longitude": 21.1833,
      "admin_name1": "Békés"
    },
    {
      "place_name": "Végegyháza",
      "postal_code": "5811",
      "country_code": "HU",
      "latitude": 46.3833,
      "longitude": 20.8667,
      "admin_name1": "Békés"
    },
    {
      "place_name": "Szentkirály",
      "postal_code": "6031",
      "country_code": "HU",
      "latitude": 46.9189,
      "longitude": 19.9185,
      "admin_name1": "Bács-Kiskun"
    },
    {
      "place_name": "Kecskemét",
      "postal_code": "6044",
      "country_code": "HU",
      "latitude": 46.9062,
      "longitude": 19.6913,
      "admin_name1": "Bács-Kiskun"
    },
    {
      "place_name": "Kunpeszér",
      "postal_code": "6096",
      "country_code": "HU",
      "latitude": 47.0589,
      "longitude": 19.2761,
      "admin_name1": "Bács-Kiskun"
    },
    {
      "place_name": "Szank",
      "postal_code": "6131",
      "country_code": "HU",
      "latitude": 46.5571,
      "longitude": 19.661,
      "admin_name1": "Bács-Kiskun"
    },
    {
      "place_name": "Érsekhalma",
      "postal_code": "6348",
      "country_code": "HU",
      "latitude": 46.3488,
      "longitude": 19.1215,
      "admin_name1": "Bács-Kiskun"
    },
    {
      "place_name": "Jánoshalma",
      "postal_code": "6440",
      "country_code": "HU",
      "latitude": 46.2986,
      "longitude": 19.3258,
      "admin_name1": "Bács-Kiskun"
    },
    {
      "place_name": "Felsőszentiván",
      "postal_code": "6447",
      "country_code": "HU",
      "latitude": 46.1971,
      "longitude": 19.1869,
      "admin_name1": "Bács-Kiskun"
    },
    {
      "place_name": "Szeremle",
      "postal_code": "6512",
      "country_code": "HU",
      "latitude": 46.1437,
      "longitude": 18.8812,
      "admin_name1": "Bács-Kiskun"
    },
    {
      "place_name": "Hercegszántó",
      "postal_code": "6525",
      "country_code": "HU",
      "latitude": 45.95,
      "longitude": 18.9392,
      "admin_name1": "Bács-Kiskun"
    },
    {
      "place_name": "Mezőkeresztes",
      "postal_code": "3441",
      "country_code": "HU",
      "latitude": 47.8333,
      "longitude": 20.7,
      "admin_name1": "Borsod-Abaúj-Zemplén"
    },
    {
      "place_name": "Tiszabábolna",
      "postal_code": "3465",
      "country_code": "HU",
      "latitude": 47.6833,
      "longitude": 20.8167,
      "admin_name1": "Borsod-Abaúj-Zemplén"
    },
    {
      "place_name": "Borsodszentgyörgy",
      "postal_code": "3623",
      "country_code": "HU",
      "latitude": 48.1833,
      "longitude": 20.2,
      "admin_name1": "Borsod-Abaúj-Zemplén"
    },
    {
      "place_name": "Dövény",
      "postal_code": "3721",
      "country_code": "HU",
      "latitude": 48.35,
      "longitude": 20.55,
      "admin_name1": "Borsod-Abaúj-Zemplén"
    },
    {
      "place_name": "Zubogy",
      "postal_code": "3723",
      "country_code": "HU",
      "latitude": 48.3833,
      "longitude": 20.5833,
      "admin_name1": "Borsod-Abaúj-Zemplén"
    },
    {
      "place_name": "Rudolftelep",
      "postal_code": "3742",
      "country_code": "HU",
      "latitude": 48.3167,
      "longitude": 20.6833,
      "admin_name1": "Borsod-Abaúj-Zemplén"
    },
    {
      "place_name": "Tornanádaska",
      "postal_code": "3767",
      "country_code": "HU",
      "latitude": 48.5667,
      "longitude": 20.7833,
      "admin_name1": "Borsod-Abaúj-Zemplén"
    },
    {
      "place_name": "Varbó",
      "postal_code": "3778",
      "country_code": "HU",
      "latitude": 48.1667,
      "longitude": 20.6333,
      "admin_name1": "Borsod-Abaúj-Zemplén"
    },
    {
      "place_name": "Selyeb",
      "postal_code": "3809",
      "country_code": "HU",
      "latitude": 48.3333,
      "longitude": 20.9667,
      "admin_name1": "Borsod-Abaúj-Zemplén"
    },
    {
      "place_name": "Rásonysápberencs",
      "postal_code": "3833",
      "country_code": "HU",
      "latitude": 48.3167,
      "longitude": 21.0,
      "admin_name1": "Borsod-Abaúj-Zemplén"
    },
    {
      "place_name": "Garadna",
      "postal_code": "3873",
      "country_code": "HU",
      "latitude": 48.4167,
      "longitude": 21.1833,
      "admin_name1": "Borsod-Abaúj-Zemplén"
    },
    {
      "place_name": "Karos",
      "postal_code": "3962",
      "country_code": "HU",
      "latitude": 48.3333,
      "longitude": 21.75,
      "admin_name1": "Borsod-Abaúj-Zemplén"
    },
    {
      "place_name": "Pusztafalu",
      "postal_code": "3995",
      "country_code": "HU",
      "latitude": 48.55,
      "longitude": 21.5,
      "admin_name1": "Borsod-Abaúj-Zemplén"
    },
    {
      "place_name": "Óföldeák",
      "postal_code": "6923",
      "country_code": "HU",
      "latitude": 46.3,
      "longitude": 20.45,
      "admin_name1": "Csongrád"
    },
    {
      "place_name": "Enying",
      "postal_code": "8130",
      "country_code": "HU",
      "latitude": 46.9305,
      "longitude": 18.242,
      "admin_name1": "Fejér"
    },
    {
      "place_name": "Mezőkomárom",
      "postal_code": "8137",
      "country_code": "HU",
      "latitude": 46.8259,
      "longitude": 18.2935,
      "admin_name1": "Fejér"
    },
    {
      "place_name": "Szabadbattyán",
      "postal_code": "8151",
      "country_code": "HU",
      "latitude": 47.119,
      "longitude": 18.3682,
      "admin_name1": "Fejér"
    },
    {
      "place_name": "Vének",
      "postal_code": "9062",
      "country_code": "HU",
      "latitude": 47.7398,
      "longitude": 17.7583,
      "admin_name1": "Győr-Moson-Sopron"
    },
    {
      "place_name": "Rétalap",
      "postal_code": "9074",
      "country_code": "HU",
      "latitude": 47.6061,
      "longitude": 17.909,
      "admin_name1": "Győr-Moson-Sopron"
    },
    {
      "place_name": "Tarjánpuszta",
      "postal_code": "9092",
      "country_code": "HU",
      "latitude": 47.5,
      "longitude": 17.7833,
      "admin_name1": "Győr-Moson-Sopron"
    },
    {
      "place_name": "Bezenye",
      "postal_code": "9223",
      "country_code": "HU",
      "latitude": 47.9605,
      "longitude": 17.2154,
      "admin_name1": "Győr-Moson-Sopron"
    },
    {
      "place_name": "Mosonudvar",
      "postal_code": "9246",
      "country_code": "HU",
      "latitude": 47.8439,
      "longitude": 17.2274,
      "admin_name1": "Győr-Moson-Sopron"
    },
    {
      "place_name": "Vásárosfalu",
      "postal_code": "9343",
      "country_code": "HU",
      "latitude": 47.4541,
      "longitude": 17.115,
      "admin_name1": "Győr-Moson-Sopron"
    },
    {
      "place_name": "Hövej",
      "postal_code": "9361",
      "country_code": "HU",
      "latitude": 47.5511,
      "longitude": 17.0194,
      "admin_name1": "Győr-Moson-Sopron"
    },
    {
      "place_name": "Sopronhorpács",
      "postal_code": "9463",
      "country_code": "HU",
      "latitude": 47.4834,
      "longitude": 16.7353,
      "admin_name1": "Győr-Moson-Sopron"
    },
    {
      "place_name": "Nemeskér",
      "postal_code": "9471",
      "country_code": "HU",
      "latitude": 47.4833,
      "longitude": 16.8056,
      "admin_name1": "Győr-Moson-Sopron"
    },
    {
      "place_name": "Báránd",
      "postal_code": "4161",
      "country_code": "HU",
      "latitude": 47.3,
      "longitude": 21.2333,
      "admin_name1": "Hajdú-Bihar"
    },
    {
      "place_name": "Sáp",
      "postal_code": "4176",
      "country_code": "HU",
      "latitude": 47.25,
      "longitude": 21.3667,
      "admin_name1": "Hajdú-Bihar"
    },
    {
      "place_name": "Létavértes",
      "postal_code": "4283",
      "country_code": "HU",
      "latitude": 47.3833,
      "longitude": 21.9,
      "admin_name1": "Hajdú-Bihar"
    },
    {
      "place_name": "Nagykökényes",
      "postal_code": "3012",
      "country_code": "HU",
      "latitude": 47.7337,
      "longitude": 19.5987,
      "admin_name1": "Heves"
    },
    {
      "place_name": "Szilvásvárad",
      "postal_code": "3348",
      "country_code": "HU",
      "latitude": 48.1,
      "longitude": 20.4,
      "admin_name1": "Heves"
    },
    {
      "place_name": "Tiszaörs",
      "postal_code": "5362",
      "country_code": "HU",
      "latitude": 47.5167,
      "longitude": 20.8333,
      "admin_name1": "Jász-Nagykun-Szolnok"
    },
    {
      "place_name": "Lábatlan",
      "postal_code": "2541",
      "country_code": "HU",
      "latitude": 47.7473,
      "longitude": 18.4962,
      "admin_name1": "Komárom-Esztergom"
    },
    {
      "place_name": "Bakonyszombathely",
      "postal_code": "2884",
      "country_code": "HU",
      "latitude": 47.4717,
      "longitude": 17.9652,
      "admin_name1": "Komárom-Esztergom"
    },
    {
      "place_name": "Naszály",
      "postal_code": "2899",
      "country_code": "HU",
      "latitude": 47.7033,
      "longitude": 18.2575,
      "admin_name1": "Komárom-Esztergom"
    },
    {
      "place_name": "Tárkány",
      "postal_code": "2945",
      "country_code": "HU",
      "latitude": 47.5929,
      "longitude": 18.0006,
      "admin_name1": "Komárom-Esztergom"
    },
    {
      "place_name": "Dejtár",
      "postal_code": "2649",
      "country_code": "HU",
      "latitude": 48.0371,
      "longitude": 19.1646,
      "admin_name1": "Nógrád"
    },
    {
      "place_name": "Garáb",
      "postal_code": "3067",
      "country_code": "HU",
      "latitude": 47.9778,
      "longitude": 19.6408,
      "admin_name1": "Nógrád"
    },
    {
      "place_name": "Cered",
      "postal_code": "3123",
      "country_code": "HU",
      "latitude": 48.1467,
      "longitude": 19.9662,
      "admin_name1": "Nógrád"
    },
    {
      "place_name": "Piliny",
      "postal_code": "3134",
      "country_code": "HU",
      "latitude": 48.141,
      "longitude": 19.599,
      "admin_name1": "Nógrád"
    },
    {
      "place_name": "Kiskunlacháza",
      "postal_code": "2340",
      "country_code": "HU",
      "latitude": 47.1884,
      "longitude": 19.0093,
      "admin_name1": "Pest"
    },
    {
      "place_name": "Szob",
      "postal_code": "2628",
      "country_code": "HU",
      "latitude": 47.8192,
      "longitude": 18.8702,
      "admin_name1": "Pest"
    },
    {
      "place_name": "Ecseny",
      "postal_code": "7457",
      "country_code": "HU",
      "latitude": 46.551,
      "longitude": 17.8531,
      "admin_name1": "Somogy"
    },
    {
      "place_name": "Simonfa",
      "postal_code": "7474",
      "country_code": "HU",
      "latitude": 46.2841,
      "longitude": 17.8256,
      "admin_name1": "Somogy"
    },
    {
      "place_name": "Bőszénfa",
      "postal_code": "7475",
      "country_code": "HU",
      "latitude": 46.2417,
      "longitude": 17.8499,
      "admin_name1": "Somogy"
    },
    {
      "place_name": "Somogyudvarhely",
      "postal_code": "7515",
      "country_code": "HU",
      "latitude": 46.174,
      "longitude": 17.1886,
      "admin_name1": "Somogy"
    },
    {
      "place_name": "Jákó",
      "postal_code": "7525",
      "country_code": "HU",
      "latitude": 46.3338,
      "longitude": 17.5525,
      "admin_name1": "Somogy"
    },
    {
      "place_name": "Gige",
      "postal_code": "7527",
      "country_code": "HU",
      "latitude": 46.3023,
      "longitude": 17.6085,
      "admin_name1": "Somogy"
    },
    {
      "place_name": "Drávagárdony",
      "postal_code": "7977",
      "country_code": "HU",
      "latitude": 45.9468,
      "longitude": 17.604,
      "admin_name1": "Somogy"
    },
    {
      "place_name": "Balatonföldvár",
      "postal_code": "8623",
      "country_code": "HU",
      "latitude": 46.8525,
      "longitude": 17.8812,
      "admin_name1": "Somogy"
    },
    {
      "place_name": "Balatonőszöd",
      "postal_code": "8637",
      "country_code": "HU",
      "latitude": 46.8062,
      "longitude": 17.8003,
      "admin_name1": "Somogy"
    },
    {
      "place_name": "Szőlősgyörök",
      "postal_code": "8692",
      "country_code": "HU",
      "latitude": 46.7376,
      "longitude": 17.6689,
      "admin_name1": "Somogy"
    },
    {
      "place_name": "Pogányszentpéter",
      "postal_code": "8728",
      "country_code": "HU",
      "latitude": 46.3848,
      "longitude": 17.063,
      "admin_name1": "Somogy"
    },
    {
      "place_name": "Somogybükkösd",
      "postal_code": "8858",
      "country_code": "HU",
      "latitude": 46.3059,
      "longitude": 16.9982,
      "admin_name1": "Somogy"
    },
    {
      "place_name": "Nagykálló",
      "postal_code": "4320",
      "country_code": "HU",
      "latitude": 47.8749,
      "longitude": 21.8408,
      "admin_name1": "Szabolcs-Szatmár-Bereg"
    },
    {
      "place_name": "Pócspetri",
      "postal_code": "4327",
      "country_code": "HU",
      "latitude": 47.8872,
      "longitude": 21.9931,
      "admin_name1": "Szabolcs-Szatmár-Bereg"
    },
    {
      "place_name": "Nyíregyháza",
      "postal_code": "4431",
      "country_code": "HU",
      "latitude": 47.9554,
      "longitude": 21.7167,
      "admin_name1": "Szabolcs-Szatmár-Bereg"
    },
    {
      "place_name": "Nyírbogdány",
      "postal_code": "4511",
      "country_code": "HU",
      "latitude": 48.0572,
      "longitude": 21.8824,
      "admin_name1": "Szabolcs-Szatmár-Bereg"
    },
    {
      "place_name": "Kék",
      "postal_code": "4515",
      "country_code": "HU",
      "latitude": 48.1167,
      "longitude": 21.8833,
      "admin_name1": "Szabolcs-Szatmár-Bereg"
    },
    {
      "place_name": "Jánd",
      "postal_code": "4841",
      "country_code": "HU",
      "latitude": 48.1132,
      "longitude": 22.3737,
      "admin_name1": "Szabolcs-Szatmár-Bereg"
    },
    {
      "place_name": "Kérsemjén",
      "postal_code": "4912",
      "country_code": "HU",
      "latitude": 48.021,
      "longitude": 22.4224,
      "admin_name1": "Szabolcs-Szatmár-Bereg"
    },
    {
      "place_name": "Csaholc",
      "postal_code": "4967",
      "country_code": "HU",
      "latitude": 47.9838,
      "longitude": 22.7322,
      "admin_name1": "Szabolcs-Szatmár-Bereg"
    },
    {
      "place_name": "Fadd",
      "postal_code": "7133",
      "country_code": "HU",
      "latitude": 46.4648,
      "longitude": 18.8192,
      "admin_name1": "Tolna"
    },
    {
      "place_name": "Regöly",
      "postal_code": "7193",
      "country_code": "HU",
      "latitude": 46.5803,
      "longitude": 18.3882,
      "admin_name1": "Tolna"
    },
    {
      "place_name": "Kocsola",
      "postal_code": "7212",
      "country_code": "HU",
      "latitude": 46.529,
      "longitude": 18.1793,
      "admin_name1": "Tolna"
    },
    {
      "place_name": "Várong",
      "postal_code": "7214",
      "country_code": "HU",
      "latitude": 46.5278,
      "longitude": 18.0453,
      "admin_name1": "Tolna"
    },
    {
      "place_name": "Kenyeri",
      "postal_code": "9514",
      "country_code": "HU",
      "latitude": 47.3799,
      "longitude": 17.0864,
      "admin_name1": "Vas"
    },
    {
      "place_name": "Duka",
      "postal_code": "9556",
      "country_code": "HU",
      "latitude": 47.1306,
      "longitude": 17.132,
      "admin_name1": "Vas"
    },
    {
      "place_name": "Simaság",
      "postal_code": "9633",
      "country_code": "HU",
      "latitude": 47.4252,
      "longitude": 16.842,
      "admin_name1": "Vas"
    },
    {
      "place_name": "Nick",
      "postal_code": "9652",
      "country_code": "HU",
      "latitude": 47.4026,
      "longitude": 17.0196,
      "admin_name1": "Vas"
    },
    {
      "place_name": "Vassurány",
      "postal_code": "9741",
      "country_code": "HU",
      "latitude": 47.2833,
      "longitude": 16.7,
      "admin_name1": "Vas"
    },
    {
      "place_name": "Ikervár",
      "postal_code": "9756",
      "country_code": "HU",
      "latitude": 47.2056,
      "longitude": 16.8923,
      "admin_name1": "Vas"
    },
    {
      "place_name": "Felsőcsatár",
      "postal_code": "9794",
      "country_code": "HU",
      "latitude": 47.2133,
      "longitude": 16.4434,
      "admin_name1": "Vas"
    },
    {
      "place_name": "Vasszentmihály",
      "postal_code": "9953",
      "country_code": "HU",
      "latitude": 46.9698,
      "longitude": 16.4069,
      "admin_name1": "Vas"
    },
    {
      "place_name": "Szentgotthárd",
      "postal_code": "9970",
      "country_code": "HU",
      "latitude": 46.9526,
      "longitude": 16.2736,
      "admin_name1": "Vas"
    },
    {
      "place_name": "Hidegkút",
      "postal_code": "8247",
      "country_code": "HU",
      "latitude": 47.0027,
      "longitude": 17.8296,
      "admin_name1": "Veszprém"
    },
    {
      "place_name": "Szentbékkálla",
      "postal_code": "8281",
      "country_code": "HU",
      "latitude": 46.8869,
      "longitude": 17.5635,
      "admin_name1": "Veszprém"
    },
    {
      "place_name": "Kisapáti",
      "postal_code": "8284",
      "country_code": "HU",
      "latitude": 46.8429,
      "longitude": 17.4685,
      "admin_name1": "Veszprém"
    },
    {
      "place_name": "Sümeg",
      "postal_code": "8330",
      "country_code": "HU",
      "latitude": 46.977,
      "longitude": 17.2821,
      "admin_name1": "Veszprém"
    },
    {
      "place_name": "Bakonyszentkirály",
      "postal_code": "8430",
      "country_code": "HU",
      "latitude": 47.3701,
      "longitude": 17.8807,
      "admin_name1": "Veszprém"
    },
    {
      "place_name": "Kislőd",
      "postal_code": "8446",
      "country_code": "HU",
      "latitude": 47.1455,
      "longitude": 17.6228,
      "admin_name1": "Veszprém"
    },
    {
      "place_name": "Magyarpolány",
      "postal_code": "8449",
      "country_code": "HU",
      "latitude": 47.1695,
      "longitude": 17.5462,
      "admin_name1": "Veszprém"
    },
    {
      "place_name": "Kamond",
      "postal_code": "8469",
      "country_code": "HU",
      "latitude": 47.1333,
      "longitude": 17.2,
      "admin_name1": "Veszprém"
    },
    {
      "place_name": "Somlójenő",
      "postal_code": "8478",
      "country_code": "HU",
      "latitude": 47.1276,
      "longitude": 17.3545,
      "admin_name1": "Veszprém"
    },
    {
      "place_name": "Adorjánháza",
      "postal_code": "8497",
      "country_code": "HU",
      "latitude": 47.2435,
      "longitude": 17.2396,
      "admin_name1": "Veszprém"
    },
    {
      "place_name": "Takácsi",
      "postal_code": "8541",
      "country_code": "HU",
      "latitude": 47.3991,
      "longitude": 17.4709,
      "admin_name1": "Veszprém"
    },
    {
      "place_name": "Nagytevel",
      "postal_code": "8562",
      "country_code": "HU",
      "latitude": 47.2924,
      "longitude": 17.5715,
      "admin_name1": "Veszprém"
    },
    {
      "place_name": "Alsópáhok",
      "postal_code": "8394",
      "country_code": "HU",
      "latitude": 46.7693,
      "longitude": 17.1716,
      "admin_name1": "Zala"
    },
    {
      "place_name": "Hahót",
      "postal_code": "8771",
      "country_code": "HU",
      "latitude": 46.6399,
      "longitude": 16.9228,
      "admin_name1": "Zala"
    },
    {
      "place_name": "Gelse",
      "postal_code": "8774",
      "country_code": "HU",
      "latitude": 46.6,
      "longitude": 17.0,
      "admin_name1": "Zala"
    },
    {
      "place_name": "Tilaj",
      "postal_code": "8782",
      "country_code": "HU",
      "latitude": 46.8049,
      "longitude": 17.048,
      "admin_name1": "Zala"
    },
    {
      "place_name": "Murarátka",
      "postal_code": "8868",
      "country_code": "HU",
      "latitude": 46.4575,
      "longitude": 16.6735,
      "admin_name1": "Zala"
    },
    {
      "place_name": "Csörnyeföld",
      "postal_code": "8873",
      "country_code": "HU",
      "latitude": 46.5,
      "longitude": 16.6333,
      "admin_name1": "Zala"
    },
    {
      "place_name": "Lakhegy",
      "postal_code": "8913",
      "country_code": "HU",
      "latitude": 46.9464,
      "longitude": 16.8341,
      "admin_name1": "Zala"
    },
    {
      "place_name": "Zalaszentmihály",
      "postal_code": "8936",
      "country_code": "HU",
      "latitude": 46.7263,
      "longitude": 16.9488,
      "admin_name1": "Zala"
    },
    {
      "place_name": "Csatár",
      "postal_code": "8943",
      "country_code": "HU",
      "latitude": 46.7766,
      "longitude": 16.8638,
      "admin_name1": "Zala"
    },
    {
      "place_name": "Babosdöbréte",
      "postal_code": "8983",
      "country_code": "HU",
      "latitude": 46.8148,
      "longitude": 16.7801,
      "admin_name1": "Zala"
    },
    {
      "place_name": "Felsőegerszeg",
      "postal_code": "7370",
      "country_code": "HU",
      "latitude": 46.2544,
      "longitude": 18.1341,
      "admin_name1": "Baranya"
    },
    {
      "place_name": "Máriakéménd",
      "postal_code": "7663",
      "country_code": "HU",
      "latitude": 46.027,
      "longitude": 18.4618,
      "admin_name1": "Baranya"
    },
    {
      "place_name": "Hosszúhetény",
      "postal_code": "7694",
      "country_code": "HU",
      "latitude": 46.1641,
      "longitude": 18.3508,
      "admin_name1": "Baranya"
    },
    {
      "place_name": "Martonfa",
      "postal_code": "7720",
      "country_code": "HU",
      "latitude": 46.1163,
      "longitude": 18.3718,
      "admin_name1": "Baranya"
    },
    {
      "place_name": "Olasz",
      "postal_code": "7745",
      "country_code": "HU",
      "latitude": 46.0096,
      "longitude": 18.4144,
      "admin_name1": "Baranya"
    },
    {
      "place_name": "Szederkény",
      "postal_code": "7751",
      "country_code": "HU",
      "latitude": 46.0007,
      "longitude": 18.4484,
      "admin_name1": "Baranya"
    },
    {
      "place_name": "Sátorhely",
      "postal_code": "7785",
      "country_code": "HU",
      "latitude": 45.9418,
      "longitude": 18.6329,
      "admin_name1": "Baranya"
    },
    {
      "place_name": "Kisharsány",
      "postal_code": "7800",
      "country_code": "HU",
      "latitude": 45.8586,
      "longitude": 18.3642,
      "admin_name1": "Baranya"
    },
    {
      "place_name": "Csarnóta",
      "postal_code": "7811",
      "country_code": "HU",
      "latitude": 45.8951,
      "longitude": 18.2164,
      "admin_name1": "Baranya"
    },
    {
      "place_name": "Bisse",
      "postal_code": "7811",
      "country_code": "HU",
      "latitude": 45.9093,
      "longitude": 18.2595,
      "admin_name1": "Baranya"
    },
    {
      "place_name": "Hirics",
      "postal_code": "7838",
      "country_code": "HU",
      "latitude": 45.8269,
      "longitude": 17.994,
      "admin_name1": "Baranya"
    },
    {
      "place_name": "Rózsafa",
      "postal_code": "7914",
      "country_code": "HU",
      "latitude": 46.0219,
      "longitude": 17.8884,
      "admin_name1": "Baranya"
    },
    {
      "place_name": "Szentegát",
      "postal_code": "7915",
      "country_code": "HU",
      "latitude": 45.9742,
      "longitude": 17.8257,
      "admin_name1": "Baranya"
    },
    {
      "place_name": "Somogyviszló",
      "postal_code": "7924",
      "country_code": "HU",
      "latitude": 46.1153,
      "longitude": 17.7649,
      "admin_name1": "Baranya"
    },
    {
      "place_name": "Várad",
      "postal_code": "7973",
      "country_code": "HU",
      "latitude": 45.9744,
      "longitude": 17.7458,
      "admin_name1": "Baranya"
    },
    {
      "place_name": "Ecsegfalva",
      "postal_code": "5515",
      "country_code": "HU",
      "latitude": 47.15,
      "longitude": 20.9167,
      "admin_name1": "Békés"
    },
    {
      "place_name": "Orosháza",
      "postal_code": "5905",
      "country_code": "HU",
      "latitude": 46.5667,
      "longitude": 20.6667,
      "admin_name1": "Békés"
    },
    {
      "place_name": "Tiszakécske",
      "postal_code": "6060",
      "country_code": "HU",
      "latitude": 46.9326,
      "longitude": 20.1035,
      "admin_name1": "Bács-Kiskun"
    },
    {
      "place_name": "Lakitelek",
      "postal_code": "6065",
      "country_code": "HU",
      "latitude": 46.876,
      "longitude": 19.995,
      "admin_name1": "Bács-Kiskun"
    },
    {
      "place_name": "Orgovány",
      "postal_code": "6077",
      "country_code": "HU",
      "latitude": 46.7509,
      "longitude": 19.4726,
      "admin_name1": "Bács-Kiskun"
    },
    {
      "place_name": "Géderlak",
      "postal_code": "6334",
      "country_code": "HU",
      "latitude": 46.6068,
      "longitude": 18.9144,
      "admin_name1": "Bács-Kiskun"
    },
    {
      "place_name": "Borsodgeszt",
      "postal_code": "3426",
      "country_code": "HU",
      "latitude": 47.95,
      "longitude": 20.7,
      "admin_name1": "Borsod-Abaúj-Zemplén"
    },
    {
      "place_name": "Mályi",
      "postal_code": "3434",
      "country_code": "HU",
      "latitude": 48.0167,
      "longitude": 20.8333,
      "admin_name1": "Borsod-Abaúj-Zemplén"
    },
    {
      "place_name": "Sajóörös",
      "postal_code": "3586",
      "country_code": "HU",
      "latitude": 47.95,
      "longitude": 21.0333,
      "admin_name1": "Borsod-Abaúj-Zemplén"
    },
    {
      "place_name": "Ózd",
      "postal_code": "3603",
      "country_code": "HU",
      "latitude": 48.2167,
      "longitude": 20.3,
      "admin_name1": "Borsod-Abaúj-Zemplén"
    },
    {
      "place_name": "Járdánháza",
      "postal_code": "3664",
      "country_code": "HU",
      "latitude": 48.15,
      "longitude": 20.25,
      "admin_name1": "Borsod-Abaúj-Zemplén"
    },
    {
      "place_name": "Hernádszentandrás",
      "postal_code": "3852",
      "country_code": "HU",
      "latitude": 48.2904,
      "longitude": 21.0882,
      "admin_name1": "Borsod-Abaúj-Zemplén"
    },
    {
      "place_name": "Korlát",
      "postal_code": "3886",
      "country_code": "HU",
      "latitude": 48.3833,
      "longitude": 21.25,
      "admin_name1": "Borsod-Abaúj-Zemplén"
    },
    {
      "place_name": "Sátoraljaújhely",
      "postal_code": "3988",
      "country_code": "HU",
      "latitude": 48.3949,
      "longitude": 21.6587,
      "admin_name1": "Borsod-Abaúj-Zemplén"
    },
    {
      "place_name": "Alsóregmec",
      "postal_code": "3989",
      "country_code": "HU",
      "latitude": 48.4667,
      "longitude": 21.6167,
      "admin_name1": "Borsod-Abaúj-Zemplén"
    },
    {
      "place_name": "Mórahalom",
      "postal_code": "6782",
      "country_code": "HU",
      "latitude": 46.2181,
      "longitude": 19.8851,
      "admin_name1": "Csongrád"
    },
    {
      "place_name": "Nagyér",
      "postal_code": "6917",
      "country_code": "HU",
      "latitude": 46.3667,
      "longitude": 20.7333,
      "admin_name1": "Csongrád"
    },
    {
      "place_name": "Vajta",
      "postal_code": "7041",
      "country_code": "HU",
      "latitude": 46.7176,
      "longitude": 18.6657,
      "admin_name1": "Fejér"
    },
    {
      "place_name": "Nagyveleg",
      "postal_code": "8065",
      "country_code": "HU",
      "latitude": 47.3598,
      "longitude": 18.1096,
      "admin_name1": "Fejér"
    },
    {
      "place_name": "Csákvár",
      "postal_code": "8083",
      "country_code": "HU",
      "latitude": 47.3918,
      "longitude": 18.465,
      "admin_name1": "Fejér"
    },
    {
      "place_name": "Sárszentmihály",
      "postal_code": "8143",
      "country_code": "HU",
      "latitude": 47.1532,
      "longitude": 18.3388,
      "admin_name1": "Fejér"
    },
    {
      "place_name": "Győr",
      "postal_code": "9011",
      "country_code": "HU",
      "latitude": 47.6833,
      "longitude": 17.6351,
      "admin_name1": "Győr-Moson-Sopron"
    },
    {
      "place_name": "Győrasszonyfa",
      "postal_code": "9093",
      "country_code": "HU",
      "latitude": 47.5,
      "longitude": 17.8,
      "admin_name1": "Győr-Moson-Sopron"
    },
    {
      "place_name": "Rábapatona",
      "postal_code": "9142",
      "country_code": "HU",
      "latitude": 47.6322,
      "longitude": 17.48,
      "admin_name1": "Győr-Moson-Sopron"
    },
    {
      "place_name": "Lébény",
      "postal_code": "9155",
      "country_code": "HU",
      "latitude": 47.7357,
      "longitude": 17.3908,
      "admin_name1": "Győr-Moson-Sopron"
    },
    {
      "place_name": "Győrladamér",
      "postal_code": "9173",
      "country_code": "HU",
      "latitude": 47.7565,
      "longitude": 17.5622,
      "admin_name1": "Győr-Moson-Sopron"
    },
    {
      "place_name": "Lipót",
      "postal_code": "9233",
      "country_code": "HU",
      "latitude": 47.8619,
      "longitude": 17.4631,
      "admin_name1": "Győr-Moson-Sopron"
    },
    {
      "place_name": "Beled",
      "postal_code": "9343",
      "country_code": "HU",
      "latitude": 47.4659,
      "longitude": 17.0929,
      "admin_name1": "Győr-Moson-Sopron"
    },
    {
      "place_name": "Fertőboz",
      "postal_code": "9493",
      "country_code": "HU",
      "latitude": 47.6364,
      "longitude": 16.7009,
      "admin_name1": "Győr-Moson-Sopron"
    },
    {
      "place_name": "Szentpéterszeg",
      "postal_code": "4121",
      "country_code": "HU",
      "latitude": 47.2333,
      "longitude": 21.6167,
      "admin_name1": "Hajdú-Bihar"
    },
    {
      "place_name": "Hencida",
      "postal_code": "4123",
      "country_code": "HU",
      "latitude": 47.25,
      "longitude": 21.7,
      "admin_name1": "Hajdú-Bihar"
    },
    {
      "place_name": "Körösszakál",
      "postal_code": "4136",
      "country_code": "HU",
      "latitude": 47.0167,
      "longitude": 21.6,
      "admin_name1": "Hajdú-Bihar"
    },
    {
      "place_name": "Nyíradony",
      "postal_code": "4253",
      "country_code": "HU",
      "latitude": 47.6975,
      "longitude": 21.9188,
      "admin_name1": "Hajdú-Bihar"
    },
    {
      "place_name": "Sáránd",
      "postal_code": "4272",
      "country_code": "HU",
      "latitude": 47.4,
      "longitude": 21.6333,
      "admin_name1": "Hajdú-Bihar"
    },
    {
      "place_name": "Ivád",
      "postal_code": "3248",
      "country_code": "HU",
      "latitude": 48.0167,
      "longitude": 20.0667,
      "admin_name1": "Heves"
    },
    {
      "place_name": "Detk",
      "postal_code": "3275",
      "country_code": "HU",
      "latitude": 47.75,
      "longitude": 20.1,
      "admin_name1": "Heves"
    },
    {
      "place_name": "Tiszatenyő",
      "postal_code": "5082",
      "country_code": "HU",
      "latitude": 47.1333,
      "longitude": 20.3833,
      "admin_name1": "Jász-Nagykun-Szolnok"
    },
    {
      "place_name": "Jászivány",
      "postal_code": "5135",
      "country_code": "HU",
      "latitude": 47.5222,
      "longitude": 20.2446,
      "admin_name1": "Jász-Nagykun-Szolnok"
    },
    {
      "place_name": "Kenderes",
      "postal_code": "5331",
      "country_code": "HU",
      "latitude": 47.25,
      "longitude": 20.6833,
      "admin_name1": "Jász-Nagykun-Szolnok"
    },
    {
      "place_name": "Mezőtúr",
      "postal_code": "5400",
      "country_code": "HU",
      "latitude": 47.0,
      "longitude": 20.6333,
      "admin_name1": "Jász-Nagykun-Szolnok"
    },
    {
      "place_name": "Kunszentmárton",
      "postal_code": "5449",
      "country_code": "HU",
      "latitude": 46.8392,
      "longitude": 20.2888,
      "admin_name1": "Jász-Nagykun-Szolnok"
    },
    {
      "place_name": "Nagyrév",
      "postal_code": "5463",
      "country_code": "HU",
      "latitude": 46.9458,
      "longitude": 20.1432,
      "admin_name1": "Jász-Nagykun-Szolnok"
    },
    {
      "place_name": "Süttő",
      "postal_code": "2543",
      "country_code": "HU",
      "latitude": 47.7589,
      "longitude": 18.4487,
      "admin_name1": "Komárom-Esztergom"
    },
    {
      "place_name": "Csatka",
      "postal_code": "2888",
      "country_code": "HU",
      "latitude": 47.3786,
      "longitude": 17.9781,
      "admin_name1": "Komárom-Esztergom"
    },
    {
      "place_name": "Szente",
      "postal_code": "2655",
      "country_code": "HU",
      "latitude": 47.9664,
      "longitude": 19.2874,
      "admin_name1": "Nógrád"
    },
    {
      "place_name": "Balassagyarmat",
      "postal_code": "2660",
      "country_code": "HU",
      "latitude": 48.073,
      "longitude": 19.2961,
      "admin_name1": "Nógrád"
    },
    {
      "place_name": "Bátonyterenye",
      "postal_code": "3070",
      "country_code": "HU",
      "latitude": 47.9696,
      "longitude": 19.8408,
      "admin_name1": "Nógrád"
    },
    {
      "place_name": "Pilisszentlászló",
      "postal_code": "2009",
      "country_code": "HU",
      "latitude": 47.7167,
      "longitude": 19.0,
      "admin_name1": "Pest"
    },
    {
      "place_name": "Csobánka",
      "postal_code": "2014",
      "country_code": "HU",
      "latitude": 47.6464,
      "longitude": 18.9619,
      "admin_name1": "Pest"
    },
    {
      "place_name": "Pilisborosjenő",
      "postal_code": "2097",
      "country_code": "HU",
      "latitude": 47.6074,
      "longitude": 18.9932,
      "admin_name1": "Pest"
    },
    {
      "place_name": "Dunakeszi",
      "postal_code": "2120",
      "country_code": "HU",
      "latitude": 47.6364,
      "longitude": 19.1386,
      "admin_name1": "Pest"
    },
    {
      "place_name": "Bag",
      "postal_code": "2191",
      "country_code": "HU",
      "latitude": 47.6333,
      "longitude": 19.4833,
      "admin_name1": "Pest"
    },
    {
      "place_name": "Péteri",
      "postal_code": "2209",
      "country_code": "HU",
      "latitude": 47.391,
      "longitude": 19.4098,
      "admin_name1": "Pest"
    },
    {
      "place_name": "Szentlőrinckáta",
      "postal_code": "2255",
      "country_code": "HU",
      "latitude": 47.5195,
      "longitude": 19.7529,
      "admin_name1": "Pest"
    },
    {
      "place_name": "Kismaros",
      "postal_code": "2623",
      "country_code": "HU",
      "latitude": 47.8374,
      "longitude": 19.0046,
      "admin_name1": "Pest"
    },
    {
      "place_name": "Jászkarajenő",
      "postal_code": "2746",
      "country_code": "HU",
      "latitude": 47.05,
      "longitude": 20.0667,
      "admin_name1": "Pest"
    },
    {
      "place_name": "Várda",
      "postal_code": "7442",
      "country_code": "HU",
      "latitude": 46.4592,
      "longitude": 17.739,
      "admin_name1": "Somogy"
    },
    {
      "place_name": "Görgeteg",
      "postal_code": "7553",
      "country_code": "HU",
      "latitude": 46.1416,
      "longitude": 17.435,
      "admin_name1": "Somogy"
    },
    {
      "place_name": "Barcs",
      "postal_code": "7570",
      "country_code": "HU",
      "latitude": 45.96,
      "longitude": 17.4586,
      "admin_name1": "Somogy"
    },
    {
      "place_name": "Darány",
      "postal_code": "7988",
      "country_code": "HU",
      "latitude": 45.9821,
      "longitude": 17.5901,
      "admin_name1": "Somogy"
    },
    {
      "place_name": "Ságvár",
      "postal_code": "8654",
      "country_code": "HU",
      "latitude": 46.8366,
      "longitude": 18.1014,
      "admin_name1": "Somogy"
    },
    {
      "place_name": "Tab",
      "postal_code": "8660",
      "country_code": "HU",
      "latitude": 46.7314,
      "longitude": 18.032,
      "admin_name1": "Somogy"
    },
    {
      "place_name": "Nikla",
      "postal_code": "8706",
      "country_code": "HU",
      "latitude": 46.5809,
      "longitude": 17.5136,
      "admin_name1": "Somogy"
    },
    {
      "place_name": "Sávoly",
      "postal_code": "8732",
      "country_code": "HU",
      "latitude": 46.5915,
      "longitude": 17.2685,
      "admin_name1": "Somogy"
    },
    {
      "place_name": "Nagyszakácsi",
      "postal_code": "8739",
      "country_code": "HU",
      "latitude": 46.4872,
      "longitude": 17.3208,
      "admin_name1": "Somogy"
    },
    {
      "place_name": "Gyékényes",
      "postal_code": "8851",
      "country_code": "HU",
      "latitude": 46.2362,
      "longitude": 17.0103,
      "admin_name1": "Somogy"
    },
    {
      "place_name": "Nyírmihálydi",
      "postal_code": "4363",
      "country_code": "HU",
      "latitude": 47.7398,
      "longitude": 21.9644,
      "admin_name1": "Szabolcs-Szatmár-Bereg"
    },
    {
      "place_name": "Tiszadob",
      "postal_code": "4456",
      "country_code": "HU",
      "latitude": 48.0167,
      "longitude": 21.1667,
      "admin_name1": "Szabolcs-Szatmár-Bereg"
    },
    {
      "place_name": "Tiszatelek",
      "postal_code": "4486",
      "country_code": "HU",
      "latitude": 48.1888,
      "longitude": 21.83,
      "admin_name1": "Szabolcs-Szatmár-Bereg"
    },
    {
      "place_name": "Gyulaháza",
      "postal_code": "4545",
      "country_code": "HU",
      "latitude": 48.1333,
      "longitude": 22.1167,
      "admin_name1": "Szabolcs-Szatmár-Bereg"
    },
    {
      "place_name": "Fényeslitke",
      "postal_code": "4621",
      "country_code": "HU",
      "latitude": 48.2713,
      "longitude": 22.1001,
      "admin_name1": "Szabolcs-Szatmár-Bereg"
    },
    {
      "place_name": "Tiszacsécse",
      "postal_code": "4947",
      "country_code": "HU",
      "latitude": 48.1103,
      "longitude": 22.7465,
      "admin_name1": "Szabolcs-Szatmár-Bereg"
    },
    {
      "place_name": "Kölcse",
      "postal_code": "4965",
      "country_code": "HU",
      "latitude": 48.0509,
      "longitude": 22.7271,
      "admin_name1": "Szabolcs-Szatmár-Bereg"
    },
    {
      "place_name": "Németkér",
      "postal_code": "7039",
      "country_code": "HU",
      "latitude": 46.7164,
      "longitude": 18.7631,
      "admin_name1": "Tolna"
    },
    {
      "place_name": "Mucsfa",
      "postal_code": "7185",
      "country_code": "HU",
      "latitude": 46.3553,
      "longitude": 18.4196,
      "admin_name1": "Tolna"
    },
    {
      "place_name": "Nagymányok",
      "postal_code": "7355",
      "country_code": "HU",
      "latitude": 46.2791,
      "longitude": 18.4549,
      "admin_name1": "Tolna"
    },
    {
      "place_name": "Porpác",
      "postal_code": "9612",
      "country_code": "HU",
      "latitude": 47.2417,
      "longitude": 16.8027,
      "admin_name1": "Vas"
    },
    {
      "place_name": "Gyanógeregye",
      "postal_code": "9774",
      "country_code": "HU",
      "latitude": 47.1228,
      "longitude": 16.7648,
      "admin_name1": "Vas"
    },
    {
      "place_name": "Mikosszéplak",
      "postal_code": "9835",
      "country_code": "HU",
      "latitude": 47.0328,
      "longitude": 16.9758,
      "admin_name1": "Vas"
    },
    {
      "place_name": "Szaknyér",
      "postal_code": "9934",
      "country_code": "HU",
      "latitude": 46.8641,
      "longitude": 16.5275,
      "admin_name1": "Vas"
    },
    {
      "place_name": "Paloznak",
      "postal_code": "8229",
      "country_code": "HU",
      "latitude": 46.9839,
      "longitude": 17.9402,
      "admin_name1": "Veszprém"
    },
    {
      "place_name": "Dörgicse",
      "postal_code": "8244",
      "country_code": "HU",
      "latitude": 46.9148,
      "longitude": 17.7239,
      "admin_name1": "Veszprém"
    },
    {
      "place_name": "Veszprémfajsz",
      "postal_code": "8248",
      "country_code": "HU",
      "latitude": 47.037,
      "longitude": 17.8963,
      "admin_name1": "Veszprém"
    },
    {
      "place_name": "Salföld",
      "postal_code": "8256",
      "country_code": "HU",
      "latitude": 46.8335,
      "longitude": 17.5505,
      "admin_name1": "Veszprém"
    },
    {
      "place_name": "Ajka",
      "postal_code": "8447",
      "country_code": "HU",
      "latitude": 47.102,
      "longitude": 17.5589,
      "admin_name1": "Veszprém"
    },
    {
      "place_name": "Pápa",
      "postal_code": "8598",
      "country_code": "HU",
      "latitude": 47.33,
      "longitude": 17.4674,
      "admin_name1": "Veszprém"
    },
    {
      "place_name": "Külsővat",
      "postal_code": "9532",
      "country_code": "HU",
      "latitude": 47.295,
      "longitude": 17.2266,
      "admin_name1": "Veszprém"
    },
    {
      "place_name": "Marcalgergelyi",
      "postal_code": "9534",
      "country_code": "HU",
      "latitude": 47.3103,
      "longitude": 17.2706,
      "admin_name1": "Veszprém"
    },
    {
      "place_name": "Batyk",
      "postal_code": "8797",
      "country_code": "HU",
      "latitude": 46.9927,
      "longitude": 17.0404,
      "admin_name1": "Zala"
    },
    {
      "place_name": "Semjénháza",
      "postal_code": "8862",
      "country_code": "HU",
      "latitude": 46.4002,
      "longitude": 16.846,
      "admin_name1": "Zala"
    },
    {
      "place_name": "Lispeszentadorján",
      "postal_code": "8888",
      "country_code": "HU",
      "latitude": 46.5372,
      "longitude": 16.7027,
      "admin_name1": "Zala"
    },
    {
      "place_name": "Kiscsehi",
      "postal_code": "8888",
      "country_code": "HU",
      "latitude": 46.5217,
      "longitude": 16.6752,
      "admin_name1": "Zala"
    },
    {
      "place_name": "Nemesrádó",
      "postal_code": "8915",
      "country_code": "HU",
      "latitude": 46.7787,
      "longitude": 16.9941,
      "admin_name1": "Zala"
    },
    {
      "place_name": "Csertalakos",
      "postal_code": "8951",
      "country_code": "HU",
      "latitude": 46.6423,
      "longitude": 16.6988,
      "admin_name1": "Zala"
    },
    {
      "place_name": "Pördefölde",
      "postal_code": "8956",
      "country_code": "HU",
      "latitude": 46.5884,
      "longitude": 16.7105,
      "admin_name1": "Zala"
    },
    {
      "place_name": "Belsősárd",
      "postal_code": "8978",
      "country_code": "HU",
      "latitude": 46.6434,
      "longitude": 16.4717,
      "admin_name1": "Zala"
    },
    {
      "place_name": "Becsvölgye",
      "postal_code": "8985",
      "country_code": "HU",
      "latitude": 46.7622,
      "longitude": 16.6869,
      "admin_name1": "Zala"
    },
    {
      "place_name": "Kálócfa",
      "postal_code": "8988",
      "country_code": "HU",
      "latitude": 46.7557,
      "longitude": 16.5643,
      "admin_name1": "Zala"
    },
    {
      "place_name": "Alsómocsolád",
      "postal_code": "7345",
      "country_code": "HU",
      "latitude": 46.3142,
      "longitude": 18.2479,
      "admin_name1": "Baranya"
    },
    {
      "place_name": "Oroszló",
      "postal_code": "7370",
      "country_code": "HU",
      "latitude": 46.2184,
      "longitude": 18.1233,
      "admin_name1": "Baranya"
    },
    {
      "place_name": "Tékes",
      "postal_code": "7381",
      "country_code": "HU",
      "latitude": 46.2874,
      "longitude": 18.1783,
      "admin_name1": "Baranya"
    },
    {
      "place_name": "Kátoly",
      "postal_code": "7661",
      "country_code": "HU",
      "latitude": 46.0596,
      "longitude": 18.4517,
      "admin_name1": "Baranya"
    },
    {
      "place_name": "Tengeri",
      "postal_code": "7834",
      "country_code": "HU",
      "latitude": 45.9261,
      "longitude": 18.0881,
      "admin_name1": "Baranya"
    },
    {
      "place_name": "Piskó",
      "postal_code": "7838",
      "country_code": "HU",
      "latitude": 45.8134,
      "longitude": 17.937,
      "admin_name1": "Baranya"
    },
    {
      "place_name": "Ipacsfa",
      "postal_code": "7847",
      "country_code": "HU",
      "latitude": 45.8345,
      "longitude": 18.2055,
      "admin_name1": "Baranya"
    },
    {
      "place_name": "Almáskeresztúr",
      "postal_code": "7932",
      "country_code": "HU",
      "latitude": 46.1199,
      "longitude": 17.8956,
      "admin_name1": "Baranya"
    },
    {
      "place_name": "Marócsa",
      "postal_code": "7960",
      "country_code": "HU",
      "latitude": 45.9141,
      "longitude": 17.8145,
      "admin_name1": "Baranya"
    },
    {
      "place_name": "Biharugra",
      "postal_code": "5538",
      "country_code": "HU",
      "latitude": 46.9667,
      "longitude": 21.6,
      "admin_name1": "Békés"
    },
    {
      "place_name": "Csabacsűd",
      "postal_code": "5551",
      "country_code": "HU",
      "latitude": 46.8333,
      "longitude": 20.65,
      "admin_name1": "Békés"
    },
    {
      "place_name": "Békéscsaba",
      "postal_code": "5671",
      "country_code": "HU",
      "latitude": 46.6833,
      "longitude": 21.1,
      "admin_name1": "Békés"
    },
    {
      "place_name": "Méhkerék",
      "postal_code": "5726",
      "country_code": "HU",
      "latitude": 46.7833,
      "longitude": 21.45,
      "admin_name1": "Békés"
    },
    {
      "place_name": "Szakmár",
      "postal_code": "6336",
      "country_code": "HU",
      "latitude": 46.5554,
      "longitude": 19.0753,
      "admin_name1": "Bács-Kiskun"
    },
    {
      "place_name": "Madaras",
      "postal_code": "6456",
      "country_code": "HU",
      "latitude": 46.0587,
      "longitude": 19.2612,
      "admin_name1": "Bács-Kiskun"
    },
    {
      "place_name": "Kács",
      "postal_code": "3424",
      "country_code": "HU",
      "latitude": 47.95,
      "longitude": 20.6167,
      "admin_name1": "Borsod-Abaúj-Zemplén"
    },
    {
      "place_name": "Tiszakeszi",
      "postal_code": "3458",
      "country_code": "HU",
      "latitude": 47.7833,
      "longitude": 21.0,
      "admin_name1": "Borsod-Abaúj-Zemplén"
    },
    {
      "place_name": "Szuhafő",
      "postal_code": "3726",
      "country_code": "HU",
      "latitude": 48.4167,
      "longitude": 20.45,
      "admin_name1": "Borsod-Abaúj-Zemplén"
    },
    {
      "place_name": "Szőlősardó",
      "postal_code": "3757",
      "country_code": "HU",
      "latitude": 48.45,
      "longitude": 20.6333,
      "admin_name1": "Borsod-Abaúj-Zemplén"
    },
    {
      "place_name": "Teresztenye",
      "postal_code": "3757",
      "country_code": "HU",
      "latitude": 48.45,
      "longitude": 20.6167,
      "admin_name1": "Borsod-Abaúj-Zemplén"
    },
    {
      "place_name": "Sajólászlófalva",
      "postal_code": "3773",
      "country_code": "HU",
      "latitude": 48.1833,
      "longitude": 20.6833,
      "admin_name1": "Borsod-Abaúj-Zemplén"
    },
    {
      "place_name": "Edelény",
      "postal_code": "3783",
      "country_code": "HU",
      "latitude": 48.3,
      "longitude": 20.7333,
      "admin_name1": "Borsod-Abaúj-Zemplén"
    },
    {
      "place_name": "Debréte",
      "postal_code": "3825",
      "country_code": "HU",
      "latitude": 48.5,
      "longitude": 20.8667,
      "admin_name1": "Borsod-Abaúj-Zemplén"
    },
    {
      "place_name": "Tornyosnémeti",
      "postal_code": "3877",
      "country_code": "HU",
      "latitude": 48.5167,
      "longitude": 21.2667,
      "admin_name1": "Borsod-Abaúj-Zemplén"
    },
    {
      "place_name": "Abaújvár",
      "postal_code": "3898",
      "country_code": "HU",
      "latitude": 48.5333,
      "longitude": 21.3167,
      "admin_name1": "Borsod-Abaúj-Zemplén"
    },
    {
      "place_name": "Kéked",
      "postal_code": "3899",
      "country_code": "HU",
      "latitude": 48.55,
      "longitude": 21.35,
      "admin_name1": "Borsod-Abaúj-Zemplén"
    },
    {
      "place_name": "Bekecs",
      "postal_code": "3903",
      "country_code": "HU",
      "latitude": 48.15,
      "longitude": 21.1833,
      "admin_name1": "Borsod-Abaúj-Zemplén"
    },
    {
      "place_name": "Hercegkút",
      "postal_code": "3958",
      "country_code": "HU",
      "latitude": 48.3333,
      "longitude": 21.5333,
      "admin_name1": "Borsod-Abaúj-Zemplén"
    },
    {
      "place_name": "Kovácsvágás",
      "postal_code": "3992",
      "country_code": "HU",
      "latitude": 48.45,
      "longitude": 21.5333,
      "admin_name1": "Borsod-Abaúj-Zemplén"
    },
    {
      "place_name": "Csanytelek",
      "postal_code": "6647",
      "country_code": "HU",
      "latitude": 46.595,
      "longitude": 20.1234,
      "admin_name1": "Csongrád"
    },
    {
      "place_name": "Forráskút",
      "postal_code": "6793",
      "country_code": "HU",
      "latitude": 46.3653,
      "longitude": 19.9097,
      "admin_name1": "Csongrád"
    },
    {
      "place_name": "Újbarok",
      "postal_code": "2066",
      "country_code": "HU",
      "latitude": 47.4795,
      "longitude": 18.5594,
      "admin_name1": "Fejér"
    },
    {
      "place_name": "Baracs",
      "postal_code": "2426",
      "country_code": "HU",
      "latitude": 46.882,
      "longitude": 18.9066,
      "admin_name1": "Fejér"
    },
    {
      "place_name": "Adony",
      "postal_code": "2457",
      "country_code": "HU",
      "latitude": 47.1194,
      "longitude": 18.8649,
      "admin_name1": "Fejér"
    },
    {
      "place_name": "Csókakő",
      "postal_code": "8074",
      "country_code": "HU",
      "latitude": 47.3518,
      "longitude": 18.2702,
      "admin_name1": "Fejér"
    },
    {
      "place_name": "Jenő",
      "postal_code": "8146",
      "country_code": "HU",
      "latitude": 47.1046,
      "longitude": 18.2509,
      "admin_name1": "Fejér"
    },
    {
      "place_name": "Mosonszentmiklós",
      "postal_code": "9154",
      "country_code": "HU",
      "latitude": 47.7278,
      "longitude": 17.4278,
      "admin_name1": "Győr-Moson-Sopron"
    },
    {
      "place_name": "Újrónafő",
      "postal_code": "9244",
      "country_code": "HU",
      "latitude": 47.8093,
      "longitude": 17.2013,
      "admin_name1": "Győr-Moson-Sopron"
    },
    {
      "place_name": "Farád",
      "postal_code": "9321",
      "country_code": "HU",
      "latitude": 47.6063,
      "longitude": 17.2002,
      "admin_name1": "Győr-Moson-Sopron"
    },
    {
      "place_name": "Osli",
      "postal_code": "9354",
      "country_code": "HU",
      "latitude": 47.6377,
      "longitude": 17.0752,
      "admin_name1": "Győr-Moson-Sopron"
    },
    {
      "place_name": "Debrecen",
      "postal_code": "4027",
      "country_code": "HU",
      "latitude": 47.5333,
      "longitude": 21.6333,
      "admin_name1": "Hajdú-Bihar"
    },
    {
      "place_name": "Fülöp",
      "postal_code": "4266",
      "country_code": "HU",
      "latitude": 47.6188,
      "longitude": 22.0835,
      "admin_name1": "Hajdú-Bihar"
    },
    {
      "place_name": "Istenmezeje",
      "postal_code": "3253",
      "country_code": "HU",
      "latitude": 48.0794,
      "longitude": 20.0507,
      "admin_name1": "Heves"
    },
    {
      "place_name": "Fedémes",
      "postal_code": "3255",
      "country_code": "HU",
      "latitude": 48.0333,
      "longitude": 20.2,
      "admin_name1": "Heves"
    },
    {
      "place_name": "Egerbakta",
      "postal_code": "3321",
      "country_code": "HU",
      "latitude": 47.9333,
      "longitude": 20.3,
      "admin_name1": "Heves"
    },
    {
      "place_name": "Jászárokszállás",
      "postal_code": "5123",
      "country_code": "HU",
      "latitude": 47.6424,
      "longitude": 19.9804,
      "admin_name1": "Jász-Nagykun-Szolnok"
    },
    {
      "place_name": "Bajót",
      "postal_code": "2533",
      "country_code": "HU",
      "latitude": 47.7278,
      "longitude": 18.5559,
      "admin_name1": "Komárom-Esztergom"
    },
    {
      "place_name": "Dad",
      "postal_code": "2854",
      "country_code": "HU",
      "latitude": 47.5191,
      "longitude": 18.2263,
      "admin_name1": "Komárom-Esztergom"
    },
    {
      "place_name": "Patak",
      "postal_code": "2648",
      "country_code": "HU",
      "latitude": 48.0229,
      "longitude": 19.1452,
      "admin_name1": "Nógrád"
    },
    {
      "place_name": "Tar",
      "postal_code": "3073",
      "country_code": "HU",
      "latitude": 47.9537,
      "longitude": 19.7461,
      "admin_name1": "Nógrád"
    },
    {
      "place_name": "Szilaspogony",
      "postal_code": "3125",
      "country_code": "HU",
      "latitude": 48.1176,
      "longitude": 20.027,
      "admin_name1": "Nógrád"
    },
    {
      "place_name": "Lucfalva",
      "postal_code": "3129",
      "country_code": "HU",
      "latitude": 48.0299,
      "longitude": 19.6902,
      "admin_name1": "Nógrád"
    },
    {
      "place_name": "Törökbálint",
      "postal_code": "2045",
      "country_code": "HU",
      "latitude": 47.4293,
      "longitude": 18.9136,
      "admin_name1": "Pest"
    },
    {
      "place_name": "Bénye",
      "postal_code": "2216",
      "country_code": "HU",
      "latitude": 47.3539,
      "longitude": 19.5432,
      "admin_name1": "Pest"
    },
    {
      "place_name": "Lórév",
      "postal_code": "2309",
      "country_code": "HU",
      "latitude": 47.1138,
      "longitude": 18.9007,
      "admin_name1": "Pest"
    },
    {
      "place_name": "Örkény",
      "postal_code": "2377",
      "country_code": "HU",
      "latitude": 47.1299,
      "longitude": 19.4332,
      "admin_name1": "Pest"
    },
    {
      "place_name": "Ipolydamásd",
      "postal_code": "2631",
      "country_code": "HU",
      "latitude": 47.8385,
      "longitude": 18.8301,
      "admin_name1": "Pest"
    },
    {
      "place_name": "Somogyaszaló",
      "postal_code": "7452",
      "country_code": "HU",
      "latitude": 46.4598,
      "longitude": 17.8053,
      "admin_name1": "Somogy"
    },
    {
      "place_name": "Ráksi",
      "postal_code": "7464",
      "country_code": "HU",
      "latitude": 46.5173,
      "longitude": 17.9184,
      "admin_name1": "Somogy"
    },
    {
      "place_name": "Kaposfő",
      "postal_code": "7523",
      "country_code": "HU",
      "latitude": 46.3609,
      "longitude": 17.6621,
      "admin_name1": "Somogy"
    },
    {
      "place_name": "Beleg",
      "postal_code": "7543",
      "country_code": "HU",
      "latitude": 46.3183,
      "longitude": 17.4102,
      "admin_name1": "Somogy"
    },
    {
      "place_name": "Lakócsa",
      "postal_code": "7918",
      "country_code": "HU",
      "latitude": 45.8966,
      "longitude": 17.6905,
      "admin_name1": "Somogy"
    },
    {
      "place_name": "Balatonszemes",
      "postal_code": "8636",
      "country_code": "HU",
      "latitude": 46.8097,
      "longitude": 17.7805,
      "admin_name1": "Somogy"
    },
    {
      "place_name": "Balatonújlak",
      "postal_code": "8712",
      "country_code": "HU",
      "latitude": 46.6738,
      "longitude": 17.3855,
      "admin_name1": "Somogy"
    },
    {
      "place_name": "Tikos",
      "postal_code": "8731",
      "country_code": "HU",
      "latitude": 46.6351,
      "longitude": 17.2877,
      "admin_name1": "Somogy"
    },
    {
      "place_name": "Nyírbogát",
      "postal_code": "4361",
      "country_code": "HU",
      "latitude": 47.8034,
      "longitude": 22.0656,
      "admin_name1": "Szabolcs-Szatmár-Bereg"
    },
    {
      "place_name": "Kótaj",
      "postal_code": "4482",
      "country_code": "HU",
      "latitude": 48.05,
      "longitude": 21.7167,
      "admin_name1": "Szabolcs-Szatmár-Bereg"
    },
    {
      "place_name": "Csaroda",
      "postal_code": "4844",
      "country_code": "HU",
      "latitude": 48.1583,
      "longitude": 22.4595,
      "admin_name1": "Szabolcs-Szatmár-Bereg"
    },
    {
      "place_name": "Vámosatya",
      "postal_code": "4936",
      "country_code": "HU",
      "latitude": 48.1997,
      "longitude": 22.4091,
      "admin_name1": "Szabolcs-Szatmár-Bereg"
    },
    {
      "place_name": "Zsarolyán",
      "postal_code": "4961",
      "country_code": "HU",
      "latitude": 47.9493,
      "longitude": 22.5911,
      "admin_name1": "Szabolcs-Szatmár-Bereg"
    },
    {
      "place_name": "Túrricse",
      "postal_code": "4968",
      "country_code": "HU",
      "latitude": 47.9739,
      "longitude": 22.7661,
      "admin_name1": "Szabolcs-Szatmár-Bereg"
    },
    {
      "place_name": "Miszla",
      "postal_code": "7065",
      "country_code": "HU",
      "latitude": 46.632,
      "longitude": 18.4805,
      "admin_name1": "Tolna"
    },
    {
      "place_name": "Ozora",
      "postal_code": "7086",
      "country_code": "HU",
      "latitude": 46.7513,
      "longitude": 18.4001,
      "admin_name1": "Tolna"
    },
    {
      "place_name": "Dunaszentgyörgy",
      "postal_code": "7135",
      "country_code": "HU",
      "latitude": 46.5285,
      "longitude": 18.8177,
      "admin_name1": "Tolna"
    },
    {
      "place_name": "Pörböly",
      "postal_code": "7142",
      "country_code": "HU",
      "latitude": 46.2056,
      "longitude": 18.8124,
      "admin_name1": "Tolna"
    },
    {
      "place_name": "Lengyel",
      "postal_code": "7184",
      "country_code": "HU",
      "latitude": 46.3723,
      "longitude": 18.3683,
      "admin_name1": "Tolna"
    },
    {
      "place_name": "Szakály",
      "postal_code": "7192",
      "country_code": "HU",
      "latitude": 46.5248,
      "longitude": 18.3823,
      "admin_name1": "Tolna"
    },
    {
      "place_name": "Celldömölk",
      "postal_code": "9500",
      "country_code": "HU",
      "latitude": 47.2571,
      "longitude": 17.1503,
      "admin_name1": "Vas"
    },
    {
      "place_name": "Bő",
      "postal_code": "9625",
      "country_code": "HU",
      "latitude": 47.2309,
      "longitude": 16.6216,
      "admin_name1": "Vas"
    },
    {
      "place_name": "Rábapaty",
      "postal_code": "9641",
      "country_code": "HU",
      "latitude": 47.2951,
      "longitude": 16.9348,
      "admin_name1": "Vas"
    },
    {
      "place_name": "Hosszúpereszteg",
      "postal_code": "9676",
      "country_code": "HU",
      "latitude": 47.0968,
      "longitude": 17.0233,
      "admin_name1": "Vas"
    },
    {
      "place_name": "Kőszegszerdahely",
      "postal_code": "9725",
      "country_code": "HU",
      "latitude": 47.34,
      "longitude": 16.5146,
      "admin_name1": "Vas"
    },
    {
      "place_name": "Vasasszonyfa",
      "postal_code": "9744",
      "country_code": "HU",
      "latitude": 47.3113,
      "longitude": 16.6709,
      "admin_name1": "Vas"
    },
    {
      "place_name": "Vasszilvágy",
      "postal_code": "9747",
      "country_code": "HU",
      "latitude": 47.3013,
      "longitude": 16.7528,
      "admin_name1": "Vas"
    },
    {
      "place_name": "Vasszécseny",
      "postal_code": "9763",
      "country_code": "HU",
      "latitude": 47.1817,
      "longitude": 16.7668,
      "admin_name1": "Vas"
    },
    {
      "place_name": "Nagykölked",
      "postal_code": "9784",
      "country_code": "HU",
      "latitude": 47.0674,
      "longitude": 16.5527,
      "admin_name1": "Vas"
    },
    {
      "place_name": "Gersekarát",
      "postal_code": "9813",
      "country_code": "HU",
      "latitude": 46.9784,
      "longitude": 16.7427,
      "admin_name1": "Vas"
    },
    {
      "place_name": "Ivánc",
      "postal_code": "9931",
      "country_code": "HU",
      "latitude": 46.9439,
      "longitude": 16.5022,
      "admin_name1": "Vas"
    },
    {
      "place_name": "Velemér",
      "postal_code": "9946",
      "country_code": "HU",
      "latitude": 46.7381,
      "longitude": 16.3791,
      "admin_name1": "Vas"
    },
    {
      "place_name": "Balatonudvari",
      "postal_code": "8242",
      "country_code": "HU",
      "latitude": 46.9042,
      "longitude": 17.8035,
      "admin_name1": "Veszprém"
    },
    {
      "place_name": "Balatonszepezd",
      "postal_code": "8252",
      "country_code": "HU",
      "latitude": 46.8563,
      "longitude": 17.6667,
      "admin_name1": "Veszprém"
    },
    {
      "place_name": "Óbudavár",
      "postal_code": "8272",
      "country_code": "HU",
      "latitude": 46.9381,
      "longitude": 17.6906,
      "admin_name1": "Veszprém"
    },
    {
      "place_name": "Tapolca",
      "postal_code": "8297",
      "country_code": "HU",
      "latitude": 46.8815,
      "longitude": 17.4412,
      "admin_name1": "Veszprém"
    },
    {
      "place_name": "Ukk",
      "postal_code": "8347",
      "country_code": "HU",
      "latitude": 47.0433,
      "longitude": 17.2155,
      "admin_name1": "Veszprém"
    },
    {
      "place_name": "Csetény",
      "postal_code": "8417",
      "country_code": "HU",
      "latitude": 47.3181,
      "longitude": 17.9921,
      "admin_name1": "Veszprém"
    },
    {
      "place_name": "Pénzesgyőr",
      "postal_code": "8426",
      "country_code": "HU",
      "latitude": 47.2289,
      "longitude": 17.7915,
      "admin_name1": "Veszprém"
    },
    {
      "place_name": "Kolontár",
      "postal_code": "8468",
      "country_code": "HU",
      "latitude": 47.0846,
      "longitude": 17.4764,
      "admin_name1": "Veszprém"
    },
    {
      "place_name": "Szentimrefalva",
      "postal_code": "8475",
      "country_code": "HU",
      "latitude": 47.0768,
      "longitude": 17.2801,
      "admin_name1": "Veszprém"
    },
    {
      "place_name": "Felsőrajk",
      "postal_code": "8767",
      "country_code": "HU",
      "latitude": 46.681,
      "longitude": 16.987,
      "admin_name1": "Zala"
    },
    {
      "place_name": "Nagybakónak",
      "postal_code": "8821",
      "country_code": "HU",
      "latitude": 46.5538,
      "longitude": 17.0438,
      "admin_name1": "Zala"
    },
    {
      "place_name": "Nagykanizsa",
      "postal_code": "8831",
      "country_code": "HU",
      "latitude": 46.4535,
      "longitude": 16.991,
      "admin_name1": "Zala"
    },
    {
      "place_name": "Pusztamagyaród",
      "postal_code": "8895",
      "country_code": "HU",
      "latitude": 46.604,
      "longitude": 16.8316,
      "admin_name1": "Zala"
    },
    {
      "place_name": "Csonkahegyhát",
      "postal_code": "8918",
      "country_code": "HU",
      "latitude": 46.8007,
      "longitude": 16.72,
      "admin_name1": "Zala"
    },
    {
      "place_name": "Baktüttös",
      "postal_code": "8946",
      "country_code": "HU",
      "latitude": 46.7,
      "longitude": 16.8179,
      "admin_name1": "Zala"
    },
    {
      "place_name": "Zalatárnok",
      "postal_code": "8947",
      "country_code": "HU",
      "latitude": 46.7011,
      "longitude": 16.7597,
      "admin_name1": "Zala"
    },
    {
      "place_name": "Nova",
      "postal_code": "8948",
      "country_code": "HU",
      "latitude": 46.6851,
      "longitude": 16.6765,
      "admin_name1": "Zala"
    },
    {
      "place_name": "Pellérd",
      "postal_code": "7831",
      "country_code": "HU",
      "latitude": 46.0344,
      "longitude": 18.154,
      "admin_name1": "Baranya"
    },
    {
      "place_name": "Szentlászló",
      "postal_code": "7936",
      "country_code": "HU",
      "latitude": 46.1567,
      "longitude": 17.8345,
      "admin_name1": "Baranya"
    },
    {
      "place_name": "Doboz",
      "postal_code": "5624",
      "country_code": "HU",
      "latitude": 46.7333,
      "longitude": 21.25,
      "admin_name1": "Békés"
    },
    {
      "place_name": "Kamut",
      "postal_code": "5673",
      "country_code": "HU",
      "latitude": 46.7667,
      "longitude": 20.9833,
      "admin_name1": "Békés"
    },
    {
      "place_name": "Gerendás",
      "postal_code": "5925",
      "country_code": "HU",
      "latitude": 46.6,
      "longitude": 20.8667,
      "admin_name1": "Békés"
    },
    {
      "place_name": "Tiszaalpár",
      "postal_code": "6066",
      "country_code": "HU",
      "latitude": 46.8128,
      "longitude": 19.9984,
      "admin_name1": "Bács-Kiskun"
    },
    {
      "place_name": "Kiskunfélegyháza",
      "postal_code": "6100",
      "country_code": "HU",
      "latitude": 46.7121,
      "longitude": 19.8446,
      "admin_name1": "Bács-Kiskun"
    },
    {
      "place_name": "Kalocsa",
      "postal_code": "6300",
      "country_code": "HU",
      "latitude": 46.5298,
      "longitude": 18.9728,
      "admin_name1": "Bács-Kiskun"
    },
    {
      "place_name": "Dusnok",
      "postal_code": "6353",
      "country_code": "HU",
      "latitude": 46.3909,
      "longitude": 18.963,
      "admin_name1": "Bács-Kiskun"
    },
    {
      "place_name": "Bácsalmás",
      "postal_code": "6430",
      "country_code": "HU",
      "latitude": 46.1265,
      "longitude": 19.3326,
      "admin_name1": "Bács-Kiskun"
    },
    {
      "place_name": "Sály",
      "postal_code": "3425",
      "country_code": "HU",
      "latitude": 47.95,
      "longitude": 20.6667,
      "admin_name1": "Borsod-Abaúj-Zemplén"
    },
    {
      "place_name": "Egerlövő",
      "postal_code": "3461",
      "country_code": "HU",
      "latitude": 47.7167,
      "longitude": 20.6333,
      "admin_name1": "Borsod-Abaúj-Zemplén"
    },
    {
      "place_name": "Ároktő",
      "postal_code": "3467",
      "country_code": "HU",
      "latitude": 47.7333,
      "longitude": 20.95,
      "admin_name1": "Borsod-Abaúj-Zemplén"
    },
    {
      "place_name": "Hejőbába",
      "postal_code": "3593",
      "country_code": "HU",
      "latitude": 47.9,
      "longitude": 20.95,
      "admin_name1": "Borsod-Abaúj-Zemplén"
    },
    {
      "place_name": "Hejőkeresztúr",
      "postal_code": "3597",
      "country_code": "HU",
      "latitude": 47.9667,
      "longitude": 20.8833,
      "admin_name1": "Borsod-Abaúj-Zemplén"
    },
    {
      "place_name": "Hangony",
      "postal_code": "3626",
      "country_code": "HU",
      "latitude": 48.2333,
      "longitude": 20.2,
      "admin_name1": "Borsod-Abaúj-Zemplén"
    },
    {
      "place_name": "Dédestapolcsány",
      "postal_code": "3643",
      "country_code": "HU",
      "latitude": 48.1833,
      "longitude": 20.4833,
      "admin_name1": "Borsod-Abaúj-Zemplén"
    },
    {
      "place_name": "Sáta",
      "postal_code": "3659",
      "country_code": "HU",
      "latitude": 48.1833,
      "longitude": 20.4,
      "admin_name1": "Borsod-Abaúj-Zemplén"
    },
    {
      "place_name": "Szendrő",
      "postal_code": "3752",
      "country_code": "HU",
      "latitude": 48.4,
      "longitude": 20.7333,
      "admin_name1": "Borsod-Abaúj-Zemplén"
    },
    {
      "place_name": "Tornaszentandrás",
      "postal_code": "3765",
      "country_code": "HU",
      "latitude": 48.5167,
      "longitude": 20.7833,
      "admin_name1": "Borsod-Abaúj-Zemplén"
    },
    {
      "place_name": "Kondó",
      "postal_code": "3775",
      "country_code": "HU",
      "latitude": 48.2,
      "longitude": 20.65,
      "admin_name1": "Borsod-Abaúj-Zemplén"
    },
    {
      "place_name": "Borsodszirák",
      "postal_code": "3796",
      "country_code": "HU",
      "latitude": 48.2667,
      "longitude": 20.7667,
      "admin_name1": "Borsod-Abaúj-Zemplén"
    },
    {
      "place_name": "Baktakék",
      "postal_code": "3836",
      "country_code": "HU",
      "latitude": 48.3833,
      "longitude": 21.0333,
      "admin_name1": "Borsod-Abaúj-Zemplén"
    },
    {
      "place_name": "Csobád",
      "postal_code": "3848",
      "country_code": "HU",
      "latitude": 48.2833,
      "longitude": 21.0333,
      "admin_name1": "Borsod-Abaúj-Zemplén"
    },
    {
      "place_name": "Abaújszántó",
      "postal_code": "3881",
      "country_code": "HU",
      "latitude": 48.2833,
      "longitude": 21.2,
      "admin_name1": "Borsod-Abaúj-Zemplén"
    },
    {
      "place_name": "Szerencs",
      "postal_code": "3902",
      "country_code": "HU",
      "latitude": 48.1599,
      "longitude": 21.2097,
      "admin_name1": "Borsod-Abaúj-Zemplén"
    },
    {
      "place_name": "Dámóc",
      "postal_code": "3978",
      "country_code": "HU",
      "latitude": 48.3752,
      "longitude": 22.0338,
      "admin_name1": "Borsod-Abaúj-Zemplén"
    },
    {
      "place_name": "Mindszent",
      "postal_code": "6630",
      "country_code": "HU",
      "latitude": 46.5236,
      "longitude": 20.1904,
      "admin_name1": "Csongrád"
    },
    {
      "place_name": "Kistelek",
      "postal_code": "6760",
      "country_code": "HU",
      "latitude": 46.4725,
      "longitude": 19.9797,
      "admin_name1": "Csongrád"
    },
    {
      "place_name": "Szatymaz",
      "postal_code": "6763",
      "country_code": "HU",
      "latitude": 46.3431,
      "longitude": 20.0402,
      "admin_name1": "Csongrád"
    },
    {
      "place_name": "Bordány",
      "postal_code": "6795",
      "country_code": "HU",
      "latitude": 46.3184,
      "longitude": 19.9231,
      "admin_name1": "Csongrád"
    },
    {
      "place_name": "Apátfalva",
      "postal_code": "6931",
      "country_code": "HU",
      "latitude": 46.1667,
      "longitude": 20.5833,
      "admin_name1": "Csongrád"
    },
    {
      "place_name": "Gárdony",
      "postal_code": "2485",
      "country_code": "HU",
      "latitude": 47.2094,
      "longitude": 18.6361,
      "admin_name1": "Fejér"
    },
    {
      "place_name": "Felcsút",
      "postal_code": "8086",
      "country_code": "HU",
      "latitude": 47.458,
      "longitude": 18.5863,
      "admin_name1": "Fejér"
    },
    {
      "place_name": "Mezőszentgyörgy",
      "postal_code": "8133",
      "country_code": "HU",
      "latitude": 46.992,
      "longitude": 18.282,
      "admin_name1": "Fejér"
    },
    {
      "place_name": "Kisláng",
      "postal_code": "8156",
      "country_code": "HU",
      "latitude": 46.9574,
      "longitude": 18.3881,
      "admin_name1": "Fejér"
    },
    {
      "place_name": "Győrság",
      "postal_code": "9084",
      "country_code": "HU",
      "latitude": 47.5806,
      "longitude": 17.7525,
      "admin_name1": "Győr-Moson-Sopron"
    },
    {
      "place_name": "Pannonhalma",
      "postal_code": "9090",
      "country_code": "HU",
      "latitude": 47.5495,
      "longitude": 17.7554,
      "admin_name1": "Győr-Moson-Sopron"
    },
    {
      "place_name": "Dör",
      "postal_code": "9147",
      "country_code": "HU",
      "latitude": 47.5988,
      "longitude": 17.2998,
      "admin_name1": "Győr-Moson-Sopron"
    },
    {
      "place_name": "Halászi",
      "postal_code": "9228",
      "country_code": "HU",
      "latitude": 47.8893,
      "longitude": 17.3261,
      "admin_name1": "Győr-Moson-Sopron"
    },
    {
      "place_name": "Darnózseli",
      "postal_code": "9232",
      "country_code": "HU",
      "latitude": 47.8494,
      "longitude": 17.4237,
      "admin_name1": "Győr-Moson-Sopron"
    },
    {
      "place_name": "Szilsárkány",
      "postal_code": "9312",
      "country_code": "HU",
      "latitude": 47.5396,
      "longitude": 17.2562,
      "admin_name1": "Győr-Moson-Sopron"
    },
    {
      "place_name": "Sarród",
      "postal_code": "9434",
      "country_code": "HU",
      "latitude": 47.6352,
      "longitude": 16.8618,
      "admin_name1": "Győr-Moson-Sopron"
    },
    {
      "place_name": "Hortobágy",
      "postal_code": "4071",
      "country_code": "HU",
      "latitude": 47.5828,
      "longitude": 21.1511,
      "admin_name1": "Hajdú-Bihar"
    },
    {
      "place_name": "Bojt",
      "postal_code": "4114",
      "country_code": "HU",
      "latitude": 47.2,
      "longitude": 21.7333,
      "admin_name1": "Hajdú-Bihar"
    },
    {
      "place_name": "Váncsod",
      "postal_code": "4119",
      "country_code": "HU",
      "latitude": 47.2,
      "longitude": 21.65,
      "admin_name1": "Hajdú-Bihar"
    },
    {
      "place_name": "Tarnalelesz",
      "postal_code": "3258",
      "country_code": "HU",
      "latitude": 48.05,
      "longitude": 20.1833,
      "admin_name1": "Heves"
    },
    {
      "place_name": "Boconád",
      "postal_code": "3368",
      "country_code": "HU",
      "latitude": 47.6333,
      "longitude": 20.2,
      "admin_name1": "Heves"
    },
    {
      "place_name": "Mezőtárkány",
      "postal_code": "3375",
      "country_code": "HU",
      "latitude": 47.7167,
      "longitude": 20.4833,
      "admin_name1": "Heves"
    },
    {
      "place_name": "Örményes",
      "postal_code": "5222",
      "country_code": "HU",
      "latitude": 47.2,
      "longitude": 20.5833,
      "admin_name1": "Jász-Nagykun-Szolnok"
    },
    {
      "place_name": "Tiszafüred",
      "postal_code": "5350",
      "country_code": "HU",
      "latitude": 47.6167,
      "longitude": 20.7667,
      "admin_name1": "Jász-Nagykun-Szolnok"
    },
    {
      "place_name": "Szelevény",
      "postal_code": "5476",
      "country_code": "HU",
      "latitude": 46.8026,
      "longitude": 20.2028,
      "admin_name1": "Jász-Nagykun-Szolnok"
    },
    {
      "place_name": "Tokod",
      "postal_code": "2531",
      "country_code": "HU",
      "latitude": 47.7228,
      "longitude": 18.6589,
      "admin_name1": "Komárom-Esztergom"
    },
    {
      "place_name": "Vértesszőlős",
      "postal_code": "2837",
      "country_code": "HU",
      "latitude": 47.6211,
      "longitude": 18.3813,
      "admin_name1": "Komárom-Esztergom"
    },
    {
      "place_name": "Ács",
      "postal_code": "2941",
      "country_code": "HU",
      "latitude": 47.7123,
      "longitude": 18.0113,
      "admin_name1": "Komárom-Esztergom"
    },
    {
      "place_name": "Felsőpetény",
      "postal_code": "2611",
      "country_code": "HU",
      "latitude": 47.8912,
      "longitude": 19.1969,
      "admin_name1": "Nógrád"
    },
    {
      "place_name": "Rétság",
      "postal_code": "2651",
      "country_code": "HU",
      "latitude": 47.9282,
      "longitude": 19.1372,
      "admin_name1": "Nógrád"
    },
    {
      "place_name": "Pusztaberki",
      "postal_code": "2658",
      "country_code": "HU",
      "latitude": 47.9751,
      "longitude": 19.1623,
      "admin_name1": "Nógrád"
    },
    {
      "place_name": "Becske",
      "postal_code": "2693",
      "country_code": "HU",
      "latitude": 47.9092,
      "longitude": 19.3763,
      "admin_name1": "Nógrád"
    },
    {
      "place_name": "Terény",
      "postal_code": "2696",
      "country_code": "HU",
      "latitude": 47.947,
      "longitude": 19.4438,
      "admin_name1": "Nógrád"
    },
    {
      "place_name": "Leányfalu",
      "postal_code": "2016",
      "country_code": "HU",
      "latitude": 47.7178,
      "longitude": 19.0858,
      "admin_name1": "Pest"
    },
    {
      "place_name": "Budajenő",
      "postal_code": "2093",
      "country_code": "HU",
      "latitude": 47.5569,
      "longitude": 18.8021,
      "admin_name1": "Pest"
    },
    {
      "place_name": "Kerepes",
      "postal_code": "2144",
      "country_code": "HU",
      "latitude": 47.5601,
      "longitude": 19.2829,
      "admin_name1": "Pest"
    },
    {
      "place_name": "Fót",
      "postal_code": "2151",
      "country_code": "HU",
      "latitude": 47.6177,
      "longitude": 19.1887,
      "admin_name1": "Pest"
    },
    {
      "place_name": "Kaposhomok",
      "postal_code": "7261",
      "country_code": "HU",
      "latitude": 46.3621,
      "longitude": 17.9218,
      "admin_name1": "Somogy"
    },
    {
      "place_name": "Hedrehely",
      "postal_code": "7533",
      "country_code": "HU",
      "latitude": 46.1966,
      "longitude": 17.6515,
      "admin_name1": "Somogy"
    },