[
  [
    {
      "place_name": "Jkia",
      "postal_code": "00501",
      "country_code": "KE",
      "latitude": -1.3574,
      "longitude": 36.7416,
      "admin_name1": "Nairobi"
    },
    {
      "place_name": "Budalangi",
      "postal_code": "50415",
      "country_code": "KE",
      "latitude": 0.2289,
      "longitude": 34.1536,
      "admin_name1": "Nairobi"
    },
    {
      "place_name": "Bomet",
      "postal_code": "20400",
      "country_code": "KE",
      "latitude": -0.7813,
      "longitude": 35.3416,
      "admin_name1": "Bomet"
    },
    {
      "place_name": "Chebunyo",
      "postal_code": "20401",
      "country_code": "KE",
      "latitude": -0.9666,
      "longitude": 35.1909,
      "admin_name1": "Bomet"
    },
    {
      "place_name": "Olbutyo",
      "postal_code": "20421",
      "country_code": "KE",
      "latitude": -0.8539,
      "longitude": 35.2725,
      "admin_name1": "Bomet"
    },
    {
      "place_name": "Bungoma",
      "postal_code": "50200",
      "country_code": "KE",
      "latitude": 0.5635,
      "longitude": 34.5606,
      "admin_name1": "Bungoma"
    },
    {
      "place_name": "Naitiri",
      "postal_code": "50211",
      "country_code": "KE",
      "latitude": 0.5577,
      "longitude": 34.6367,
      "admin_name1": "Bungoma"
    },
    {
      "place_name": "Bumutiru",
      "postal_code": "50418",
      "country_code": "KE",
      "latitude": 0.2289,
      "longitude": 34.1536,
      "admin_name1": "Busia"
    },
    {
      "place_name": "Kindaruma",
      "postal_code": "01031",
      "country_code": "KE",
      "latitude": -0.924,
      "longitude": 36.9372,
      "admin_name1": "Embu"
    },
    {
      "place_name": "Kadongo",
      "postal_code": "40223",
      "country_code": "KE",
      "latitude": -0.4465,
      "longitude": 34.8912,
      "admin_name1": "Homa Bay"
    },
    {
      "place_name": "Oyani-Masi",
      "postal_code": "40334",
      "country_code": "KE",
      "latitude": -0.5129,
      "longitude": 34.4175,
      "admin_name1": "Homa Bay"
    },
    {
      "place_name": "Khwisero",
      "postal_code": "50135",
      "country_code": "KE",
      "latitude": 0.1712,
      "longitude": 34.5947,
      "admin_name1": "Kakamega"
    },
    {
      "place_name": "Huduma Kericho",
      "postal_code": "20226",
      "country_code": "KE",
      "latitude": -0.3157,
      "longitude": 35.377,
      "admin_name1": "Kericho"
    },
    {
      "place_name": "Mururi",
      "postal_code": "60120",
      "country_code": "KE",
      "latitude": -0.555,
      "longitude": 37.38,
      "admin_name1": "Kirinyaga"
    },
    {
      "place_name": "Kondele",
      "postal_code": "40103",
      "country_code": "KE",
      "latitude": -0.112,
      "longitude": 34.8912,
      "admin_name1": "Kisumu"
    },
    {
      "place_name": "Paw Akuche",
      "postal_code": "40131",
      "country_code": "KE",
      "latitude": -0.1626,
      "longitude": 34.6685,
      "admin_name1": "Kisumu"
    },
    {
      "place_name": "Mbitini",
      "postal_code": "90214",
      "country_code": "KE",
      "latitude": -1.5927,
      "longitude": 38.1173,
      "admin_name1": "Kitui"
    },
    {
      "place_name": "Laikipia Campus",
      "postal_code": "20330",
      "country_code": "KE",
      "latitude": -0.1465,
      "longitude": 36.461,
      "admin_name1": "Laikipia"
    },
    {
      "place_name": "Athi River",
      "postal_code": "00204",
      "country_code": "KE",
      "latitude": -1.4563,
      "longitude": 36.9783,
      "admin_name1": "Machakos"
    },
    {
      "place_name": "Tawa",
      "postal_code": "90133",
      "country_code": "KE",
      "latitude": -1.5538,
      "longitude": 37.4607,
      "admin_name1": "Makueni"
    },
    {
      "place_name": "Nziu",
      "postal_code": "90143",
      "country_code": "KE",
      "latitude": -1.8179,
      "longitude": 37.5371,
      "admin_name1": "Makueni"
    },
    {
      "place_name": "Loiyangalani",
      "postal_code": "60501",
      "country_code": "KE",
      "latitude": 2.7444,
      "longitude": 36.7146,
      "admin_name1": "Marsabit"
    },
    {
      "place_name": "Karungu",
      "postal_code": "40401",
      "country_code": "KE",
      "latitude": -0.8431,
      "longitude": 34.1566,
      "admin_name1": "Migori"
    },
    {
      "place_name": "Kabarak",
      "postal_code": "20157",
      "country_code": "KE",
      "latitude": -0.254,
      "longitude": 35.6027,
      "admin_name1": "Nakuru"
    },
    {
      "place_name": "Kobujoi",
      "postal_code": "30305",
      "country_code": "KE",
      "latitude": 0.0565,
      "longitude": 34.9761,
      "admin_name1": "Nandi"
    },
    {
      "place_name": "Kiganjo",
      "postal_code": "10102",
      "country_code": "KE",
      "latitude": -0.3963,
      "longitude": 37.0001,
      "admin_name1": "Nyeri"
    },
    {
      "place_name": "Ruringu",
      "postal_code": "10133",
      "country_code": "KE",
      "latitude": -0.4306,
      "longitude": 36.9805,
      "admin_name1": "Nyeri"
    },
    {
      "place_name": "Maktau",
      "postal_code": "80315",
      "country_code": "KE",
      "latitude": -3.4083,
      "longitude": 38.1368,
      "admin_name1": "Taita Taveta"
    },
    {
      "place_name": "Kipsaina",
      "postal_code": "30203",
      "country_code": "KE",
      "latitude": 0.9339,
      "longitude": 35.0194,
      "admin_name1": "Trans Nzoia"
    },
    {
      "place_name": "Kwanza",
      "postal_code": "30210",
      "country_code": "KE",
      "latitude": 1.1684,
      "longitude": 34.9926,
      "admin_name1": "Trans Nzoia"
    },
    {
      "place_name": "Chamakanga",
      "postal_code": "50302",
      "country_code": "KE",
      "latitude": 0.1464,
      "longitude": 34.7957,
      "admin_name1": "Vihiga"
    },
    {
      "place_name": "Sarit Centre",
      "postal_code": "00606",
      "country_code": "KE",
      "latitude": -1.2555,
      "longitude": 36.7951,
      "admin_name1": "Nairobi"
    },
    {
      "place_name": "Waithaka",
      "postal_code": "00613",
      "country_code": "KE",
      "latitude": -1.2833,
      "longitude": 36.7167,
      "admin_name1": "Nairobi"
    },
    {
      "place_name": "Hakati",
      "postal_code": "50407",
      "country_code": "KE",
      "latitude": 0.3758,
      "longitude": 34.188,
      "admin_name1": "Nairobi"
    },
    {
      "place_name": "Kabarnet",
      "postal_code": "30400",
      "country_code": "KE",
      "latitude": 0.4919,
      "longitude": 35.743,
      "admin_name1": "Baringo"
    },
    {
      "place_name": "Longisa",
      "postal_code": "20402",
      "country_code": "KE",
      "latitude": -0.8593,
      "longitude": 35.3933,
      "admin_name1": "Bomet"
    },
    {
      "place_name": "Ndaraweta",
      "postal_code": "20426",
      "country_code": "KE",
      "latitude": -0.8265,
      "longitude": 35.2766,
      "admin_name1": "Bomet"
    },
    {
      "place_name": "Amukura",
      "postal_code": "50403",
      "country_code": "KE",
      "latitude": 0.5663,
      "longitude": 34.2731,
      "admin_name1": "Busia"
    },
    {
      "place_name": "Ishiara",
      "postal_code": "60102",
      "country_code": "KE",
      "latitude": -0.453,
      "longitude": 37.7888,
      "admin_name1": "Embu"
    },
    {
      "place_name": "Koyonzo",
      "postal_code": "50117",
      "country_code": "KE",
      "latitude": 0.4216,
      "longitude": 34.4246,
      "admin_name1": "Kakamega"
    },
    {
      "place_name": "Makunga",
      "postal_code": "50133",
      "country_code": "KE",
      "latitude": 0.3013,
      "longitude": 34.6235,
      "admin_name1": "Kakamega"
    },
    {
      "place_name": "Gatura",
      "postal_code": "01013",
      "country_code": "KE",
      "latitude": -0.9784,
      "longitude": 37.02,
      "admin_name1": "Kiambu"
    },
    {
      "place_name": "Baricho",
      "postal_code": "10302",
      "country_code": "KE",
      "latitude": -0.5503,
      "longitude": 37.2463,
      "admin_name1": "Kirinyaga"
    },
    {
      "place_name": "Tabaka",
      "postal_code": "40229",
      "country_code": "KE",
      "latitude": -0.7474,
      "longitude": 34.6668,
      "admin_name1": "Kisii"
    },
    {
      "place_name": "Kisasi",
      "postal_code": "90204",
      "country_code": "KE",
      "latitude": -1.5282,
      "longitude": 38.0234,
      "admin_name1": "Kitui"
    },
    {
      "place_name": "Kaviani",
      "postal_code": "90107",
      "country_code": "KE",
      "latitude": -1.4727,
      "longitude": 37.3095,
      "admin_name1": "Machakos"
    },
    {
      "place_name": "Okia",
      "postal_code": "90301",
      "country_code": "KE",
      "latitude": -1.7706,
      "longitude": 37.5127,
      "admin_name1": "Makueni"
    },
    {
      "place_name": "Gakungu",
      "postal_code": "10232",
      "country_code": "KE",
      "latitude": -0.7564,
      "longitude": 37.0889,
      "admin_name1": "Murang'A"
    },
    {
      "place_name": "Longonot",
      "postal_code": "20146",
      "country_code": "KE",
      "latitude": -0.884,
      "longitude": 36.499,
      "admin_name1": "Nakuru"
    },
    {
      "place_name": "Kilibwoni",
      "postal_code": "30315",
      "country_code": "KE",
      "latitude": 0.2095,
      "longitude": 35.2322,
      "admin_name1": "Nandi"
    },
    {
      "place_name": "Garsen",
      "postal_code": "80201",
      "country_code": "KE",
      "latitude": -2.2664,
      "longitude": 40.1098,
      "admin_name1": "Tana River"
    },
    {
      "place_name": "Tunyai",
      "postal_code": "60213",
      "country_code": "KE",
      "latitude": -0.1761,
      "longitude": 37.8369,
      "admin_name1": "Tharaka - Nithi"
    },
    {
      "place_name": "Igoji",
      "postal_code": "60402",
      "country_code": "KE",
      "latitude": -0.1931,
      "longitude": 37.6672,
      "admin_name1": "Tharaka - Nithi"
    },
    {
      "place_name": "Ikuu",
      "postal_code": "60405",
      "country_code": "KE",
      "latitude": -0.372,
      "longitude": 37.653,
      "admin_name1": "Tharaka - Nithi"
    },
    {
      "place_name": "Kakuma",
      "postal_code": "30501",
      "country_code": "KE",
      "latitude": 3.7136,
      "longitude": 34.8572,
      "admin_name1": "Turkana"
    },
    {
      "place_name": "Eregi",
      "postal_code": "50303",
      "country_code": "KE",
      "latitude": 0.1537,
      "longitude": 34.7042,
      "admin_name1": "Vihiga"
    },
    {
      "place_name": "Jamia",
      "postal_code": "00101",
      "country_code": "KE",
      "latitude": -1.2615,
      "longitude": 36.7903,
      "admin_name1": "Nairobi"
    },
    {
      "place_name": "Kaptebengwet",
      "postal_code": "20221",
      "country_code": "KE",
      "latitude": -0.5768,
      "longitude": 35.3124,
      "admin_name1": "Bomet"
    },
    {
      "place_name": "Sigor",
      "postal_code": "20405",
      "country_code": "KE",
      "latitude": -0.9191,
      "longitude": 35.2993,
      "admin_name1": "Bomet"
    },
    {
      "place_name": "Masinga",
      "postal_code": "90141",
      "country_code": "KE",
      "latitude": -1.8179,
      "longitude": 37.5371,
      "admin_name1": "Embu"
    },
    {
      "place_name": "Asumbi",
      "postal_code": "40309",
      "country_code": "KE",
      "latitude": -0.6202,
      "longitude": 34.6155,
      "admin_name1": "Homa Bay"
    },
    {
      "place_name": "Namanga",
      "postal_code": "00207",
      "country_code": "KE",
      "latitude": -1.595,
      "longitude": 36.6506,
      "admin_name1": "Kajiado"
    },
    {
      "place_name": "Loitokitok",
      "postal_code": "00209",
      "country_code": "KE",
      "latitude": -1.595,
      "longitude": 36.6506,
      "admin_name1": "Kajiado"
    },
    {
      "place_name": "Lugari",
      "postal_code": "50108",
      "country_code": "KE",
      "latitude": 0.65,
      "longitude": 34.85,
      "admin_name1": "Kakamega"
    },
    {
      "place_name": "Nambacha",
      "postal_code": "50127",
      "country_code": "KE",
      "latitude": 0.395,
      "longitude": 34.667,
      "admin_name1": "Kakamega"
    },
    {
      "place_name": "Masana",
      "postal_code": "50324",
      "country_code": "KE",
      "latitude": 0.0821,
      "longitude": 34.7362,
      "admin_name1": "Kakamega"
    },
    {
      "place_name": "Kiptere",
      "postal_code": "20213",
      "country_code": "KE",
      "latitude": -0.3788,
      "longitude": 35.1293,
      "admin_name1": "Kericho"
    },
    {
      "place_name": "Keumbu",
      "postal_code": "40212",
      "country_code": "KE",
      "latitude": -0.735,
      "longitude": 34.8404,
      "admin_name1": "Kisii"
    },
    {
      "place_name": "Miwani",
      "postal_code": "40106",
      "country_code": "KE",
      "latitude": -0.0591,
      "longitude": 34.9779,
      "admin_name1": "Kisumu"
    },
    {
      "place_name": "Ukunda",
      "postal_code": "80400",
      "country_code": "KE",
      "latitude": -4.2929,
      "longitude": 39.564,
      "admin_name1": "Kwale"
    },
    {
      "place_name": "Lita",
      "postal_code": "90109",
      "country_code": "KE",
      "latitude": -1.4664,
      "longitude": 37.3203,
      "admin_name1": "Machakos"
    },
    {
      "place_name": "Makueni",
      "postal_code": "90300",
      "country_code": "KE",
      "latitude": -1.8039,
      "longitude": 37.624,
      "admin_name1": "Makueni"
    },
    {
      "place_name": "Isibania",
      "postal_code": "40414",
      "country_code": "KE",
      "latitude": -1.2394,
      "longitude": 34.4792,
      "admin_name1": "Migori"
    },
    {
      "place_name": "Likoni",
      "postal_code": "80110",
      "country_code": "KE",
      "latitude": -4.0839,
      "longitude": 39.6616,
      "admin_name1": "Mombasa"
    },
    {
      "place_name": "Kahuro",
      "postal_code": "10201",
      "country_code": "KE",
      "latitude": -0.7482,
      "longitude": 37.0083,
      "admin_name1": "Murang'A"
    },
    {
      "place_name": "Gikoe",
      "postal_code": "10213",
      "country_code": "KE",
      "latitude": -0.637,
      "longitude": 36.9299,
      "admin_name1": "Murang'A"
    },
    {
      "place_name": "Huduma Muranga",
      "postal_code": "10235",
      "country_code": "KE",
      "latitude": -0.7564,
      "longitude": 37.0889,
      "admin_name1": "Murang'A"
    },
    {
      "place_name": "Makumbi",
      "postal_code": "20149",
      "country_code": "KE",
      "latitude": -0.4644,
      "longitude": 36.183,
      "admin_name1": "Nakuru"
    },
    {
      "place_name": "Olenguruone",
      "postal_code": "20152",
      "country_code": "KE",
      "latitude": -0.5861,
      "longitude": 35.6877,
      "admin_name1": "Nakuru"
    },
    {
      "place_name": "Mokomoni",
      "postal_code": "40510",
      "country_code": "KE",
      "latitude": -0.6428,
      "longitude": 34.8814,
      "admin_name1": "Nyamira"
    },
    {
      "place_name": "Kanyaagia",
      "postal_code": "20309",
      "country_code": "KE",
      "latitude": -0.1649,
      "longitude": 36.4363,
      "admin_name1": "Nyandarua"
    },
    {
      "place_name": "Kiandu",
      "postal_code": "10123",
      "country_code": "KE",
      "latitude": -0.4887,
      "longitude": 36.9665,
      "admin_name1": "Nyeri"
    },
    {
      "place_name": "Aluor",
      "postal_code": "40140",
      "country_code": "KE",
      "latitude": -0.0235,
      "longitude": 34.793,
      "admin_name1": "Siaya"
    },
    {
      "place_name": "Moiâ€™S Bridge",
      "postal_code": "30202",
      "country_code": "KE",
      "latitude": 0.8718,
      "longitude": 35.1221,
      "admin_name1": "Uasin Gishu"
    },
    {
      "place_name": "Kaimosi",
      "postal_code": "50305",
      "country_code": "KE",
      "latitude": 0.1266,
      "longitude": 34.8466,
      "admin_name1": "Vihiga"
    },
    {
      "place_name": "Tiriki",
      "postal_code": "50309",
      "country_code": "KE",
      "latitude": 0.1,
      "longitude": 34.7511,
      "admin_name1": "Vihiga"
    },
    {
      "place_name": "Ortum",
      "postal_code": "30602",
      "country_code": "KE",
      "latitude": 1.4373,
      "longitude": 35.3563,
      "admin_name1": "West Pokot"
    },
    {
      "place_name": "Lower Kabete",
      "postal_code": "00604",
      "country_code": "KE",
      "latitude": -1.2555,
      "longitude": 36.7951,
      "admin_name1": "Nairobi"
    },
    {
      "place_name": "Mathare Valley",
      "postal_code": "00611",
      "country_code": "KE",
      "latitude": -1.2631,
      "longitude": 36.8576,
      "admin_name1": "Nairobi"
    },
    {
      "place_name": "Singore",
      "postal_code": "30703",
      "country_code": "KE",
      "latitude": 0.7137,
      "longitude": 35.5176,
      "admin_name1": "Nairobi"
    },
    {
      "place_name": "Mogotio",
      "postal_code": "20105",
      "country_code": "KE",
      "latitude": -0.0224,
      "longitude": 35.9612,
      "admin_name1": "Baringo"
    },
    {
      "place_name": "Kisanana",
      "postal_code": "20144",
      "country_code": "KE",
      "latitude": 0.0123,
      "longitude": 36.0959,
      "admin_name1": "Baringo"
    },
    {
      "place_name": "Tenges",
      "postal_code": "30405",
      "country_code": "KE",
      "latitude": 0.3108,
      "longitude": 35.8014,
      "admin_name1": "Baringo"
    },
    {
      "place_name": "Oloomirani",
      "postal_code": "20424",
      "country_code": "KE",
      "latitude": -0.8265,
      "longitude": 35.2766,
      "admin_name1": "Bomet"
    },
    {
      "place_name": "Mabusi",
      "postal_code": "50235",
      "country_code": "KE",
      "latitude": 0.7183,
      "longitude": 34.7465,
      "admin_name1": "Bungoma"
    },
    {
      "place_name": "Elugulu",
      "postal_code": "50429",
      "country_code": "KE",
      "latitude": 0.4152,
      "longitude": 34.2428,
      "admin_name1": "Bungoma"
    },
    {
      "place_name": "Kanja",
      "postal_code": "60118",
      "country_code": "KE",
      "latitude": -0.3822,
      "longitude": 37.5159,
      "admin_name1": "Embu"
    },
    {
      "place_name": "Kendu Bay",
      "postal_code": "40301",
      "country_code": "KE",
      "latitude": -0.3618,
      "longitude": 34.6527,
      "admin_name1": "Homa Bay"
    },
    {
      "place_name": "Kandiege",
      "postal_code": "40304",
      "country_code": "KE",
      "latitude": -0.4299,
      "longitude": 34.5534,
      "admin_name1": "Homa Bay"
    },
    {
      "place_name": "Ombonga",
      "postal_code": "40306",
      "country_code": "KE",
      "latitude": -0.5018,
      "longitude": 34.5099,
      "admin_name1": "Homa Bay"
    },
    {
      "place_name": "Kimana",
      "postal_code": "00215",
      "country_code": "KE",
      "latitude": -1.19,
      "longitude": 36.7645,
      "admin_name1": "Kajiado"
    },
    {
      "place_name": "Matete",
      "postal_code": "50136",
      "country_code": "KE",
      "latitude": 0.5626,
      "longitude": 34.8057,
      "admin_name1": "Kakamega"
    },
    {
      "place_name": "Kamiti",
      "postal_code": "00607",
      "country_code": "KE",
      "latitude": -1.2555,
      "longitude": 36.7951,
      "admin_name1": "Kiambu"
    },
    {
      "place_name": "Madina",
      "postal_code": "80207",
      "country_code": "KE",
      "latitude": -3.0419,
      "longitude": 40.0154,
      "admin_name1": "Kilifi"
    },
    {
      "place_name": "Maseno",
      "postal_code": "40105",
      "country_code": "KE",
      "latitude": -0.0066,
      "longitude": 34.6,
      "admin_name1": "Kisumu"
    },
    {
      "place_name": "Katutu",
      "postal_code": "90217",
      "country_code": "KE",
      "latitude": -1.1844,
      "longitude": 37.8193,
      "admin_name1": "Kitui"
    },
    {
      "place_name": "Kikoneni",
      "postal_code": "80410",
      "country_code": "KE",
      "latitude": -4.4477,
      "longitude": 39.31,
      "admin_name1": "Kwale"
    },
    {
      "place_name": "Naro Moru",
      "postal_code": "10105",
      "country_code": "KE",
      "latitude": -0.4334,
      "longitude": 36.9641,
      "admin_name1": "Laikipia"
    },
    {
      "place_name": "Nanyuki",
      "postal_code": "10400",
      "country_code": "KE",
      "latitude": 0.0062,
      "longitude": 37.074,
      "admin_name1": "Laikipia"
    },
    {
      "place_name": "Mitaboni",
      "postal_code": "90104",
      "country_code": "KE",
      "latitude": -1.3759,
      "longitude": 37.2507,
      "admin_name1": "Machakos"
    },
    {
      "place_name": "Ekalakala",
      "postal_code": "90139",
      "country_code": "KE",
      "latitude": -1.5538,
      "longitude": 37.4607,
      "admin_name1": "Machakos"
    },
    {
      "place_name": "Mukerenju",
      "postal_code": "01023",
      "country_code": "KE",
      "latitude": -0.9509,
      "longitude": 37.05,
      "admin_name1": "Murang'A"
    },
    {
      "place_name": "Kahuti",
      "postal_code": "10214",
      "country_code": "KE",
      "latitude": -0.7135,
      "longitude": 36.9657,
      "admin_name1": "Murang'A"
    },
    {
      "place_name": "Mirangine",
      "postal_code": "20124",
      "country_code": "KE",
      "latitude": -0.1695,
      "longitude": 35.9972,
      "admin_name1": "Nakuru"
    },
    {
      "place_name": "Kirobon",
      "postal_code": "20130",
      "country_code": "KE",
      "latitude": -0.4477,
      "longitude": 35.633,
      "admin_name1": "Nakuru"
    },
    {
      "place_name": "Miharati",
      "postal_code": "20301",
      "country_code": "KE",
      "latitude": -0.3996,
      "longitude": 36.4927,
      "admin_name1": "Nyandarua"
    },
    {
      "place_name": "Gakindu",
      "postal_code": "10111",
      "country_code": "KE",
      "latitude": -0.459,
      "longitude": 36.998,
      "admin_name1": "Nyeri"
    },
    {
      "place_name": "Ramula",
      "postal_code": "40142",
      "country_code": "KE",
      "latitude": 0.0011,
      "longitude": 34.5273,
      "admin_name1": "Siaya"
    },
    {
      "place_name": "Usenge",
      "postal_code": "40609",
      "country_code": "KE",
      "latitude": -0.0673,
      "longitude": 34.0566,
      "admin_name1": "Siaya"
    },
    {
      "place_name": "Chumvini",
      "postal_code": "80314",
      "country_code": "KE",
      "latitude": -3.4369,
      "longitude": 38.4157,
      "admin_name1": "Taita Taveta"
    },
    {
      "place_name": "Kapsara",
      "postal_code": "30208",
      "country_code": "KE",
      "latitude": 0.9339,
      "longitude": 35.0194,
      "admin_name1": "Trans Nzoia"
    },
    {
      "place_name": "Ndalat",
      "postal_code": "30123",
      "country_code": "KE",
      "latitude": 0.7343,
      "longitude": 35.1594,
      "admin_name1": "Uasin Gishu"
    },
    {
      "place_name": "Sikinwa",
      "postal_code": "30217",
      "country_code": "KE",
      "latitude": 0.9437,
      "longitude": 34.8458,
      "admin_name1": "Uasin Gishu"
    },
    {
      "place_name": "Ronald Ngala Street",
      "postal_code": "00300",
      "country_code": "KE",
      "latitude": -1.2615,
      "longitude": 36.7903,
      "admin_name1": "Nairobi"
    },
    {
      "place_name": "Nyayo Stadium",
      "postal_code": "00506",
      "country_code": "KE",
      "latitude": -1.3574,
      "longitude": 36.7416,
      "admin_name1": "Nairobi"
    },
    {
      "place_name": "Yaya Towers",
      "postal_code": "00508",
      "country_code": "KE",
      "latitude": -1.3574,
      "longitude": 36.7416,
      "admin_name1": "Nairobi"
    },
    {
      "place_name": "Village Market",
      "postal_code": "00621",
      "country_code": "KE",
      "latitude": -1.2638,
      "longitude": 36.7707,
      "admin_name1": "Nairobi"
    },
    {
      "place_name": "Migioini",
      "postal_code": "01029",
      "country_code": "KE",
      "latitude": -0.9509,
      "longitude": 37.05,
      "admin_name1": "Nairobi"
    },
    {
      "place_name": "Butula",
      "postal_code": "50405",
      "country_code": "KE",
      "latitude": 0.338,
      "longitude": 34.3355,
      "admin_name1": "Busia"
    },
    {
      "place_name": "Matayos",
      "postal_code": "50422",
      "country_code": "KE",
      "latitude": 0.3596,
      "longitude": 34.1701,
      "admin_name1": "Busia"
    },
    {
      "place_name": "Manyatta",
      "postal_code": "60101",
      "country_code": "KE",
      "latitude": -0.5349,
      "longitude": 37.6029,
      "admin_name1": "Embu"
    },
    {
      "place_name": "Kanyuambora",
      "postal_code": "60106",
      "country_code": "KE",
      "latitude": -0.4645,
      "longitude": 37.7206,
      "admin_name1": "Embu"
    },
    {
      "place_name": "Wachoro",
      "postal_code": "60121",
      "country_code": "KE",
      "latitude": -0.4774,
      "longitude": 37.4415,
      "admin_name1": "Embu"
    },
    {
      "place_name": "Bissel",
      "postal_code": "01101",
      "country_code": "KE",
      "latitude": -2.098,
      "longitude": 36.7941,
      "admin_name1": "Kajiado"
    },
    {
      "place_name": "Kakunga",
      "postal_code": "50115",
      "country_code": "KE",
      "latitude": 0.3025,
      "longitude": 34.7234,
      "admin_name1": "Kakamega"
    },
    {
      "place_name": "Samitsi",
      "postal_code": "50128",
      "country_code": "KE",
      "latitude": 0.4626,
      "longitude": 34.7625,
      "admin_name1": "Kakamega"
    },
    {
      "place_name": "Ndenderu",
      "postal_code": "00230",
      "country_code": "KE",
      "latitude": -1.1938,
      "longitude": 36.7463,
      "admin_name1": "Kiambu"
    },
    {
      "place_name": "Katito",
      "postal_code": "40118",
      "country_code": "KE",
      "latitude": -0.2693,
      "longitude": 34.972,
      "admin_name1": "Kisumu"
    },
    {
      "place_name": "Wiyumiririe",
      "postal_code": "20329",
      "country_code": "KE",
      "latitude": -0.0773,
      "longitude": 36.5796,
      "admin_name1": "Laikipia"
    },
    {
      "place_name": "Masii",
      "postal_code": "90101",
      "country_code": "KE",
      "latitude": -1.4613,
      "longitude": 37.4385,
      "admin_name1": "Machakos"
    },
    {
      "place_name": "Uriri",
      "postal_code": "40228",
      "country_code": "KE",
      "latitude": -0.9554,
      "longitude": 34.5119,
      "admin_name1": "Migori"
    },
    {
      "place_name": "Giribe",
      "postal_code": "40407",
      "country_code": "KE",
      "latitude": -1.1017,
      "longitude": 34.2902,
      "admin_name1": "Migori"
    },
    {
      "place_name": "Ranen",
      "postal_code": "40412",
      "country_code": "KE",
      "latitude": -0.8615,
      "longitude": 34.5665,
      "admin_name1": "Migori"
    },
    {
      "place_name": "Maragua",
      "postal_code": "10205",
      "country_code": "KE",
      "latitude": -0.796,
      "longitude": 37.1329,
      "admin_name1": "Murang'A"
    },
    {
      "place_name": "Mbiri",
      "postal_code": "10233",
      "country_code": "KE",
      "latitude": -0.7564,
      "longitude": 37.0889,
      "admin_name1": "Murang'A"
    },
    {
      "place_name": "Kampi Ya Moto",
      "postal_code": "20121",
      "country_code": "KE",
      "latitude": -0.1243,
      "longitude": 35.9396,
      "admin_name1": "Nakuru"
    },
    {
      "place_name": "Kapchorwa",
      "postal_code": "30311",
      "country_code": "KE",
      "latitude": 0.1979,
      "longitude": 35.276,
      "admin_name1": "Nandi"
    },
    {
      "place_name": "Kivaani",
      "postal_code": "90116",
      "country_code": "KE",
      "latitude": -1.2997,
      "longitude": 37.4393,
      "admin_name1": "Narok"
    },
    {
      "place_name": "North-Kinangop",
      "postal_code": "20318",
      "country_code": "KE",
      "latitude": -0.6051,
      "longitude": 36.577,
      "admin_name1": "Nyandarua"
    },
    {
      "place_name": "Nyeri",
      "postal_code": "10100",
      "country_code": "KE",
      "latitude": -0.4201,
      "longitude": 36.9476,
      "admin_name1": "Nyeri"
    },
    {
      "place_name": "Othaya",
      "postal_code": "10106",
      "country_code": "KE",
      "latitude": -0.5465,
      "longitude": 36.9318,
      "admin_name1": "Nyeri"
    },
    {
      "place_name": "Gatugura",
      "postal_code": "10305",
      "country_code": "KE",
      "latitude": -0.5534,
      "longitude": 37.2991,
      "admin_name1": "Nyeri"
    },
    {
      "place_name": "Madiany",
      "postal_code": "40613",
      "country_code": "KE",
      "latitude": -0.2886,
      "longitude": 34.3543,
      "admin_name1": "Siaya"
    },
    {
      "place_name": "Lodwar",
      "postal_code": "30500",
      "country_code": "KE",
      "latitude": 3.1199,
      "longitude": 35.5964,
      "admin_name1": "Turkana"
    },
    {
      "place_name": "Eldoret",
      "postal_code": "30100",
      "country_code": "KE",
      "latitude": 0.5204,
      "longitude": 35.2699,
      "admin_name1": "Uasin Gishu"
    },
    {
      "place_name": "Kimoning",
      "postal_code": "30120",
      "country_code": "KE",
      "latitude": 0.7343,
      "longitude": 35.1594,
      "admin_name1": "Uasin Gishu"
    },
    {
      "place_name": "Khumusalaba",
      "postal_code": "50306",
      "country_code": "KE",
      "latitude": 0.1,
      "longitude": 34.7511,
      "admin_name1": "Vihiga"
    },
    {
      "place_name": "State Law Office-Sheria HSE",
      "postal_code": "00102",
      "country_code": "KE",
      "latitude": -1.2615,
      "longitude": 36.7903,
      "admin_name1": "Nairobi"
    },
    {
      "place_name": "Agenga",
      "postal_code": "40406",
      "country_code": "KE",
      "latitude": -0.936,
      "longitude": 34.4175,
      "admin_name1": "Nairobi"
    },
    {
      "place_name": "Kocholya",
      "postal_code": "50420",
      "country_code": "KE",
      "latitude": 0.4152,
      "longitude": 34.2428,
      "admin_name1": "Nairobi"
    },
    {
      "place_name": "Kiritiri",
      "postal_code": "60113",
      "country_code": "KE",
      "latitude": -0.6877,
      "longitude": 37.648,
      "admin_name1": "Embu"
    },
    {
      "place_name": "Mautuma",
      "postal_code": "50124",
      "country_code": "KE",
      "latitude": 0.3598,
      "longitude": 34.6241,
      "admin_name1": "Kakamega"
    },
    {
      "place_name": "Musanda",
      "postal_code": "50125",
      "country_code": "KE",
      "latitude": 0.2194,
      "longitude": 34.4439,
      "admin_name1": "Kakamega"
    },
    {
      "place_name": "Chesinendet",
      "postal_code": "20217",
      "country_code": "KE",
      "latitude": -0.4776,
      "longitude": 35.1564,
      "admin_name1": "Kericho"
    },
    {
      "place_name": "Wamwangi",
      "postal_code": "01010",
      "country_code": "KE",
      "latitude": -1.0039,
      "longitude": 36.9197,
      "admin_name1": "Kiambu"
    },
    {
      "place_name": "Sagana",
      "postal_code": "10230",
      "country_code": "KE",
      "latitude": -0.6681,
      "longitude": 37.2088,
      "admin_name1": "Kirinyaga"
    },
    {
      "place_name": "Itumbe",
      "postal_code": "40210",
      "country_code": "KE",
      "latitude": -0.7565,
      "longitude": 34.7764,
      "admin_name1": "Kisii"
    },
    {
      "place_name": "Masimba",
      "postal_code": "40215",
      "country_code": "KE",
      "latitude": -0.8608,
      "longitude": 34.9401,
      "admin_name1": "Kisii"
    },
    {
      "place_name": "Kegogi",
      "postal_code": "40515",
      "country_code": "KE",
      "latitude": -0.5483,
      "longitude": 34.8448,
      "admin_name1": "Kisii"
    },
    {
      "place_name": "Magena",
      "postal_code": "40516",
      "country_code": "KE",
      "latitude": -0.6428,
      "longitude": 34.8814,
      "admin_name1": "Kisii"
    },
    {
      "place_name": "Muhoroni",
      "postal_code": "40107",
      "country_code": "KE",
      "latitude": -0.1582,
      "longitude": 35.1965,
      "admin_name1": "Kisumu"
    },
    {
      "place_name": "Kibigori",
      "postal_code": "40119",
      "country_code": "KE",
      "latitude": -0.0773,
      "longitude": 35.0482,
      "admin_name1": "Kisumu"
    },
    {
      "place_name": "Chuluni",
      "postal_code": "90219",
      "country_code": "KE",
      "latitude": -1.4186,
      "longitude": 38.0422,
      "admin_name1": "Kitui"
    },
    {
      "place_name": "Rumuruti",
      "postal_code": "20321",
      "country_code": "KE",
      "latitude": 0.2725,
      "longitude": 36.5381,
      "admin_name1": "Laikipia"
    },
    {
      "place_name": "Witu",
      "postal_code": "80504",
      "country_code": "KE",
      "latitude": -2.3889,
      "longitude": 40.4383,
      "admin_name1": "Lamu"
    },
    {
      "place_name": "Kalamba",
      "postal_code": "90122",
      "country_code": "KE",
      "latitude": -1.8683,
      "longitude": 37.5122,
      "admin_name1": "Makueni"
    },
    {
      "place_name": "Changamwe",
      "postal_code": "80102",
      "country_code": "KE",
      "latitude": -4.0166,
      "longitude": 39.6289,
      "admin_name1": "Mombasa"
    },
    {
      "place_name": "Moi Airport",
      "postal_code": "80115",
      "country_code": "KE",
      "latitude": -3.9204,
      "longitude": 39.6497,
      "admin_name1": "Mombasa"
    },
    {
      "place_name": "Dundori",
      "postal_code": "20118",
      "country_code": "KE",
      "latitude": -0.2519,
      "longitude": 36.2364,
      "admin_name1": "Nakuru"
    },
    {
      "place_name": "Naishi",
      "postal_code": "20142",
      "country_code": "KE",
      "latitude": -0.442,
      "longitude": 36.0434,
      "admin_name1": "Nakuru"
    },
    {
      "place_name": "Leshau",
      "postal_code": "20310",
      "country_code": "KE",
      "latitude": 0.0955,
      "longitude": 36.4779,
      "admin_name1": "Nyandarua"
    },
    {
      "place_name": "Passenga",
      "postal_code": "20311",
      "country_code": "KE",
      "latitude": -0.2029,
      "longitude": 36.3493,
      "admin_name1": "Nyandarua"
    },
    {
      "place_name": "Chogoria",
      "postal_code": "60401",
      "country_code": "KE",
      "latitude": -0.2295,
      "longitude": 37.6273,
      "admin_name1": "Tharaka - Nithi"
    },
    {
      "place_name": "Endebess",
      "postal_code": "30201",
      "country_code": "KE",
      "latitude": 1.0796,
      "longitude": 34.8565,
      "admin_name1": "Trans Nzoia"
    },
    {
      "place_name": "Gambogi",
      "postal_code": "50318",
      "country_code": "KE",
      "latitude": 0.0013,
      "longitude": 34.7397,
      "admin_name1": "Vihiga"
    },
    {
      "place_name": "Tom Mboya Street",
      "postal_code": "00400",
      "country_code": "KE",
      "latitude": -1.2615,
      "longitude": 36.7903,
      "admin_name1": "Nairobi"
    },
    {
      "place_name": "Merigi",
      "postal_code": "20419",
      "country_code": "KE",
      "latitude": -0.7841,
      "longitude": 35.4023,
      "admin_name1": "Bomet"
    },
    {
      "place_name": "Buyofu",
      "postal_code": "50210",
      "country_code": "KE",
      "latitude": 0.5577,
      "longitude": 34.6367,
      "admin_name1": "Bungoma"
    },
    {
      "place_name": "Myanga",
      "postal_code": "50226",
      "country_code": "KE",
      "latitude": 0.5653,
      "longitude": 34.3902,
      "admin_name1": "Bungoma"
    },
    {
      "place_name": "Lukusi",
      "postal_code": "50230",
      "country_code": "KE",
      "latitude": 0.6559,
      "longitude": 34.8149,
      "admin_name1": "Bungoma"
    },
    {
      "place_name": "Funyula",
      "postal_code": "50406",
      "country_code": "KE",
      "latitude": 0.2788,
      "longitude": 34.1187,
      "admin_name1": "Busia"
    },
    {
      "place_name": "Ngong Hills",
      "postal_code": "00208",
      "country_code": "KE",
      "latitude": -1.595,
      "longitude": 36.6506,
      "admin_name1": "Kajiado"
    },
    {
      "place_name": "Khayega",
      "postal_code": "50104",
      "country_code": "KE",
      "latitude": 0.2089,
      "longitude": 34.7708,
      "admin_name1": "Kakamega"
    },
    {
      "place_name": "Lubao",
      "postal_code": "50118",
      "country_code": "KE",
      "latitude": 0.3344,
      "longitude": 34.8131,
      "admin_name1": "Kakamega"
    },
    {
      "place_name": "Kedowa",
      "postal_code": "20220",
      "country_code": "KE",
      "latitude": -0.2207,
      "longitude": 35.5567,
      "admin_name1": "Kericho"
    },
    {
      "place_name": "Gatukuyu",
      "postal_code": "01028",
      "country_code": "KE",
      "latitude": -0.9841,
      "longitude": 36.9652,
      "admin_name1": "Kiambu"
    },
    {
      "place_name": "Marani",
      "postal_code": "40214",
      "country_code": "KE",
      "latitude": -0.5812,
      "longitude": 34.8004,
      "admin_name1": "Kisii"
    },
    {
      "place_name": "Zombe",
      "postal_code": "90213",
      "country_code": "KE",
      "latitude": -1.4507,
      "longitude": 38.2349,
      "admin_name1": "Kitui"
    },
    {
      "place_name": "Nuu",
      "postal_code": "90408",
      "country_code": "KE",
      "latitude": -1.0562,
      "longitude": 38.3611,
      "admin_name1": "Kitui"
    },
    {
      "place_name": "Mutituni",
      "postal_code": "90117",
      "country_code": "KE",
      "latitude": -1.2997,
      "longitude": 37.4393,
      "admin_name1": "Machakos"
    },
    {
      "place_name": "Mavindini",
      "postal_code": "90304",
      "country_code": "KE",
      "latitude": -1.8615,
      "longitude": 37.6597,
      "admin_name1": "Makueni"
    },
    {
      "place_name": "Marsabit",
      "postal_code": "60500",
      "country_code": "KE",
      "latitude": 2.3347,
      "longitude": 37.9909,
      "admin_name1": "Marsabit"
    },
    {
      "place_name": "Migori",
      "postal_code": "40419",
      "country_code": "KE",
      "latitude": -1.0634,
      "longitude": 34.4731,
      "admin_name1": "Migori"
    },
    {
      "place_name": "Mtopanga",
      "postal_code": "80117",
      "country_code": "KE",
      "latitude": -3.9204,
      "longitude": 39.6497,
      "admin_name1": "Mombasa"
    },
    {
      "place_name": "Muranga",
      "postal_code": "10200",
      "country_code": "KE",
      "latitude": -0.721,
      "longitude": 37.1526,
      "admin_name1": "Murang'A"
    },
    {
      "place_name": "Saba-Saba",
      "postal_code": "10208",
      "country_code": "KE",
      "latitude": -0.7383,
      "longitude": 37.0044,
      "admin_name1": "Murang'A"
    },
    {
      "place_name": "Gatara",
      "postal_code": "10212",
      "country_code": "KE",
      "latitude": -0.7353,
      "longitude": 36.8825,
      "admin_name1": "Murang'A"
    },
    {
      "place_name": "Mau Narok",
      "postal_code": "20111",
      "country_code": "KE",
      "latitude": -0.6066,
      "longitude": 36.0084,
      "admin_name1": "Nakuru"
    },
    {
      "place_name": "Ndunyu Njeru",
      "postal_code": "20317",
      "country_code": "KE",
      "latitude": -0.5459,
      "longitude": 36.5618,
      "admin_name1": "Nyandarua"
    },
    {
      "place_name": "Nyadorera",
      "postal_code": "40631",
      "country_code": "KE",
      "latitude": 0.1167,
      "longitude": 34.1,
      "admin_name1": "Siaya"
    },
    {
      "place_name": "Nkondi",
      "postal_code": "60214",
      "country_code": "KE",
      "latitude": -0.0431,
      "longitude": 37.958,
      "admin_name1": "Tharaka - Nithi"
    },
    {
      "place_name": "Marimanti",
      "postal_code": "60215",
      "country_code": "KE",
      "latitude": -0.1546,
      "longitude": 37.9763,
      "admin_name1": "Tharaka - Nithi"
    },
    {
      "place_name": "Chiakariga",
      "postal_code": "60409",
      "country_code": "KE",
      "latitude": -0.2569,
      "longitude": 37.7346,
      "admin_name1": "Tharaka - Nithi"
    },
    {
      "place_name": "Karen",
      "postal_code": "00502",
      "country_code": "KE",
      "latitude": -1.3331,
      "longitude": 36.7162,
      "admin_name1": "Nairobi"
    },
    {
      "place_name": "Makadara",
      "postal_code": "00522",
      "country_code": "KE",
      "latitude": -1.2956,
      "longitude": 36.8719,
      "admin_name1": "Nairobi"
    },
    {
      "place_name": "Kabason",
      "postal_code": "20412",
      "country_code": "KE",
      "latitude": -0.719,
      "longitude": 35.2911,
      "admin_name1": "Bomet"
    },
    {
      "place_name": "Sirisia",
      "postal_code": "50208",
      "country_code": "KE",
      "latitude": 0.7547,
      "longitude": 34.5035,
      "admin_name1": "Bungoma"
    },
    {
      "place_name": "Kabula",
      "postal_code": "50214",
      "country_code": "KE",
      "latitude": 0.4541,
      "longitude": 34.5192,
      "admin_name1": "Bungoma"
    },
    {
      "place_name": "Thigio",
      "postal_code": "00210",
      "country_code": "KE",
      "latitude": -1.19,
      "longitude": 36.7645,
      "admin_name1": "Kajiado"
    },
    {
      "place_name": "Kericho",
      "postal_code": "20200",
      "country_code": "KE",
      "latitude": -0.3677,
      "longitude": 35.2831,
      "admin_name1": "Kericho"
    },
    {
      "place_name": "Kisii",
      "postal_code": "40200",
      "country_code": "KE",
      "latitude": -0.6817,
      "longitude": 34.7667,
      "admin_name1": "Kisii"
    },
    {
      "place_name": "Sondu",
      "postal_code": "40109",
      "country_code": "KE",
      "latitude": -0.112,
      "longitude": 34.8912,
      "admin_name1": "Kisumu"
    },
    {
      "place_name": "Kondik",
      "postal_code": "40121",
      "country_code": "KE",
      "latitude": -0.059,
      "longitude": 34.5205,
      "admin_name1": "Kisumu"
    },
    {
      "place_name": "Mbumbuni",
      "postal_code": "90127",
      "country_code": "KE",
      "latitude": -1.6223,
      "longitude": 37.5618,
      "admin_name1": "Makueni"
    },
    {
      "place_name": "Suna",
      "postal_code": "40400",
      "country_code": "KE",
      "latitude": -1.0964,
      "longitude": 34.4542,
      "admin_name1": "Migori"
    },
    {
      "place_name": "Suba-Kuria",
      "postal_code": "40418",
      "country_code": "KE",
      "latitude": -1.1662,
      "longitude": 34.4452,
      "admin_name1": "Migori"
    },
    {
      "place_name": "Kengeleni",
      "postal_code": "80122",
      "country_code": "KE",
      "latitude": -4.0397,
      "longitude": 39.6804,
      "admin_name1": "Mombasa"
    },
    {
      "place_name": "Kakuzi",
      "postal_code": "01014",
      "country_code": "KE",
      "latitude": -1.0045,
      "longitude": 37.2788,
      "admin_name1": "Murang'A"
    },
    {
      "place_name": "Kamara",
      "postal_code": "20134",
      "country_code": "KE",
      "latitude": -0.4477,
      "longitude": 35.633,
      "admin_name1": "Nakuru"
    },
    {
      "place_name": "Koige",
      "postal_code": "20136",
      "country_code": "KE",
      "latitude": -0.4477,
      "longitude": 35.633,
      "admin_name1": "Nakuru"
    },
    {
      "place_name": "Koilot",
      "postal_code": "30314",
      "country_code": "KE",
      "latitude": 0.1862,
      "longitude": 35.3199,
      "admin_name1": "Nandi"
    },
    {
      "place_name": "Rurii",
      "postal_code": "20313",
      "country_code": "KE",
      "latitude": -0.3146,
      "longitude": 36.4915,
      "admin_name1": "Nyandarua"
    },
    {
      "place_name": "Moiben",
      "postal_code": "30104",
      "country_code": "KE",
      "latitude": 0.8174,
      "longitude": 35.3845,
      "admin_name1": "Uasin Gishu"
    },
    {
      "place_name": "Plateau",
      "postal_code": "30116",
      "country_code": "KE",
      "latitude": 0.3691,
      "longitude": 35.435,
      "admin_name1": "Uasin Gishu"
    },
    {
      "place_name": "Kiplegetet",
      "postal_code": "30117",
      "country_code": "KE",
      "latitude": 0.3691,
      "longitude": 35.435,
      "admin_name1": "Uasin Gishu"
    },
    {
      "place_name": "Maragoli",
      "postal_code": "50300",
      "country_code": "KE",
      "latitude": 0.1111,
      "longitude": 34.7256,
      "admin_name1": "Vihiga"
    },
    {
      "place_name": "Kabartonjo",
      "postal_code": "30401",
      "country_code": "KE",
      "latitude": 0.6303,
      "longitude": 35.7958,
      "admin_name1": "Baringo"
    },
    {
      "place_name": "Huduma Kabarnet",
      "postal_code": "30413",
      "country_code": "KE",
      "latitude": 0.9456,
      "longitude": 35.8862,
      "admin_name1": "Baringo"
    },
    {
      "place_name": "Kapcherany",
      "postal_code": "20413",
      "country_code": "KE",
      "latitude": -0.719,
      "longitude": 35.2911,
      "admin_name1": "Bomet"
    },
    {
      "place_name": "Lwakhakha",
      "postal_code": "50220",
      "country_code": "KE",
      "latitude": 0.5653,
      "longitude": 34.3902,
      "admin_name1": "Bungoma"
    },
    {
      "place_name": "Runyenjes",
      "postal_code": "60103",
      "country_code": "KE",
      "latitude": -0.423,
      "longitude": 37.5704,
      "admin_name1": "Embu"
    },
    {
      "place_name": "Kithimu",
      "postal_code": "60114",
      "country_code": "KE",
      "latitude": -0.5212,
      "longitude": 37.5572,
      "admin_name1": "Embu"
    },
    {
      "place_name": "Kajiado",
      "postal_code": "01100",
      "country_code": "KE",
      "latitude": -1.8524,
      "longitude": 36.7768,
      "admin_name1": "Kajiado"
    },
    {
      "place_name": "Kajiado West",
      "postal_code": "01105",
      "country_code": "KE",
      "latitude": -2.0182,
      "longitude": 36.9001,
      "admin_name1": "Kajiado"
    },
    {
      "place_name": "Isulu",
      "postal_code": "50114",
      "country_code": "KE",
      "latitude": 0.197,
      "longitude": 34.6968,
      "admin_name1": "Kakamega"
    },
    {
      "place_name": "Kiptugumo",
      "postal_code": "20208",
      "country_code": "KE",
      "latitude": -0.3319,
      "longitude": 35.2904,
      "admin_name1": "Kericho"
    },
    {
      "place_name": "Kapsoit",
      "postal_code": "20211",
      "country_code": "KE",
      "latitude": -0.3198,
      "longitude": 35.2185,
      "admin_name1": "Kericho"
    },
    {
      "place_name": "Chepkemel",
      "postal_code": "20216",
      "country_code": "KE",
      "latitude": -0.3758,
      "longitude": 35.0621,
      "admin_name1": "Kericho"
    },
    {
      "place_name": "Limuru",
      "postal_code": "00217",
      "country_code": "KE",
      "latitude": -1.1136,
      "longitude": 36.6421,
      "admin_name1": "Kiambu"
    },
    {
      "place_name": "Muguga",
      "postal_code": "00228",
      "country_code": "KE",
      "latitude": -1.1889,
      "longitude": 36.6688,
      "admin_name1": "Kiambu"
    },
    {
      "place_name": "Ikinu",
      "postal_code": "00904",
      "country_code": "KE",
      "latitude": -1.108,
      "longitude": 36.7916,
      "admin_name1": "Kiambu"
    },
    {
      "place_name": "Thika",
      "postal_code": "01000",
      "country_code": "KE",
      "latitude": -0.989,
      "longitude": 36.9177,
      "admin_name1": "Kiambu"
    },
    {
      "place_name": "Keroka",
      "postal_code": "40202",
      "country_code": "KE",
      "latitude": -0.7983,
      "longitude": 34.7554,
      "admin_name1": "Kisii"
    },
    {
      "place_name": "Otonglo",
      "postal_code": "40108",
      "country_code": "KE",
      "latitude": -0.112,
      "longitude": 34.8912,
      "admin_name1": "Kisumu"
    },
    {
      "place_name": "Daraja Mbili",
      "postal_code": "40117",
      "country_code": "KE",
      "latitude": -0.1272,
      "longitude": 35.0855,
      "admin_name1": "Kisumu"
    },
    {
      "place_name": "Ndooa",
      "postal_code": "90202",
      "country_code": "KE",
      "latitude": -1.2259,
      "longitude": 38.1897,
      "admin_name1": "Kitui"
    },
    {
      "place_name": "Mpeketoni",
      "postal_code": "80503",
      "country_code": "KE",
      "latitude": -2.3891,
      "longitude": 40.6981,
      "admin_name1": "Lamu"
    },
    {
      "place_name": "Kitise",
      "postal_code": "90303",
      "country_code": "KE",
      "latitude": -2.0488,
      "longitude": 37.8756,
      "admin_name1": "Makueni"
    },
    {
      "place_name": "Ntimaru",
      "postal_code": "40417",
      "country_code": "KE",
      "latitude": -1.3406,
      "longitude": 34.6878,
      "admin_name1": "Migori"
    },
    {
      "place_name": "Coast Gen. Hospital",
      "postal_code": "80103",
      "country_code": "KE",
      "latitude": -3.9307,
      "longitude": 39.6985,
      "admin_name1": "Mombasa"
    },
    {
      "place_name": "Gilgil",
      "postal_code": "20116",
      "country_code": "KE",
      "latitude": -0.504,
      "longitude": 36.3184,
      "admin_name1": "Nakuru"
    },
    {
      "place_name": "Elementaita",
      "postal_code": "20119",
      "country_code": "KE",
      "latitude": -0.3729,
      "longitude": 36.1729,
      "admin_name1": "Nakuru"
    },
    {
      "place_name": "Ngorika",
      "postal_code": "20126",
      "country_code": "KE",
      "latitude": -0.1695,
      "longitude": 35.9972,
      "admin_name1": "Nakuru"
    },
    {
      "place_name": "Shabaab",
      "postal_code": "20150",
      "country_code": "KE",
      "latitude": -0.254,
      "longitude": 35.6027,
      "admin_name1": "Nakuru"
    },
    {
      "place_name": "Nyamira",
      "postal_code": "40500",
      "country_code": "KE",
      "latitude": -0.5633,
      "longitude": 34.9358,
      "admin_name1": "Nyamira"
    },
    {
      "place_name": "Magwagwa",
      "postal_code": "40508",
      "country_code": "KE",
      "latitude": -0.4826,
      "longitude": 35.0221,
      "admin_name1": "Nyamira"
    },
    {
      "place_name": "Endarasha",
      "postal_code": "10107",
      "country_code": "KE",
      "latitude": -0.3055,
      "longitude": 36.796,
      "admin_name1": "Nyeri"
    },
    {
      "place_name": "Uranga",
      "postal_code": "40608",
      "country_code": "KE",
      "latitude": 0.0307,
      "longitude": 34.5477,
      "admin_name1": "Siaya"
    },
    {
      "place_name": "Wundanyi",
      "postal_code": "80304",
      "country_code": "KE",
      "latitude": -3.3964,
      "longitude": 38.3573,
      "admin_name1": "Taita Taveta"
    },
    {
      "place_name": "Asembo Bay",
      "postal_code": "40619",
      "country_code": "KE",
      "latitude": -0.0078,
      "longitude": 34.3258,
      "admin_name1": "Trans Nzoia"
    },
    {
      "place_name": "Kipkabus",
      "postal_code": "30103",
      "country_code": "KE",
      "latitude": 0.2987,
      "longitude": 35.4998,
      "admin_name1": "Uasin Gishu"
    },
    {
      "place_name": "Chepterwai",
      "postal_code": "30121",
      "country_code": "KE",
      "latitude": 0.5241,
      "longitude": 34.9263,
      "admin_name1": "Uasin Gishu"
    },
    {
      "place_name": "Kiamwangi",
      "postal_code": "00236",
      "country_code": "KE",
      "latitude": -1.1702,
      "longitude": 36.8536,
      "admin_name1": "Nairobi"
    },
    {
      "place_name": "Langata Hardy",
      "postal_code": "00509",
      "country_code": "KE",
      "latitude": -1.3574,
      "longitude": 36.7416,
      "admin_name1": "Nairobi"
    },
    {
      "place_name": "Ruai",
      "postal_code": "00520",
      "country_code": "KE",
      "latitude": -1.2551,
      "longitude": 36.9275,
      "admin_name1": "Nairobi"
    },
    {
      "place_name": "Westlands",
      "postal_code": "00800",
      "country_code": "KE",
      "latitude": -1.2668,
      "longitude": 36.8081,
      "admin_name1": "Nairobi"
    },
    {
      "place_name": "Gatimbi",
      "postal_code": "60217",
      "country_code": "KE",
      "latitude": -0.1246,
      "longitude": 37.9237,
      "admin_name1": "Nairobi"
    },
    {
      "place_name": "Ndalu",
      "postal_code": "50212",
      "country_code": "KE",
      "latitude": 0.5577,
      "longitude": 34.6367,
      "admin_name1": "Bungoma"
    },
    {
      "place_name": "Port Victoria",
      "postal_code": "50410",
      "country_code": "KE",
      "latitude": 0.0981,
      "longitude": 33.9725,
      "admin_name1": "Busia"
    },
    {
      "place_name": "Nyangweso",
      "postal_code": "40311",
      "country_code": "KE",
      "latitude": -0.479,
      "longitude": 34.5457,
      "admin_name1": "Homa Bay"
    },
    {
      "place_name": "Mfangano",
      "postal_code": "40319",
      "country_code": "KE",
      "latitude": -0.4374,
      "longitude": 34.6582,
      "admin_name1": "Homa Bay"
    },
    {
      "place_name": "Malava",
      "postal_code": "50103",
      "country_code": "KE",
      "latitude": 0.4471,
      "longitude": 34.8539,
      "admin_name1": "Kakamega"
    },
    {
      "place_name": "Bukura",
      "postal_code": "50105",
      "country_code": "KE",
      "latitude": 0.2212,
      "longitude": 34.6227,
      "admin_name1": "Kakamega"
    },
    {
      "place_name": "Kijabe",
      "postal_code": "00220",
      "country_code": "KE",
      "latitude": -1.0563,
      "longitude": 36.6579,
      "admin_name1": "Kiambu"
    },
    {
      "place_name": "Etago",
      "postal_code": "40208",
      "country_code": "KE",
      "latitude": -0.9016,
      "longitude": 34.6613,
      "admin_name1": "Kisii"
    },
    {
      "place_name": "Huduma Nanyuki",
      "postal_code": "10407",
      "country_code": "KE",
      "latitude": 0.0062,
      "longitude": 37.074,
      "admin_name1": "Laikipia"
    },
    {
      "place_name": "Sipili",
      "postal_code": "20326",
      "country_code": "KE",
      "latitude": 0.1206,
      "longitude": 36.4781,
      "admin_name1": "Laikipia"
    },
    {
      "place_name": "Othoro",
      "postal_code": "40224",
      "country_code": "KE",
      "latitude": -0.6463,
      "longitude": 34.7278,
      "admin_name1": "Migori"
    },
    {
      "place_name": "Kambiti",
      "postal_code": "10226",
      "country_code": "KE",
      "latitude": -0.7043,
      "longitude": 36.8438,
      "admin_name1": "Murang'A"
    },
    {
      "place_name": "Maiella",
      "postal_code": "20148",
      "country_code": "KE",
      "latitude": -0.4644,
      "longitude": 36.183,
      "admin_name1": "Nakuru"
    },
    {
      "place_name": "Kesses",
      "postal_code": "30132",
      "country_code": "KE",
      "latitude": 0.3906,
      "longitude": 35.4683,
      "admin_name1": "Nandi"
    },
    {
      "place_name": "Sogoo",
      "postal_code": "20420",
      "country_code": "KE",
      "latitude": -0.8265,
      "longitude": 35.2766,
      "admin_name1": "Narok"
    },
    {
      "place_name": "South-Kinangop",
      "postal_code": "20319",
      "country_code": "KE",
      "latitude": -0.3146,
      "longitude": 36.4915,
      "admin_name1": "Nyandarua"
    },
    {
      "place_name": "Ndigwa",
      "postal_code": "40630",
      "country_code": "KE",
      "latitude": -0.3375,
      "longitude": 34.3257,
      "admin_name1": "Siaya"
    },
    {
      "place_name": "Hawinga",
      "postal_code": "40640",
      "country_code": "KE",
      "latitude": -0.0069,
      "longitude": 34.3068,
      "admin_name1": "Siaya"
    },
    {
      "place_name": "Mwatate",
      "postal_code": "80305",
      "country_code": "KE",
      "latitude": -3.505,
      "longitude": 38.3772,
      "admin_name1": "Taita Taveta"
    },
    {
      "place_name": "Magumoni",
      "postal_code": "60403",
      "country_code": "KE",
      "latitude": -0.2569,
      "longitude": 37.7346,
      "admin_name1": "Tharaka - Nithi"
    },
    {
      "place_name": "Uthiru",
      "postal_code": "00605",
      "country_code": "KE",
      "latitude": -1.2555,
      "longitude": 36.7951,
      "admin_name1": "Nairobi"
    },
    {
      "place_name": "Maji Mazuri",
      "postal_code": "20145",
      "country_code": "KE",
      "latitude": -0.0197,
      "longitude": 35.6914,
      "admin_name1": "Baringo"
    },
    {
      "place_name": "Bartolimo",
      "postal_code": "30408",
      "country_code": "KE",
      "latitude": 0.6833,
      "longitude": 35.819,
      "admin_name1": "Baringo"
    },
    {
      "place_name": "Kipsaraman",
      "postal_code": "30411",
      "country_code": "KE",
      "latitude": 0.9456,
      "longitude": 35.8862,
      "admin_name1": "Baringo"
    },
    {
      "place_name": "Bukembe",
      "postal_code": "50233",
      "country_code": "KE",
      "latitude": 0.612,
      "longitude": 34.6561,
      "admin_name1": "Bungoma"
    },
    {
      "place_name": "Adungosi",
      "postal_code": "50413",
      "country_code": "KE",
      "latitude": 0.2289,
      "longitude": 34.1536,
      "admin_name1": "Busia"
    },
    {
      "place_name": "Karurumo",
      "postal_code": "60117",
      "country_code": "KE",
      "latitude": -0.469,
      "longitude": 37.6524,
      "admin_name1": "Embu"
    },
    {
      "place_name": "Masalani",
      "postal_code": "70105",
      "country_code": "KE",
      "latitude": -0.6276,
      "longitude": 39.996,
      "admin_name1": "Garissa"
    },
    {
      "place_name": "Ndhiwa",
      "postal_code": "40302",
      "country_code": "KE",
      "latitude": -0.7315,
      "longitude": 34.3679,
      "admin_name1": "Homa Bay"
    },
    {
      "place_name": "Mawego",
      "postal_code": "40310",
      "country_code": "KE",
      "latitude": -0.3957,
      "longitude": 34.7707,
      "admin_name1": "Homa Bay"
    },
    {
      "place_name": "Igare",
      "postal_code": "40209",
      "country_code": "KE",
      "latitude": -0.8051,
      "longitude": 34.8049,
      "admin_name1": "Kisii"
    },
    {
      "place_name": "Msambweni",
      "postal_code": "80404",
      "country_code": "KE",
      "latitude": -4.4619,
      "longitude": 39.4826,
      "admin_name1": "Kwale"
    },
    {
      "place_name": "Mochogoini",
      "postal_code": "20312",
      "country_code": "KE",
      "latitude": -0.3146,
      "longitude": 36.4915,
      "admin_name1": "Laikipia"
    },
    {
      "place_name": "Kiriua",
      "postal_code": "01017",
      "country_code": "KE",
      "latitude": -0.9784,
      "longitude": 37.02,
      "admin_name1": "Meru"
    },
    {
      "place_name": "Isinya",
      "postal_code": "01102",
      "country_code": "KE",
      "latitude": -2.0182,
      "longitude": 36.9001,
      "admin_name1": "Migori"
    },
    {
      "place_name": "Dede",
      "postal_code": "40331",
      "country_code": "KE",
      "latitude": -0.8169,
      "longitude": 34.5326,
      "admin_name1": "Migori"
    },
    {
      "place_name": "Bamburi",
      "postal_code": "80101",
      "country_code": "KE",
      "latitude": -4.0,
      "longitude": 39.7167,
      "admin_name1": "Mombasa"
    },
    {
      "place_name": "Timber Mills",
      "postal_code": "20110",
      "country_code": "KE",
      "latitude": -0.3729,
      "longitude": 36.1729,
      "admin_name1": "Nakuru"
    },
    {
      "place_name": "Kabazi",
      "postal_code": "20114",
      "country_code": "KE",
      "latitude": -0.078,
      "longitude": 36.1704,
      "admin_name1": "Nakuru"
    },
    {
      "place_name": "Kuresoi",
      "postal_code": "20154",
      "country_code": "KE",
      "latitude": -0.3009,
      "longitude": 35.5217,
      "admin_name1": "Nakuru"
    },
    {
      "place_name": "Tumu-Tumu",
      "postal_code": "10136",
      "country_code": "KE",
      "latitude": -0.4904,
      "longitude": 37.081,
      "admin_name1": "Nyeri"
    },
    {
      "place_name": "Kimathi Way",
      "postal_code": "10140",
      "country_code": "KE",
      "latitude": -0.4104,
      "longitude": 36.9767,
      "admin_name1": "Nyeri"
    },
    {
      "place_name": "Kamakwa Rd Huduma",
      "postal_code": "10142",
      "country_code": "KE",
      "latitude": -0.4104,
      "longitude": 36.9767,
      "admin_name1": "Nyeri"
    },
    {
      "place_name": "Dedan Kimathi",
      "postal_code": "10143",
      "country_code": "KE",
      "latitude": -0.4104,
      "longitude": 36.9767,
      "admin_name1": "Nyeri"
    },
    {
      "place_name": "Baragoi",
      "postal_code": "20601",
      "country_code": "KE",
      "latitude": 1.784,
      "longitude": 36.786,
      "admin_name1": "Samburu"
    },
    {
      "place_name": "Luandanyi",
      "postal_code": "50219",
      "country_code": "KE",
      "latitude": 0.5577,
      "longitude": 34.6367,
      "admin_name1": "Taita Taveta"
    },
    {
      "place_name": "Tarasaa",
      "postal_code": "80203",
      "country_code": "KE",
      "latitude": -2.4419,
      "longitude": 40.1708,
      "admin_name1": "Tana River"
    },
    {
      "place_name": "Kitale",
      "postal_code": "30200",
      "country_code": "KE",
      "latitude": 1.0157,
      "longitude": 35.0062,
      "admin_name1": "Trans Nzoia"
    },
    {
      "place_name": "Moi University",
      "postal_code": "30107",
      "country_code": "KE",
      "latitude": 0.4637,
      "longitude": 35.3318,
      "admin_name1": "Uasin Gishu"
    },
    {
      "place_name": "Kapngetuny",
      "postal_code": "30111",
      "country_code": "KE",
      "latitude": 0.3691,
      "longitude": 35.435,
      "admin_name1": "Uasin Gishu"
    },
    {
      "place_name": "Barwesa",
      "postal_code": "30412",
      "country_code": "KE",
      "latitude": 0.7167,
      "longitude": 35.7333,
      "admin_name1": "Uasin Gishu"
    },
    {
      "place_name": "Karatu",
      "postal_code": "00233",
      "country_code": "KE",
      "latitude": -1.1702,
      "longitude": 36.8536,
      "admin_name1": "Nairobi"
    },
    {
      "place_name": "Riruta",
      "postal_code": "00512",
      "country_code": "KE",
      "latitude": -1.2863,
      "longitude": 36.7404,
      "admin_name1": "Nairobi"
    },
    {
      "place_name": "Dandora",
      "postal_code": "00516",
      "country_code": "KE",
      "latitude": -1.2574,
      "longitude": 36.9036,
      "admin_name1": "Nairobi"
    },
    {
      "place_name": "Gigiri",
      "postal_code": "00601",
      "country_code": "KE",
      "latitude": -1.2326,
      "longitude": 36.8153,
      "admin_name1": "Nairobi"
    },
    {
      "place_name": "Lavington",
      "postal_code": "00603",
      "country_code": "KE",
      "latitude": -1.2784,
      "longitude": 36.7749,
      "admin_name1": "Nairobi"
    },
    {
      "place_name": "Kakibora",
      "postal_code": "30216",
      "country_code": "KE",
      "latitude": 0.9437,
      "longitude": 34.8458,
      "admin_name1": "Nairobi"
    },
    {
      "place_name": "Mudhiero",
      "postal_code": "40629",
      "country_code": "KE",
      "latitude": -0.0173,
      "longitude": 34.3346,
      "admin_name1": "Nairobi"
    },
    {
      "place_name": "Kapkoros",
      "postal_code": "20415",
      "country_code": "KE",
      "latitude": -0.662,
      "longitude": 35.3121,
      "admin_name1": "Bomet"
    },
    {
      "place_name": "Webuye",
      "postal_code": "50205",
      "country_code": "KE",
      "latitude": 0.6004,
      "longitude": 34.7712,
      "admin_name1": "Bungoma"
    },
    {
      "place_name": "Malakisi",
      "postal_code": "50209",
      "country_code": "KE",
      "latitude": 0.6769,
      "longitude": 34.4217,
      "admin_name1": "Bungoma"
    },
    {
      "place_name": "Karaba",
      "postal_code": "60105",
      "country_code": "KE",
      "latitude": -0.75,
      "longitude": 37.4167,
      "admin_name1": "Embu"
    },
    {
      "place_name": "Kyeni",
      "postal_code": "90209",
      "country_code": "KE",
      "latitude": -0.4122,
      "longitude": 37.5856,
      "admin_name1": "Embu"
    },
    {
      "place_name": "Oyugis",
      "postal_code": "40222",
      "country_code": "KE",
      "latitude": -0.5097,
      "longitude": 34.7307,
      "admin_name1": "Homa Bay"
    },
    {
      "place_name": "Sindo",
      "postal_code": "40308",
      "country_code": "KE",
      "latitude": -0.5406,
      "longitude": 34.1689,
      "admin_name1": "Homa Bay"
    },
    {
      "place_name": "Mashuru",
      "postal_code": "01103",
      "country_code": "KE",
      "latitude": -2.1043,
      "longitude": 37.1294,
      "admin_name1": "Kajiado"
    },
    {
      "place_name": "Shinyalu",
      "postal_code": "50107",
      "country_code": "KE",
      "latitude": 0.224,
      "longitude": 34.8081,
      "admin_name1": "Kakamega"
    },
    {
      "place_name": "Kambiri",
      "postal_code": "50116",
      "country_code": "KE",
      "latitude": 0.373,
      "longitude": 34.9107,
      "admin_name1": "Kakamega"
    },
    {
      "place_name": "Magada",
      "postal_code": "50321",
      "country_code": "KE",
      "latitude": 0.0821,
      "longitude": 34.7362,
      "admin_name1": "Kakamega"
    },
    {
      "place_name": "Sigowet",
      "postal_code": "20212",
      "country_code": "KE",
      "latitude": -0.4776,
      "longitude": 35.1564,
      "admin_name1": "Kericho"
    },
    {
      "place_name": "Ngecha",
      "postal_code": "00218",
      "country_code": "KE",
      "latitude": -1.17,
      "longitude": 36.6689,
      "admin_name1": "Kiambu"
    },
    {
      "place_name": "Watamu",
      "postal_code": "80202",
      "country_code": "KE",
      "latitude": -3.3533,
      "longitude": 40.0209,
      "admin_name1": "Kilifi"
    },
    {
      "place_name": "Ngomeni",
      "postal_code": "80212",
      "country_code": "KE",
      "latitude": -2.9983,
      "longitude": 40.1881,
      "admin_name1": "Kilifi"
    },
    {
      "place_name": "Kiamutugu",
      "postal_code": "10309",
      "country_code": "KE",
      "latitude": -0.4672,
      "longitude": 37.3905,
      "admin_name1": "Kirinyaga"
    },
    {
      "place_name": "Kimbimbi",
      "postal_code": "10310",
      "country_code": "KE",
      "latitude": -0.6223,
      "longitude": 37.3648,
      "admin_name1": "Kirinyaga"
    },
    {
      "place_name": "Nyamarambe",
      "postal_code": "40206",
      "country_code": "KE",
      "latitude": -0.7934,
      "longitude": 34.6436,
      "admin_name1": "Kisii"
    },
    {
      "place_name": "Muhotetu",
      "postal_code": "20323",
      "country_code": "KE",
      "latitude": 0.1206,
      "longitude": 36.4781,
      "admin_name1": "Laikipia"
    },
    {
      "place_name": "Tabani",
      "postal_code": "50238",
      "country_code": "KE",
      "latitude": 0.7183,
      "longitude": 34.7465,
      "admin_name1": "Nakuru"
    },
    {
      "place_name": "Giakanja",
      "postal_code": "10108",
      "country_code": "KE",
      "latitude": -0.4334,
      "longitude": 36.9641,
      "admin_name1": "Nyeri"
    },
    {
      "place_name": "Kimahuri",
      "postal_code": "10125",
      "country_code": "KE",
      "latitude": -0.2926,
      "longitude": 37.1123,
      "admin_name1": "Nyeri"
    },
    {
      "place_name": "Ngâ€™Iya",
      "postal_code": "40603",
      "country_code": "KE",
      "latitude": 0.0135,
      "longitude": 34.3055,
      "admin_name1": "Siaya"
    },
    {
      "place_name": "Hola",
      "postal_code": "70101",
      "country_code": "KE",
      "latitude": -1.4826,
      "longitude": 40.0334,
      "admin_name1": "Tana River"
    },
    {
      "place_name": "Eldoret Airport",
      "postal_code": "30124",
      "country_code": "KE",
      "latitude": 0.7343,
      "longitude": 35.1594,
      "admin_name1": "Uasin Gishu"
    },
    {
      "place_name": "Zion Mall",
      "postal_code": "30134",
      "country_code": "KE",
      "latitude": 0.3906,
      "longitude": 35.4683,
      "admin_name1": "Uasin Gishu"
    },
    {
      "place_name": "Nairobi Gpo",
      "postal_code": "00100",
      "country_code": "KE",
      "latitude": -1.2615,
      "longitude": 36.7903,
      "admin_name1": "Nairobi"
    },
    {
      "place_name": "Highridge",
      "postal_code": "00612",
      "country_code": "KE",
      "latitude": -1.2547,
      "longitude": 36.8176,
      "admin_name1": "Nairobi"
    },
    {
      "place_name": "Bunyore",
      "postal_code": "50301",
      "country_code": "KE",
      "latitude": 0.1,
      "longitude": 34.7511,
      "admin_name1": "Nairobi"
    },
    {
      "place_name": "Mulango",
      "postal_code": "90216",
      "country_code": "KE",
      "latitude": -1.4884,
      "longitude": 38.1367,
      "admin_name1": "Nairobi"
    },
    {
      "place_name": "Ndanai",
      "postal_code": "20404",
      "country_code": "KE",
      "latitude": -0.8395,
      "longitude": 35.0954,
      "admin_name1": "Bomet"
    },
    {
      "place_name": "Kapkesosio",
      "postal_code": "20414",
      "country_code": "KE",
      "latitude": -0.719,
      "longitude": 35.2911,
      "admin_name1": "Bomet"
    },
    {
      "place_name": "Amalo (Formerly Oloomirani)",
      "postal_code": "20424",
      "country_code": "KE",
      "latitude": -0.8265,
      "longitude": 35.2766,
      "admin_name1": "Bomet"
    },
    {
      "place_name": "Mubwayo",
      "postal_code": "50423",
      "country_code": "KE",
      "latitude": 0.4152,
      "longitude": 34.2428,
      "admin_name1": "Busia"
    },
    {
      "place_name": "Sabatia",
      "postal_code": "20143",
      "country_code": "KE",
      "latitude": -0.4644,
      "longitude": 36.183,
      "admin_name1": "Kakamega"
    },
    {
      "place_name": "Kakamega",
      "postal_code": "50100",
      "country_code": "KE",
      "latitude": 0.2842,
      "longitude": 34.7523,
      "admin_name1": "Kakamega"
    },
    {
      "place_name": "Lumakanda",
      "postal_code": "50242",
      "country_code": "KE",
      "latitude": 0.6152,
      "longitude": 34.7134,
      "admin_name1": "Kakamega"
    },
    {
      "place_name": "Jebrok",
      "postal_code": "50319",
      "country_code": "KE",
      "latitude": 0.0571,
      "longitude": 34.7154,
      "admin_name1": "Kakamega"
    },
    {
      "place_name": "Sosiot",
      "postal_code": "20205",
      "country_code": "KE",
      "latitude": -0.3629,
      "longitude": 35.1718,
      "admin_name1": "Kericho"
    },
    {
      "place_name": "Kakoneni",
      "postal_code": "80209",
      "country_code": "KE",
      "latitude": -3.1699,
      "longitude": 39.8627,
      "admin_name1": "Kilifi"
    },
    {
      "place_name": "Kagio",
      "postal_code": "10306",
      "country_code": "KE",
      "latitude": -0.6248,
      "longitude": 37.2555,
      "admin_name1": "Kirinyaga"
    },
    {
      "place_name": "Kibigoti",
      "postal_code": "10311",
      "country_code": "KE",
      "latitude": -0.5266,
      "longitude": 37.3375,
      "admin_name1": "Kisumu"
    },
    {
      "place_name": "Pap-Onditi",
      "postal_code": "40111",
      "country_code": "KE",
      "latitude": -0.1272,
      "longitude": 35.0855,
      "admin_name1": "Kisumu"
    },
    {
      "place_name": "Winam (Kisumu Gpo Extn.)",
      "postal_code": "40141",
      "country_code": "KE",
      "latitude": -0.0235,
      "longitude": 34.793,
      "admin_name1": "Kisumu"
    },
    {
      "place_name": "Kathiani",
      "postal_code": "90105",
      "country_code": "KE",
      "latitude": -1.4664,
      "longitude": 37.3203,
      "admin_name1": "Machakos"
    },
    {
      "place_name": "Kilala",
      "postal_code": "90305",
      "country_code": "KE",
      "latitude": -1.7706,
      "longitude": 37.5543,
      "admin_name1": "Makueni"
    },
    {
      "place_name": "Laisamis",
      "postal_code": "60502",
      "country_code": "KE",
      "latitude": 1.5932,
      "longitude": 37.8059,
      "admin_name1": "Marsabit"
    },
    {
      "place_name": "Kiriaini",
      "postal_code": "10204",
      "country_code": "KE",
      "latitude": -0.8792,
      "longitude": 36.8874,
      "admin_name1": "Murang'A"
    },
    {
      "place_name": "Solai",
      "postal_code": "20128",
      "country_code": "KE",
      "latitude": -0.055,
      "longitude": 36.1275,
      "admin_name1": "Nakuru"
    },
    {
      "place_name": "Kirengeti",
      "postal_code": "20131",
      "country_code": "KE",
      "latitude": -0.4676,
      "longitude": 35.6819,
      "admin_name1": "Nakuru"
    },
    {
      "place_name": "Maai Mahiu",
      "postal_code": "20147",
      "country_code": "KE",
      "latitude": -0.9885,
      "longitude": 36.5854,
      "admin_name1": "Nakuru"
    },
    {
      "place_name": "Nandi Hills",
      "postal_code": "30301",
      "country_code": "KE",
      "latitude": 0.1037,
      "longitude": 35.1843,
      "admin_name1": "Nandi"
    },
    {
      "place_name": "Lessos",
      "postal_code": "30302",
      "country_code": "KE",
      "latitude": 0.2141,
      "longitude": 35.3,
      "admin_name1": "Nandi"
    },
    {
      "place_name": "Olkurto",
      "postal_code": "20502",
      "country_code": "KE",
      "latitude": -1.334,
      "longitude": 35.5532,
      "admin_name1": "Narok"
    },
    {
      "place_name": "Nyawara",
      "postal_code": "40633",
      "country_code": "KE",
      "latitude": 0.098,
      "longitude": 34.4669,
      "admin_name1": "Siaya"
    },
    {
      "place_name": "Marima",
      "postal_code": "60408",
      "country_code": "KE",
      "latitude": -0.2667,
      "longitude": 37.6667,
      "admin_name1": "Tharaka - Nithi"
    },
    {
      "place_name": "Lokichoggio",
      "postal_code": "30503",
      "country_code": "KE",
      "latitude": 3.4515,
      "longitude": 35.4289,
      "admin_name1": "Turkana"
    },
    {
      "place_name": "Lokitaung",
      "postal_code": "30504",
      "country_code": "KE",
      "latitude": 3.4515,
      "longitude": 35.4289,
      "admin_name1": "Turkana"
    },
    {
      "place_name": "Chebororwa",
      "postal_code": "30125",
      "country_code": "KE",
      "latitude": 0.9446,
      "longitude": 35.3925,
      "admin_name1": "Uasin Gishu"
    },
    {
      "place_name": "Kapteren",
      "postal_code": "30711",
      "country_code": "KE",
      "latitude": 0.5626,
      "longitude": 35.4792,
      "admin_name1": "Uasin Gishu"
    },
    {
      "place_name": "Kiritu",
      "postal_code": "50313",
      "country_code": "KE",
      "latitude": 0.0926,
      "longitude": 34.767,
      "admin_name1": "Vihiga"
    },
    {
      "place_name": "Mundoro",
      "postal_code": "00235",
      "country_code": "KE",
      "latitude": -1.1702,
      "longitude": 36.8536,
      "admin_name1": "Nairobi"
    },
    {
      "place_name": "Makongeni",
      "postal_code": "00510",
      "country_code": "KE",
      "latitude": -1.2973,
      "longitude": 36.8494,
      "admin_name1": "Nairobi"
    },
    {
      "place_name": "Kibera",
      "postal_code": "00523",
      "country_code": "KE",
      "latitude": -1.3094,
      "longitude": 36.78,
      "admin_name1": "Nairobi"
    },
    {
      "place_name": "Tongaren",
      "postal_code": "30218",
      "country_code": "KE",
      "latitude": 0.9437,
      "longitude": 34.8458,
      "admin_name1": "Bungoma"
    },
    {
      "place_name": "Bar Ober",
      "postal_code": "50411",
      "country_code": "KE",
      "latitude": 0.2289,
      "longitude": 34.1536,
      "admin_name1": "Busia"
    },
    {
      "place_name": "Lukolis",
      "postal_code": "50421",
      "country_code": "KE",
      "latitude": 0.4152,
      "longitude": 34.2428,
      "admin_name1": "Busia"
    },
    {
      "place_name": "Mirogi",
      "postal_code": "40320",
      "country_code": "KE",
      "latitude": -0.6995,
      "longitude": 34.3858,
      "admin_name1": "Homa Bay"
    },
    {
      "place_name": "Ongata Rongai",
      "postal_code": "00511",
      "country_code": "KE",
      "latitude": -1.3953,
      "longitude": 36.764,
      "admin_name1": "Kajiado"
    },
    {
      "place_name": "Shianda",
      "postal_code": "50106",
      "country_code": "KE",
      "latitude": 0.3194,
      "longitude": 34.5735,
      "admin_name1": "Kakamega"
    },
    {
      "place_name": "Bulimbo",
      "postal_code": "50109",
      "country_code": "KE",
      "latitude": 0.4367,
      "longitude": 34.5137,
      "admin_name1": "Kakamega"
    },
    {
      "place_name": "Lutasa",
      "postal_code": "50121",
      "country_code": "KE",
      "latitude": 0.3598,
      "longitude": 34.6241,
      "admin_name1": "Kakamega"
    },
    {
      "place_name": "Kabianga",
      "postal_code": "20201",
      "country_code": "KE",
      "latitude": -0.444,
      "longitude": 35.1366,
      "admin_name1": "Kericho"
    },
    {
      "place_name": "Kiambu",
      "postal_code": "00900",
      "country_code": "KE",
      "latitude": -1.1714,
      "longitude": 36.8356,
      "admin_name1": "Kiambu"
    },
    {
      "place_name": "Kanyoni",
      "postal_code": "01011",
      "country_code": "KE",
      "latitude": -0.927,
      "longitude": 36.8614,
      "admin_name1": "Kiambu"
    },
    {
      "place_name": "Ithanga",
      "postal_code": "01015",
      "country_code": "KE",
      "latitude": -0.9784,
      "longitude": 37.02,
      "admin_name1": "Kiambu"
    },
    {
      "place_name": "Gesusu",
      "postal_code": "40201",
      "country_code": "KE",
      "latitude": -0.8704,
      "longitude": 34.9055,
      "admin_name1": "Kisii"
    },
    {
      "place_name": "Nyambunwa",
      "postal_code": "40205",
      "country_code": "KE",
      "latitude": -0.6778,
      "longitude": 34.7072,
      "admin_name1": "Kisii"
    },
    {
      "place_name": "Kenyenya",
      "postal_code": "40211",
      "country_code": "KE",
      "latitude": -0.8875,
      "longitude": 34.732,
      "admin_name1": "Kisii"
    },
    {
      "place_name": "Nyaramba",
      "postal_code": "40514",
      "country_code": "KE",
      "latitude": -0.6428,
      "longitude": 34.8814,
      "admin_name1": "Kisii"
    },
    {
      "place_name": "Kombewa",
      "postal_code": "40102",
      "country_code": "KE",
      "latitude": -0.1034,
      "longitude": 34.5179,
      "admin_name1": "Kisumu"
    },
    {
      "place_name": "Kabati",
      "postal_code": "90205",
      "country_code": "KE",
      "latitude": -1.234,
      "longitude": 37.9157,
      "admin_name1": "Kitui"
    },
    {
      "place_name": "Shimoni",
      "postal_code": "80409",
      "country_code": "KE",
      "latitude": -4.6476,
      "longitude": 39.3817,
      "admin_name1": "Kwale"
    },
    {
      "place_name": "Daystar",
      "postal_code": "90145",
      "country_code": "KE",
      "latitude": -1.8179,
      "longitude": 37.5371,
      "admin_name1": "Machakos"
    },
    {
      "place_name": "Miu",
      "postal_code": "90112",
      "country_code": "KE",
      "latitude": -1.2997,
      "longitude": 37.4393,
      "admin_name1": "Makueni"
    },
    {
      "place_name": "Mandera",
      "postal_code": "70300",
      "country_code": "KE",
      "latitude": 3.9373,
      "longitude": 41.8569,
      "admin_name1": "Mandera"
    },
    {
      "place_name": "Githongo",
      "postal_code": "60205",
      "country_code": "KE",
      "latitude": -0.0037,
      "longitude": 37.5921,
      "admin_name1": "Meru"
    },
    {
      "place_name": "Kanamai",
      "postal_code": "80123",
      "country_code": "KE",
      "latitude": -3.9172,
      "longitude": 39.472,
      "admin_name1": "Mombasa"
    },
    {
      "place_name": "Kariua",
      "postal_code": "10231",
      "country_code": "KE",
      "latitude": -0.8447,
      "longitude": 36.9691,
      "admin_name1": "Murang'A"
    },
    {
      "place_name": "Kapsumbeiwa",
      "postal_code": "30313",
      "country_code": "KE",
      "latitude": 0.1979,
      "longitude": 35.276,
      "admin_name1": "Nandi"
    },
    {
      "place_name": "Mukurweini",
      "postal_code": "10103",
      "country_code": "KE",
      "latitude": -0.5612,
      "longitude": 37.0447,
      "admin_name1": "Nyeri"
    },
    {
      "place_name": "Magutuni",
      "postal_code": "60407",
      "country_code": "KE",
      "latitude": -0.2299,
      "longitude": 37.7358,
      "admin_name1": "Tharaka - Nithi"
    },
    {
      "place_name": "Suwerwa",
      "postal_code": "30212",
      "country_code": "KE",
      "latitude": 0.9437,
      "longitude": 34.8458,
      "admin_name1": "Trans Nzoia"
    },
    {
      "place_name": "Sirende",
      "postal_code": "30213",
      "country_code": "KE",
      "latitude": 0.7217,
      "longitude": 34.7005,
      "admin_name1": "Trans Nzoia"
    },
    {
      "place_name": "Nyaru",
      "postal_code": "30131",
      "country_code": "KE",
      "latitude": 0.327,
      "longitude": 35.5768,
      "admin_name1": "Uasin Gishu"
    },
    {
      "place_name": "Kilingili",
      "postal_code": "50315",
      "country_code": "KE",
      "latitude": 0.0571,
      "longitude": 34.7154,
      "admin_name1": "Vihiga"
    },
    {
      "place_name": "Wei-Wei",
      "postal_code": "30603",
      "country_code": "KE",
      "latitude": 1.4474,
      "longitude": 35.2381,
      "admin_name1": "West Pokot"
    },
    {
      "place_name": "Kiplelji",
      "postal_code": "20416",
      "country_code": "KE",
      "latitude": -0.7386,
      "longitude": 35.2512,
      "admin_name1": "Bomet"
    },
    {
      "place_name": "Misikhu",
      "postal_code": "50207",
      "country_code": "KE",
      "latitude": 0.7166,
      "longitude": 34.756,
      "admin_name1": "Bungoma"
    },
    {
      "place_name": "Kaptama",
      "postal_code": "50234",
      "country_code": "KE",
      "latitude": 0.8868,
      "longitude": 34.7686,
      "admin_name1": "Bungoma"
    },
    {
      "place_name": "Bumala",
      "postal_code": "50404",
      "country_code": "KE",
      "latitude": 0.3043,
      "longitude": 34.2015,
      "admin_name1": "Busia"
    },
    {
      "place_name": "Kibugu",
      "postal_code": "60112",
      "country_code": "KE",
      "latitude": -0.4446,
      "longitude": 37.435,
      "admin_name1": "Embu"
    },
    {
      "place_name": "Mbita",
      "postal_code": "40305",
      "country_code": "KE",
      "latitude": -0.4249,
      "longitude": 34.2074,
      "admin_name1": "Homa Bay"
    },
    {
      "place_name": "Ileho",
      "postal_code": "50111",
      "country_code": "KE",
      "latitude": 0.2509,
      "longitude": 34.9426,
      "admin_name1": "Kakamega"
    },
    {
      "place_name": "Luandeti",
      "postal_code": "50240",
      "country_code": "KE",
      "latitude": 0.6065,
      "longitude": 34.8473,
      "admin_name1": "Kakamega"
    },
    {
      "place_name": "Mago",
      "postal_code": "50325",
      "country_code": "KE",
      "latitude": 0.0821,
      "longitude": 34.7362,
      "admin_name1": "Kakamega"
    },
    {
      "place_name": "Fort Ternan",
      "postal_code": "20209",
      "country_code": "KE",
      "latitude": -0.2047,
      "longitude": 35.3431,
      "admin_name1": "Kericho"
    },
    {
      "place_name": "Cheborge",
      "postal_code": "20215",
      "country_code": "KE",
      "latitude": -0.5789,
      "longitude": 35.1442,
      "admin_name1": "Kericho"
    },
    {
      "place_name": "Kenyatta University",
      "postal_code": "00609",
      "country_code": "KE",
      "latitude": -1.2555,
      "longitude": 36.7951,
      "admin_name1": "Kiambu"
    },
    {
      "place_name": "Vipingo",
      "postal_code": "80119",
      "country_code": "KE",
      "latitude": -3.8147,
      "longitude": 39.8128,
      "admin_name1": "Kilifi"
    },
    {
      "place_name": "Huduma Kerugoya",
      "postal_code": "10311",
      "country_code": "KE",
      "latitude": -0.5266,
      "longitude": 37.3375,
      "admin_name1": "Kirinyaga"
    },
    {
      "place_name": "Nyamache",
      "postal_code": "40203",
      "country_code": "KE",
      "latitude": -0.8551,
      "longitude": 34.8285,
      "admin_name1": "Kisii"
    },
    {
      "place_name": "Kisumu",
      "postal_code": "40100",
      "country_code": "KE",
      "latitude": -0.1022,
      "longitude": 34.7617,
      "admin_name1": "Kisumu"
    },
    {
      "place_name": "Koru",
      "postal_code": "40104",
      "country_code": "KE",
      "latitude": -0.1811,
      "longitude": 35.2656,
      "admin_name1": "Kisumu"
    },
    {
      "place_name": "Nyangori",
      "postal_code": "40127",
      "country_code": "KE",
      "latitude": -0.2038,
      "longitude": 34.8578,
      "admin_name1": "Kisumu"
    },
    {
      "place_name": "Mairo Inya",
      "postal_code": "20314",
      "country_code": "KE",
      "latitude": -0.3146,
      "longitude": 36.4915,
      "admin_name1": "Laikipia"
    },
    {
      "place_name": "Marmanet",
      "postal_code": "20322",
      "country_code": "KE",
      "latitude": 0.1667,
      "longitude": 36.3167,
      "admin_name1": "Laikipia"
    },
    {
      "place_name": "Sololo",
      "postal_code": "60701",
      "country_code": "KE",
      "latitude": 3.5266,
      "longitude": 39.0561,
      "admin_name1": "Marsabit"
    },
    {
      "place_name": "Kegonga",
      "postal_code": "40416",
      "country_code": "KE",
      "latitude": -1.262,
      "longitude": 34.6535,
      "admin_name1": "Migori"
    },
    {
      "place_name": "Kilindini",
      "postal_code": "80107",
      "country_code": "KE",
      "latitude": -4.0597,
      "longitude": 39.6503,
      "admin_name1": "Mombasa"
    },
    {
      "place_name": "Ndaragwa",
      "postal_code": "20306",
      "country_code": "KE",
      "latitude": -0.0636,
      "longitude": 36.5243,
      "admin_name1": "Nyandarua"
    },
    {
      "place_name": "Karatina University",
      "postal_code": "10144",
      "country_code": "KE",
      "latitude": -0.4104,
      "longitude": 36.9767,
      "admin_name1": "Nyeri"
    },
    {
      "place_name": "Maralal",
      "postal_code": "20600",
      "country_code": "KE",
      "latitude": 1.0967,
      "longitude": 36.6981,
      "admin_name1": "Samburu"
    },
    {
      "place_name": "Sawagongo",
      "postal_code": "40612",
      "country_code": "KE",
      "latitude": -0.0078,
      "longitude": 34.3258,
      "admin_name1": "Siaya"
    },
    {
      "place_name": "Anyiko",
      "postal_code": "40616",
      "country_code": "KE",
      "latitude": 0.2062,
      "longitude": 34.2827,
      "admin_name1": "Siaya"
    },
    {
      "place_name": "Nyamonye",
      "postal_code": "40632",
      "country_code": "KE",
      "latitude": -0.0514,
      "longitude": 34.1502,
      "admin_name1": "Siaya"
    },
    {
      "place_name": "Taveta",
      "postal_code": "80302",
      "country_code": "KE",
      "latitude": -3.3988,
      "longitude": 37.6834,
      "admin_name1": "Taita Taveta"
    },
    {
      "place_name": "Hamisi",
      "postal_code": "50312",
      "country_code": "KE",
      "latitude": 0.0571,
      "longitude": 34.7154,
      "admin_name1": "Vihiga"
    },
    {
      "place_name": "Kapenguria",
      "postal_code": "30600",
      "country_code": "KE",
      "latitude": 1.2389,
      "longitude": 35.1119,
      "admin_name1": "West Pokot"
    },
    {
      "place_name": "Viwandani",
      "postal_code": "00507",
      "country_code": "KE",
      "latitude": -1.3574,
      "longitude": 36.7416,
      "admin_name1": "Nairobi"
    },
    {
      "place_name": "Kakemer",
      "postal_code": "50419",
      "country_code": "KE",
      "latitude": 0.2289,
      "longitude": 34.1536,
      "admin_name1": "Nairobi"
    },
    {
      "place_name": "Siongiroi",
      "postal_code": "20423",
      "country_code": "KE",
      "latitude": -0.8953,
      "longitude": 35.2113,
      "admin_name1": "Bomet"
    },
    {
      "place_name": "Nambale",
      "postal_code": "50409",
      "country_code": "KE",
      "latitude": 0.4581,
      "longitude": 34.2535,
      "admin_name1": "Busia"
    },
    {
      "place_name": "Bukiri",
      "postal_code": "50417",
      "country_code": "KE",
      "latitude": 0.2279,
      "longitude": 34.0877,
      "admin_name1": "Busia"
    },
    {
      "place_name": "Sisiya",
      "postal_code": "30705",
      "country_code": "KE",
      "latitude": 0.8943,
      "longitude": 35.5745,
      "admin_name1": "Elegeyo-Marakwet"
    },
    {
      "place_name": "Kubu Kubu",
      "postal_code": "60125",
      "country_code": "KE",
      "latitude": -0.4774,
      "longitude": 37.4415,
      "admin_name1": "Embu"
    },
    {
      "place_name": "Dadaab",
      "postal_code": "70103",
      "country_code": "KE",
      "latitude": 0.0524,
      "longitude": 40.3086,
      "admin_name1": "Garissa"
    },
    {
      "place_name": "Kojwang",
      "postal_code": "40317",
      "country_code": "KE",
      "latitude": -0.4374,
      "longitude": 34.6582,
      "admin_name1": "Homa Bay"
    },
    {
      "place_name": "Nangili",
      "postal_code": "50239",
      "country_code": "KE",
      "latitude": 0.7183,
      "longitude": 34.7465,
      "admin_name1": "Kakamega"
    },
    {
      "place_name": "Ngewa",
      "postal_code": "00901",
      "country_code": "KE",
      "latitude": -1.092,
      "longitude": 36.8659,
      "admin_name1": "Kiambu"
    },
    {
      "place_name": "Kikuyu",
      "postal_code": "00902",
      "country_code": "KE",
      "latitude": -1.2463,
      "longitude": 36.6629,
      "admin_name1": "Kiambu"
    },
    {
      "place_name": "Kalimoni",
      "postal_code": "01001",
      "country_code": "KE",
      "latitude": -1.1169,
      "longitude": 37.0198,
      "admin_name1": "Kiambu"
    },
    {
      "place_name": "Chemelil",
      "postal_code": "40116",
      "country_code": "KE",
      "latitude": -0.1072,
      "longitude": 35.1103,
      "admin_name1": "Kisumu"
    },
    {
      "place_name": "Kibirichia",
      "postal_code": "60201",
      "country_code": "KE",
      "latitude": -0.0037,
      "longitude": 37.5921,
      "admin_name1": "Meru"
    },
    {
      "place_name": "Muruka",
      "postal_code": "01024",
      "country_code": "KE",
      "latitude": -0.9313,
      "longitude": 37.062,
      "admin_name1": "Murang'A"
    },
    {
      "place_name": "Kihoya",
      "postal_code": "10207",
      "country_code": "KE",
      "latitude": -0.6514,
      "longitude": 36.904,
      "admin_name1": "Murang'A"
    },
    {
      "place_name": "Ichichi",
      "postal_code": "10227",
      "country_code": "KE",
      "latitude": -0.7043,
      "longitude": 36.8438,
      "admin_name1": "Murang'A"
    },
    {
      "place_name": "Elburgon",
      "postal_code": "20102",
      "country_code": "KE",
      "latitude": -0.3004,
      "longitude": 35.8093,
      "admin_name1": "Nakuru"
    },
    {
      "place_name": "Menengai",
      "postal_code": "20104",
      "country_code": "KE",
      "latitude": -0.1683,
      "longitude": 35.9149,
      "admin_name1": "Nakuru"
    },
    {
      "place_name": "Molo",
      "postal_code": "20106",
      "country_code": "KE",
      "latitude": -0.2485,
      "longitude": 35.7319,
      "admin_name1": "Nakuru"
    },
    {
      "place_name": "Subukia",
      "postal_code": "20109",
      "country_code": "KE",
      "latitude": -0.0164,
      "longitude": 36.2093,
      "admin_name1": "Nakuru"
    },
    {
      "place_name": "Mau Summit",
      "postal_code": "20122",
      "country_code": "KE",
      "latitude": -0.1695,
      "longitude": 35.9972,
      "admin_name1": "Nakuru"
    },
    {
      "place_name": "Keringet",
      "postal_code": "20131",
      "country_code": "KE",
      "latitude": -0.4676,
      "longitude": 35.6819,
      "admin_name1": "Nakuru"
    },
    {
      "place_name": "Kaheho",
      "postal_code": "20304",
      "country_code": "KE",
      "latitude": -0.1913,
      "longitude": 36.5018,
      "admin_name1": "Nyandarua"
    },
    {
      "place_name": "Murungaru",
      "postal_code": "20316",
      "country_code": "KE",
      "latitude": -0.3146,
      "longitude": 36.4915,
      "admin_name1": "Nyandarua"
    },
    {
      "place_name": "Gatitu",
      "postal_code": "10114",
      "country_code": "KE",
      "latitude": -0.459,
      "longitude": 36.998,
      "admin_name1": "Nyeri"
    },
    {
      "place_name": "Mutumbu",
      "postal_code": "40628",
      "country_code": "KE",
      "latitude": -0.0173,
      "longitude": 34.3346,
      "admin_name1": "Siaya"
    },
    {
      "place_name": "Mgange",
      "postal_code": "80306",
      "country_code": "KE",
      "latitude": -3.4011,
      "longitude": 38.3129,
      "admin_name1": "Taita Taveta"
    },
    {
      "place_name": "Maungu",
      "postal_code": "80317",
      "country_code": "KE",
      "latitude": -3.5581,
      "longitude": 38.7491,
      "admin_name1": "Taita Taveta"
    },
    {
      "place_name": "Saboti",
      "postal_code": "30211",
      "country_code": "KE",
      "latitude": 0.941,
      "longitude": 34.8442,
      "admin_name1": "Trans Nzoia"
    },
    {
      "place_name": "Langas",
      "postal_code": "30112",
      "country_code": "KE",
      "latitude": 0.4786,
      "longitude": 35.255,
      "admin_name1": "Uasin Gishu"
    },
    {
      "place_name": "Kamwosor",
      "postal_code": "30113",
      "country_code": "KE",
      "latitude": 0.199,
      "longitude": 35.5692,
      "admin_name1": "Uasin Gishu"
    },
    {
      "place_name": "Gisambai",
      "postal_code": "50304",
      "country_code": "KE",
      "latitude": 0.0554,
      "longitude": 34.7487,
      "admin_name1": "Vihiga"
    },
    {
      "place_name": "Mbari Ya Njiku",
      "postal_code": "00231",
      "country_code": "KE",
      "latitude": -1.1702,
      "longitude": 36.8536,
      "admin_name1": "Nairobi"
    },
    {
      "place_name": "Cheptais",
      "postal_code": "50201",
      "country_code": "KE",
      "latitude": 0.7139,
      "longitude": 34.6268,
      "admin_name1": "Bungoma"
    },
    {
      "place_name": "Dudi",
      "postal_code": "40621",
      "country_code": "KE",
      "latitude": 0.1148,
      "longitude": 34.4874,
      "admin_name1": "Kakamega"
    },
    {
      "place_name": "Ruiru",
      "postal_code": "00232",
      "country_code": "KE",
      "latitude": -1.1467,
      "longitude": 36.9609,
      "admin_name1": "Kiambu"
    },
    {
      "place_name": "Githurai",
      "postal_code": "00626",
      "country_code": "KE",
      "latitude": -1.2638,
      "longitude": 36.7707,
      "admin_name1": "Kiambu"
    },
    {
      "place_name": "Mtwapa",
      "postal_code": "80109",
      "country_code": "KE",
      "latitude": -3.9394,
      "longitude": 39.7488,
      "admin_name1": "Kilifi"
    },
    {
      "place_name": "Mariakani",
      "postal_code": "80113",
      "country_code": "KE",
      "latitude": -3.8626,
      "longitude": 39.4746,
      "admin_name1": "Kilifi"
    },
    {
      "place_name": "Ganze",
      "postal_code": "80205",
      "country_code": "KE",
      "latitude": -3.5439,
      "longitude": 39.6928,
      "admin_name1": "Kilifi"
    },
    {
      "place_name": "Kerugoya",
      "postal_code": "10300",
      "country_code": "KE",
      "latitude": -0.4989,
      "longitude": 37.2803,
      "admin_name1": "Kirinyaga"
    },
    {
      "place_name": "Pembe Tatu",
      "postal_code": "40113",
      "country_code": "KE",
      "latitude": -0.1272,
      "longitude": 35.0855,
      "admin_name1": "Kisumu"
    },
    {
      "place_name": "Kiusyani",
      "postal_code": "90218",
      "country_code": "KE",
      "latitude": -1.4884,
      "longitude": 38.1367,
      "admin_name1": "Kitui"
    },
    {
      "place_name": "Kivunga",
      "postal_code": "90111",
      "country_code": "KE",
      "latitude": -1.2997,
      "longitude": 37.4393,
      "admin_name1": "Machakos"
    },
    {
      "place_name": "Kaewa",
      "postal_code": "90150",
      "country_code": "KE",
      "latitude": -1.4481,
      "longitude": 37.3056,
      "admin_name1": "Machakos"
    },
    {
      "place_name": "Mkomani",
      "postal_code": "80106",
      "country_code": "KE",
      "latitude": -3.9307,
      "longitude": 39.6985,
      "admin_name1": "Mombasa"
    },
    {
      "place_name": "Githumu",
      "postal_code": "01032",
      "country_code": "KE",
      "latitude": -0.8248,
      "longitude": 36.9089,
      "admin_name1": "Murang'A"
    },
    {
      "place_name": "Gitugi",
      "postal_code": "10209",
      "country_code": "KE",
      "latitude": -0.6519,
      "longitude": 37.0212,
      "admin_name1": "Murang'A"
    },
    {
      "place_name": "Gacharage-Ini",
      "postal_code": "10210",
      "country_code": "KE",
      "latitude": -0.7075,
      "longitude": 36.9655,
      "admin_name1": "Murang'A"
    },
    {
      "place_name": "Lanet",
      "postal_code": "20112",
      "country_code": "KE",
      "latitude": -0.3034,
      "longitude": 36.1372,
      "admin_name1": "Nakuru"
    },
    {
      "place_name": "Kirisoi",
      "postal_code": "20135",
      "country_code": "KE",
      "latitude": -0.4477,
      "longitude": 35.633,
      "admin_name1": "Nakuru"
    },
    {
      "place_name": "Ugunja",
      "postal_code": "40606",
      "country_code": "KE",
      "latitude": 0.1902,
      "longitude": 34.2992,
      "admin_name1": "Siaya"
    },
    {
      "place_name": "Nyilima",
      "postal_code": "40611",
      "country_code": "KE",
      "latitude": -0.148,
      "longitude": 34.3857,
      "admin_name1": "Siaya"
    },
    {
      "place_name": "Ngâ€™Ambwa",
      "postal_code": "80311",
      "country_code": "KE",
      "latitude": -3.4369,
      "longitude": 38.4157,
      "admin_name1": "Taita Taveta"
    },
    {
      "place_name": "Wajir",
      "postal_code": "70200",
      "country_code": "KE",
      "latitude": 1.7471,
      "longitude": 40.0573,
      "admin_name1": "Wajir"
    },
    {
      "place_name": "Kenyatta Hospital",
      "postal_code": "00202",
      "country_code": "KE",
      "latitude": -1.595,
      "longitude": 36.6506,
      "admin_name1": "Nairobi"
    },
    {
      "place_name": "Juja Rd",
      "postal_code": "00622",
      "country_code": "KE",
      "latitude": -1.2638,
      "longitude": 36.7707,
      "admin_name1": "Nairobi"
    },
    {
      "place_name": "Mathuki",
      "postal_code": "90406",
      "country_code": "KE",
      "latitude": -0.7581,
      "longitude": 38.1738,
      "admin_name1": "Nairobi"
    },
    {
      "place_name": "Lugulu",
      "postal_code": "50218",
      "country_code": "KE",
      "latitude": 0.6613,
      "longitude": 34.7543,
      "admin_name1": "Bungoma"
    },
    {
      "place_name": "Homa Bay",
      "postal_code": "40300",
      "country_code": "KE",
      "latitude": -0.5273,
      "longitude": 34.4571,
      "admin_name1": "Homa Bay"
    },
    {
      "place_name": "Magunga",
      "postal_code": "40307",
      "country_code": "KE",
      "latitude": -0.2795,
      "longitude": 34.9828,
      "admin_name1": "Homa Bay"
    },
    {
      "place_name": "Merti",
      "postal_code": "60303",
      "country_code": "KE",
      "latitude": 1.0672,
      "longitude": 38.6662,
      "admin_name1": "Isiolo"
    },
    {
      "place_name": "Lusiola",
      "postal_code": "50320",
      "country_code": "KE",
      "latitude": 0.0821,
      "longitude": 34.7362,
      "admin_name1": "Kakamega"
    },
    {
      "place_name": "Kipkelion",
      "postal_code": "20202",
      "country_code": "KE",
      "latitude": -0.1998,
      "longitude": 35.4674,
      "admin_name1": "Kericho"
    },
    {
      "place_name": "Kamaget",
      "postal_code": "20218",
      "country_code": "KE",
      "latitude": -0.4776,
      "longitude": 35.1564,
      "admin_name1": "Kericho"
    },
    {
      "place_name": "Karuri",
      "postal_code": "00219",
      "country_code": "KE",
      "latitude": -1.1764,
      "longitude": 36.7564,
      "admin_name1": "Kiambu"
    },
    {
      "place_name": "Ogembo",
      "postal_code": "40204",
      "country_code": "KE",
      "latitude": -0.8012,
      "longitude": 34.7258,
      "admin_name1": "Kisii"
    },
    {
      "place_name": "Diani Beach",
      "postal_code": "80401",
      "country_code": "KE",
      "latitude": -4.2777,
      "longitude": 39.5941,
      "admin_name1": "Kwale"
    },
    {
      "place_name": "Kinango",
      "postal_code": "80405",
      "country_code": "KE",
      "latitude": -4.1372,
      "longitude": 39.3153,
      "admin_name1": "Kwale"
    },
    {
      "place_name": "Nyahururu",
      "postal_code": "20300",
      "country_code": "KE",
      "latitude": 0.0381,
      "longitude": 36.3634,
      "admin_name1": "Laikipia"
    },
    {
      "place_name": "Moyale",
      "postal_code": "60700",
      "country_code": "KE",
      "latitude": 3.5266,
      "longitude": 39.0561,
      "admin_name1": "Marsabit"
    },
    {
      "place_name": "Mukuro",
      "postal_code": "40410",
      "country_code": "KE",
      "latitude": -1.0372,
      "longitude": 34.3653,
      "admin_name1": "Migori"
    },
    {
      "place_name": "Kahuhia",
      "postal_code": "10206",
      "country_code": "KE",
      "latitude": -0.7094,
      "longitude": 37.0429,
      "admin_name1": "Murang'A"
    },
    {
      "place_name": "Lolgorian",
      "postal_code": "40701",
      "country_code": "KE",
      "latitude": -1.0082,
      "longitude": 34.8781,
      "admin_name1": "Narok"
    },
    {
      "place_name": "Enosaen",
      "postal_code": "40703",
      "country_code": "KE",
      "latitude": -1.0082,
      "longitude": 34.8781,
      "admin_name1": "Narok"
    },
    {
      "place_name": "Nyansiongo",
      "postal_code": "40502",
      "country_code": "KE",
      "latitude": -0.7596,
      "longitude": 35.0148,
      "admin_name1": "Nyamira"
    },
    {
      "place_name": "Kebirigo",
      "postal_code": "40506",
      "country_code": "KE",
      "latitude": -0.6029,
      "longitude": 34.9612,
      "admin_name1": "Nyamira"
    },
    {
      "place_name": "Rigoma",
      "postal_code": "40511",
      "country_code": "KE",
      "latitude": -0.7263,
      "longitude": 34.9251,
      "admin_name1": "Nyamira"
    },
    {
      "place_name": "Igwamiti",
      "postal_code": "20307",
      "country_code": "KE",
      "latitude": -0.1649,
      "longitude": 36.4363,
      "admin_name1": "Nyandarua"
    },
    {
      "place_name": "Mukeu",
      "postal_code": "20315",
      "country_code": "KE",
      "latitude": -0.3146,
      "longitude": 36.4915,
      "admin_name1": "Nyandarua"
    },
    {
      "place_name": "Wamba",
      "postal_code": "20603",
      "country_code": "KE",
      "latitude": 0.9802,
      "longitude": 37.3235,
      "admin_name1": "Samburu"
    },
    {
      "place_name": "Yala",
      "postal_code": "40610",
      "country_code": "KE",
      "latitude": 0.0944,
      "longitude": 34.536,
      "admin_name1": "Siaya"
    },
    {
      "place_name": "Manyuanda",
      "postal_code": "40625",
      "country_code": "KE",
      "latitude": -0.2465,
      "longitude": 34.2714,
      "admin_name1": "Siaya"
    },
    {
      "place_name": "Kathwana",
      "postal_code": "60406",
      "country_code": "KE",
      "latitude": -0.3314,
      "longitude": 37.8686,
      "admin_name1": "Tharaka - Nithi"
    },
    {
      "place_name": "Kalokol",
      "postal_code": "30502",
      "country_code": "KE",
      "latitude": 3.5211,
      "longitude": 35.8329,
      "admin_name1": "Turkana"
    },
    {
      "place_name": "Chepkoilel",
      "postal_code": "30133",
      "country_code": "KE",
      "latitude": 0.5207,
      "longitude": 35.3621,
      "admin_name1": "Uasin Gishu"
    },
    {
      "place_name": "Vihiga",
      "postal_code": "50310",
      "country_code": "KE",
      "latitude": 0.0369,
      "longitude": 34.7101,
      "admin_name1": "Vihiga"
    },
    {
      "place_name": "Rangala",
      "postal_code": "40634",
      "country_code": "KE",
      "latitude": -0.0436,
      "longitude": 34.2607,
      "admin_name1": "Nairobi"
    },
    {
      "place_name": "Kiptagich",
      "postal_code": "30402",
      "country_code": "KE",
      "latitude": 0.3833,
      "longitude": 35.8,
      "admin_name1": "Baringo"
    },
    {
      "place_name": "Marigat",
      "postal_code": "30403",
      "country_code": "KE",
      "latitude": 0.4712,
      "longitude": 35.9864,
      "admin_name1": "Baringo"
    },
    {
      "place_name": "Chemaner",
      "postal_code": "20407",
      "country_code": "KE",
      "latitude": -0.8026,
      "longitude": 35.4851,
      "admin_name1": "Bomet"
    },
    {
      "place_name": "Mukhe",
      "postal_code": "50225",
      "country_code": "KE",
      "latitude": 0.5653,
      "longitude": 34.3902,
      "admin_name1": "Bungoma"
    },
    {
      "place_name": "Amagoro",
      "postal_code": "50244",
      "country_code": "KE",
      "latitude": 0.6316,
      "longitude": 34.3277,
      "admin_name1": "Busia"
    },
    {
      "place_name": "Kobuswa",
      "postal_code": "30705",
      "country_code": "KE",
      "latitude": 0.8943,
      "longitude": 35.5745,
      "admin_name1": "Elegeyo-Marakwet"
    },
    {
      "place_name": "Modo Gashe",
      "postal_code": "70102",
      "country_code": "KE",
      "latitude": -0.6276,
      "longitude": 39.996,
      "admin_name1": "Garissa"
    },
    {
      "place_name": "Isiolo",
      "postal_code": "60300",
      "country_code": "KE",
      "latitude": 0.3546,
      "longitude": 37.5822,
      "admin_name1": "Isiolo"
    },
    {
      "place_name": "Ilasit",
      "postal_code": "00214",
      "country_code": "KE",
      "latitude": -1.19,
      "longitude": 36.7645,
      "admin_name1": "Kajiado"
    },
    {
      "place_name": "Malaha",
      "postal_code": "50122",
      "country_code": "KE",
      "latitude": 0.362,
      "longitude": 34.6231,
      "admin_name1": "Kakamega"
    },
    {
      "place_name": "Londiani",
      "postal_code": "20203",
      "country_code": "KE",
      "latitude": -0.1655,
      "longitude": 35.5936,
      "admin_name1": "Kericho"
    },
    {
      "place_name": "Kapkelek",
      "postal_code": "20219",
      "country_code": "KE",
      "latitude": -0.4776,
      "longitude": 35.1564,
      "admin_name1": "Kericho"
    },
    {
      "place_name": "Githunguri",
      "postal_code": "00216",
      "country_code": "KE",
      "latitude": -1.3,
      "longitude": 36.9905,
      "admin_name1": "Kiambu"
    },
    {
      "place_name": "Madaraka",
      "postal_code": "01002",
      "country_code": "KE",
      "latitude": -0.989,
      "longitude": 36.9177,
      "admin_name1": "Kiambu"
    },
    {
      "place_name": "Gongoni",
      "postal_code": "80206",
      "country_code": "KE",
      "latitude": -3.0367,
      "longitude": 40.1375,
      "admin_name1": "Kilifi"
    },
    {
      "place_name": "Riosiri",
      "postal_code": "40220",
      "country_code": "KE",
      "latitude": -0.7731,
      "longitude": 34.6365,
      "admin_name1": "Kisii"
    },
    {
      "place_name": "Songhor",
      "postal_code": "40110",
      "country_code": "KE",
      "latitude": -0.055,
      "longitude": 35.2117,
      "admin_name1": "Kisumu"
    },
    {
      "place_name": "Mega City",
      "postal_code": "40123",
      "country_code": "KE",
      "latitude": -0.2038,
      "longitude": 34.8578,
      "admin_name1": "Kisumu"
    },
    {
      "place_name": "Doldol",
      "postal_code": "10401",
      "country_code": "KE",
      "latitude": 0.0062,
      "longitude": 37.074,
      "admin_name1": "Laikipia"
    },
    {
      "place_name": "Mlolongo",
      "postal_code": "00519",
      "country_code": "KE",
      "latitude": -1.3964,
      "longitude": 36.9403,
      "admin_name1": "Machakos"
    },
    {
      "place_name": "Kangema",
      "postal_code": "10202",
      "country_code": "KE",
      "latitude": -0.6855,
      "longitude": 36.9646,
      "admin_name1": "Murang'A"
    },
    {
      "place_name": "Ololulunga",
      "postal_code": "20503",
      "country_code": "KE",
      "latitude": -1.334,
      "longitude": 35.5532,
      "admin_name1": "Narok"
    },
    {
      "place_name": "Ikonge",
      "postal_code": "40501",
      "country_code": "KE",
      "latitude": -0.531,
      "longitude": 35.0263,
      "admin_name1": "Nyamira"
    },
    {
      "place_name": "Oljoro-Orok",
      "postal_code": "20302",
      "country_code": "KE",
      "latitude": -0.0747,
      "longitude": 36.3629,
      "admin_name1": "Nyandarua"
    },
    {
      "place_name": "Ol-Kalou",
      "postal_code": "20303",
      "country_code": "KE",
      "latitude": -0.1649,
      "longitude": 36.4363,
      "admin_name1": "Nyandarua"
    },
    {
      "place_name": "Timboroa",
      "postal_code": "30108",
      "country_code": "KE",
      "latitude": 0.0855,
      "longitude": 35.5302,
      "admin_name1": "Uasin Gishu"
    },
    {
      "place_name": "Kihuga Square",
      "postal_code": "30110",
      "country_code": "KE",
      "latitude": 0.3691,
      "longitude": 35.435,
      "admin_name1": "Uasin Gishu"
    },
    {
      "place_name": "Muluanda",
      "postal_code": "50428",
      "country_code": "KE",
      "latitude": 0.4152,
      "longitude": 34.2428,
      "admin_name1": "Vihiga"
    },
    {
      "place_name": "Habaswein",
      "postal_code": "70201",
      "country_code": "KE",
      "latitude": 1.0166,
      "longitude": 39.4912,
      "admin_name1": "Wajir"
    },
    {
      "place_name": "Buru Buru",
      "postal_code": "00515",
      "country_code": "KE",
      "latitude": -1.3191,
      "longitude": 36.8433,
      "admin_name1": "Nairobi"
    },
    {
      "place_name": "Mobil Plaza",
      "postal_code": "00620",
      "country_code": "KE",
      "latitude": -1.2638,
      "longitude": 36.7707,
      "admin_name1": "Nairobi"
    },
    {
      "place_name": "Chwele",
      "postal_code": "50202",
      "country_code": "KE",
      "latitude": 0.7624,
      "longitude": 34.5485,
      "admin_name1": "Bungoma"
    },
    {
      "place_name": "Mungatsi",
      "postal_code": "50425",
      "country_code": "KE",
      "latitude": 0.4708,
      "longitude": 34.3155,
      "admin_name1": "Busia"
    },
    {
      "place_name": "Gachoka",
      "postal_code": "60119",
      "country_code": "KE",
      "latitude": -0.6223,
      "longitude": 37.5347,
      "admin_name1": "Embu"
    },
    {
      "place_name": "Ogongo",
      "postal_code": "40323",
      "country_code": "KE",
      "latitude": -0.4953,
      "longitude": 34.7272,
      "admin_name1": "Homa Bay"
    },
    {
      "place_name": "Kosele",
      "postal_code": "40332",
      "country_code": "KE",
      "latitude": -0.4291,
      "longitude": 34.6907,
      "admin_name1": "Homa Bay"
    },
    {
      "place_name": "Archers Post",
      "postal_code": "60302",
      "country_code": "KE",
      "latitude": 0.7109,
      "longitude": 38.1242,
      "admin_name1": "Isiolo"
    },
    {
      "place_name": "Kipkarren River",
      "postal_code": "50241",
      "country_code": "KE",
      "latitude": 0.6074,
      "longitude": 34.9651,
      "admin_name1": "Kakamega"
    },
    {
      "place_name": "Kapsuser",
      "postal_code": "20207",
      "country_code": "KE",
      "latitude": -0.4055,
      "longitude": 35.2277,
      "admin_name1": "Kericho"
    },
    {
      "place_name": "Gathugu / Gathungu",
      "postal_code": "00240",
      "country_code": "KE",
      "latitude": -1.4761,
      "longitude": 36.9614,
      "admin_name1": "Kiambu"
    },
    {
      "place_name": "Kanjuku",
      "postal_code": "01004",
      "country_code": "KE",
      "latitude": -0.95,
      "longitude": 36.8833,
      "admin_name1": "Kiambu"
    },
    {
      "place_name": "Gatundu",
      "postal_code": "01030",
      "country_code": "KE",
      "latitude": -1.05,
      "longitude": 36.9,
      "admin_name1": "Kiambu"
    },
    {
      "place_name": "Kagumo",
      "postal_code": "10307",
      "country_code": "KE",
      "latitude": -0.4733,
      "longitude": 37.2374,
      "admin_name1": "Kirinyaga"
    },
    {
      "place_name": "Kiamokama",
      "postal_code": "40213",
      "country_code": "KE",
      "latitude": -0.8288,
      "longitude": 34.8832,
      "admin_name1": "Kisii"
    },
    {
      "place_name": "Ahero",
      "postal_code": "40101",
      "country_code": "KE",
      "latitude": -0.1736,
      "longitude": 34.9189,
      "admin_name1": "Kisumu"
    },
    {
      "place_name": "Mutha",
      "postal_code": "90211",
      "country_code": "KE",
      "latitude": -1.7965,
      "longitude": 38.427,
      "admin_name1": "Kitui"
    },
    {
      "place_name": "Ngelesha",
      "postal_code": "20324",
      "country_code": "KE",
      "latitude": 0.1206,
      "longitude": 36.4781,
      "admin_name1": "Laikipia"
    },
    {
      "place_name": "Lamu",
      "postal_code": "80500",
      "country_code": "KE",
      "latitude": -2.2717,
      "longitude": 40.902,
      "admin_name1": "Lamu"
    },
    {
      "place_name": "Iiani",
      "postal_code": "90120",
      "country_code": "KE",
      "latitude": -1.7509,
      "longitude": 37.5217,
      "admin_name1": "Machakos"
    },
    {
      "place_name": "Kikima",
      "postal_code": "90125",
      "country_code": "KE",
      "latitude": -1.6621,
      "longitude": 37.4469,
      "admin_name1": "Makueni"
    },
    {
      "place_name": "Kalawa",
      "postal_code": "90126",
      "country_code": "KE",
      "latitude": -1.654,
      "longitude": 37.7024,
      "admin_name1": "Makueni"
    },
    {
      "place_name": "Ikerege",
      "postal_code": "40415",
      "country_code": "KE",
      "latitude": -1.1978,
      "longitude": 34.5574,
      "admin_name1": "Migori"
    },
    {
      "place_name": "Naivasha",
      "postal_code": "20117",
      "country_code": "KE",
      "latitude": -0.7138,
      "longitude": 36.4326,
      "admin_name1": "Nakuru"
    },
    {
      "place_name": "Kamwaura",
      "postal_code": "20132",
      "country_code": "KE",
      "latitude": -0.4278,
      "longitude": 35.5842,
      "admin_name1": "Nakuru"
    },
    {
      "place_name": "Kiamariga",
      "postal_code": "10122",
      "country_code": "KE",
      "latitude": -0.3852,
      "longitude": 37.0841,
      "admin_name1": "Nyeri"
    },
    {
      "place_name": "Misori",
      "postal_code": "40626",
      "country_code": "KE",
      "latitude": -0.0173,
      "longitude": 34.3346,
      "admin_name1": "Siaya"
    },
    {
      "place_name": "Gatunga",
      "postal_code": "60404",
      "country_code": "KE",
      "latitude": -0.0998,
      "longitude": 38.0119,
      "admin_name1": "Tharaka - Nithi"
    },
    {
      "place_name": "Kiminini",
      "postal_code": "30209",
      "country_code": "KE",
      "latitude": 0.8581,
      "longitude": 34.975,
      "admin_name1": "Trans Nzoia"
    },
    {
      "place_name": "Kaptagat",
      "postal_code": "30114",
      "country_code": "KE",
      "latitude": 0.4298,
      "longitude": 35.4808,
      "admin_name1": "Uasin Gishu"
    },
    {
      "place_name": "Chepareria",
      "postal_code": "30605",
      "country_code": "KE",
      "latitude": 1.3058,
      "longitude": 35.2036,
      "admin_name1": "West Pokot"
    },
    {
      "place_name": "Kayole",
      "postal_code": "00518",
      "country_code": "KE",
      "latitude": -1.2762,
      "longitude": 36.9138,
      "admin_name1": "Nairobi"
    },
    {
      "place_name": "Ngara Road",
      "postal_code": "00600",
      "country_code": "KE",
      "latitude": -1.2555,
      "longitude": 36.7951,
      "admin_name1": "Nairobi"
    },
    {
      "place_name": "Koracha",
      "postal_code": "40639",
      "country_code": "KE",
      "latitude": -0.0436,
      "longitude": 34.2607,
      "admin_name1": "Nairobi"
    },
    {
      "place_name": "Nthogoini",
      "postal_code": "90149",
      "country_code": "KE",
      "latitude": -1.8179,
      "longitude": 37.5371,
      "admin_name1": "Nairobi"
    },
    {
      "place_name": "Masinde Muliro University",
      "postal_code": "50139",
      "country_code": "KE",
      "latitude": 0.3562,
      "longitude": 34.6952,
      "admin_name1": "Bungoma"
    },
    {
      "place_name": "Kamukuywa",
      "postal_code": "50216",
      "country_code": "KE",
      "latitude": 0.5577,
      "longitude": 34.6367,
      "admin_name1": "Bungoma"
    },
    {
      "place_name": "Angurai",
      "postal_code": "50412",
      "country_code": "KE",
      "latitude": 0.2289,
      "longitude": 34.1536,
      "admin_name1": "Busia"
    },
    {
      "place_name": "Malinya",
      "postal_code": "50123",
      "country_code": "KE",
      "latitude": 0.3598,
      "longitude": 34.6241,
      "admin_name1": "Kakamega"
    },
    {
      "place_name": "Uplands",
      "postal_code": "00222",
      "country_code": "KE",
      "latitude": -1.0404,
      "longitude": 36.6392,
      "admin_name1": "Kiambu"
    },
    {
      "place_name": "Nderu",
      "postal_code": "00229",
      "country_code": "KE",
      "latitude": -1.144,
      "longitude": 36.6013,
      "admin_name1": "Kiambu"
    },
    {
      "place_name": "Gituamba",
      "postal_code": "01003",
      "country_code": "KE",
      "latitude": -0.9,
      "longitude": 36.85,
      "admin_name1": "Kiambu"
    },
    {
      "place_name": "Mambrui",
      "postal_code": "80213",
      "country_code": "KE",
      "latitude": -3.1208,
      "longitude": 40.16,
      "admin_name1": "Kilifi"
    },
    {
      "place_name": "Kamuwongo",
      "postal_code": "90403",
      "country_code": "KE",
      "latitude": -0.7106,
      "longitude": 38.0785,
      "admin_name1": "Kitui"
    },
    {
      "place_name": "Kinamba",
      "postal_code": "20320",
      "country_code": "KE",
      "latitude": 0.1206,
      "longitude": 36.4781,
      "admin_name1": "Laikipia"
    },
    {
      "place_name": "Muhuru Bay",
      "postal_code": "40409",
      "country_code": "KE",
      "latitude": -0.936,
      "longitude": 34.4175,
      "admin_name1": "Migori"
    },
    {
      "place_name": "Makupa",
      "postal_code": "80112",
      "country_code": "KE",
      "latitude": -3.9204,
      "longitude": 39.6497,
      "admin_name1": "Mombasa"
    },
    {
      "place_name": "Kanyenyaini",
      "postal_code": "10220",
      "country_code": "KE",
      "latitude": -0.7043,
      "longitude": 36.8438,
      "admin_name1": "Murang'A"
    },
    {
      "place_name": "Njoro",
      "postal_code": "20107",
      "country_code": "KE",
      "latitude": -0.3302,
      "longitude": 35.9444,
      "admin_name1": "Nakuru"
    },
    {
      "place_name": "Kilgoris",
      "postal_code": "40700",
      "country_code": "KE",
      "latitude": -1.0082,
      "longitude": 34.8781,
      "admin_name1": "Narok"
    },
    {
      "place_name": "Sidindi",
      "postal_code": "40605",
      "country_code": "KE",
      "latitude": 0.1599,
      "longitude": 34.3699,
      "admin_name1": "Siaya"
    },
    {
      "place_name": "Lugingo",
      "postal_code": "40623",
      "country_code": "KE",
      "latitude": -0.0173,
      "longitude": 34.3346,
      "admin_name1": "Siaya"
    },
    {
      "place_name": "Luhano",
      "postal_code": "40623",
      "country_code": "KE",
      "latitude": -0.0173,
      "longitude": 34.3346,
      "admin_name1": "Siaya"
    },
    {
      "place_name": "Huruma",
      "postal_code": "30109",
      "country_code": "KE",
      "latitude": 0.4637,
      "longitude": 35.3318,
      "admin_name1": "Uasin Gishu"
    },
    {
      "place_name": "Waunifor",
      "postal_code": "30135",
      "country_code": "KE",
      "latitude": 0.3241,
      "longitude": 35.4661,
      "admin_name1": "Uasin Gishu"
    },
    {
      "place_name": "Wodanga",
      "postal_code": "50311",
      "country_code": "KE",
      "latitude": 0.0571,
      "longitude": 34.7154,
      "admin_name1": "Vihiga"
    },
    {
      "place_name": "Ruaraka",
      "postal_code": "00618",
      "country_code": "KE",
      "latitude": -1.2438,
      "longitude": 36.8808,
      "admin_name1": "Nairobi"
    },
    {
      "place_name": "Kapkenda",
      "postal_code": "30119",
      "country_code": "KE",
      "latitude": 0.3691,
      "longitude": 35.435,
      "admin_name1": "Baringo"
    },
    {
      "place_name": "Kampi-Ya-Samaki",
      "postal_code": "30406",
      "country_code": "KE",
      "latitude": 0.6244,
      "longitude": 36.0284,
      "admin_name1": "Baringo"
    },
    {
      "place_name": "Seretunin",
      "postal_code": "30407",
      "country_code": "KE",
      "latitude": 0.5535,
      "longitude": 35.7882,
      "admin_name1": "Baringo"
    },
    {
      "place_name": "Kisarama",
      "postal_code": "30411",
      "country_code": "KE",
      "latitude": 0.9456,
      "longitude": 35.8862,
      "admin_name1": "Baringo"
    },
    {
      "place_name": "Makimeny",
      "postal_code": "20418",
      "country_code": "KE",
      "latitude": -0.719,
      "longitude": 35.2911,
      "admin_name1": "Bomet"
    },
    {
      "place_name": "Dorofu",
      "postal_code": "50213",
      "country_code": "KE",
      "latitude": 0.5577,
      "longitude": 34.6367,
      "admin_name1": "Bungoma"
    },
    {
      "place_name": "Buhuyi",
      "postal_code": "50416",
      "country_code": "KE",
      "latitude": 0.3608,
      "longitude": 34.4006,
      "admin_name1": "Busia"
    },
    {
      "place_name": "Nganduri",
      "postal_code": "60115",
      "country_code": "KE",
      "latitude": -0.5212,
      "longitude": 37.5572,
      "admin_name1": "Embu"
    },
    {
      "place_name": "Kianjokoma",
      "postal_code": "60122",
      "country_code": "KE",
      "latitude": -0.3997,
      "longitude": 37.5031,
      "admin_name1": "Embu"
    },
    {
      "place_name": "Garissa",
      "postal_code": "70100",
      "country_code": "KE",
      "latitude": -0.4528,
      "longitude": 39.646,
      "admin_name1": "Garissa"
    },
    {
      "place_name": "Rodi Kopany",
      "postal_code": "40326",
      "country_code": "KE",
      "latitude": -0.4953,
      "longitude": 34.7272,
      "admin_name1": "Homa Bay"
    },
    {
      "place_name": "Rusinga",
      "postal_code": "40329",
      "country_code": "KE",
      "latitude": -0.4337,
      "longitude": 34.9837,
      "admin_name1": "Homa Bay"
    },
    {
      "place_name": "Lukume",
      "postal_code": "50132",
      "country_code": "KE",
      "latitude": 0.3899,
      "longitude": 34.7568,
      "admin_name1": "Kakamega"
    },
    {
      "place_name": "Wangige",
      "postal_code": "00614",
      "country_code": "KE",
      "latitude": -1.2608,
      "longitude": 36.8338,
      "admin_name1": "Kiambu"
    },
    {
      "place_name": "Kaloleni",
      "postal_code": "80105",
      "country_code": "KE",
      "latitude": -3.8141,
      "longitude": 39.6314,
      "admin_name1": "Kilifi"
    },
    {
      "place_name": "Malindi",
      "postal_code": "80200",
      "country_code": "KE",
      "latitude": -3.218,
      "longitude": 40.1169,
      "admin_name1": "Kilifi"
    },
    {
      "place_name": "Awasi",
      "postal_code": "40122",
      "country_code": "KE",
      "latitude": -0.1677,
      "longitude": 35.0824,
      "admin_name1": "Kisumu"
    },
    {
      "place_name": "Rabuor",
      "postal_code": "40132",
      "country_code": "KE",
      "latitude": -0.1499,
      "longitude": 34.8258,
      "admin_name1": "Kisumu"
    },
    {
      "place_name": "Shimba Hills",
      "postal_code": "80407",
      "country_code": "KE",
      "latitude": -4.3627,
      "longitude": 39.4155,
      "admin_name1": "Kwale"
    },
    {
      "place_name": "Mokowe",
      "postal_code": "80502",
      "country_code": "KE",
      "latitude": -2.2368,
      "longitude": 40.8455,
      "admin_name1": "Lamu"
    },
    {
      "place_name": "Muumandu",
      "postal_code": "90114",
      "country_code": "KE",
      "latitude": -1.6615,
      "longitude": 37.2845,
      "admin_name1": "Machakos"
    },
    {
      "place_name": "Mtongwe",
      "postal_code": "80111",
      "country_code": "KE",
      "latitude": -3.9204,
      "longitude": 39.6497,
      "admin_name1": "Mombasa"
    },
    {
      "place_name": "Kapcheno",
      "postal_code": "30304",
      "country_code": "KE",
      "latitude": 0.2185,
      "longitude": 35.1075,
      "admin_name1": "Nandi"
    },
    {
      "place_name": "Omogonchoro",
      "postal_code": "40221",
      "country_code": "KE",
      "latitude": -0.6463,
      "longitude": 34.7278,
      "admin_name1": "Nyamira"
    },
    {
      "place_name": "Riochanda",
      "postal_code": "40512",
      "country_code": "KE",
      "latitude": -0.6428,
      "longitude": 34.8814,
      "admin_name1": "Nyamira"
    },
    {
      "place_name": "Kamakwa Rd",
      "postal_code": "10141",
      "country_code": "KE",
      "latitude": -0.4104,
      "longitude": 36.9767,
      "admin_name1": "Nyeri"
    },
    {
      "place_name": "Ragengni",
      "postal_code": "40604",
      "country_code": "KE",
      "latitude": -0.2699,
      "longitude": 34.3642,
      "admin_name1": "Siaya"
    },
    {
      "place_name": "Kasigau",
      "postal_code": "80307",
      "country_code": "KE",
      "latitude": -3.4192,
      "longitude": 38.3346,
      "admin_name1": "Taita Taveta"
    },
    {
      "place_name": "Sagalla",
      "postal_code": "80308",
      "country_code": "KE",
      "latitude": -3.5096,
      "longitude": 38.5762,
      "admin_name1": "Taita Taveta"
    },
    {
      "place_name": "Gathunga",
      "postal_code": "10115",
      "country_code": "KE",
      "latitude": -0.459,
      "longitude": 36.998,
      "admin_name1": "Tharaka - Nithi"
    },
    {
      "place_name": "Kesogon",
      "postal_code": "30215",
      "country_code": "KE",
      "latitude": 0.9437,
      "longitude": 34.8458,
      "admin_name1": "Trans Nzoia"
    },
    {
      "place_name": "Burnt Forest",
      "postal_code": "30102",
      "country_code": "KE",
      "latitude": 0.2168,
      "longitude": 35.4325,
      "admin_name1": "Uasin Gishu"
    },
    {
      "place_name": "Luanda",
      "postal_code": "50307",
      "country_code": "KE",
      "latitude": 0.0233,
      "longitude": 34.5866,
      "admin_name1": "Vihiga"
    },
    {
      "place_name": "Eldama Ravine",
      "postal_code": "20103",
      "country_code": "KE",
      "latitude": 0.052,
      "longitude": 35.7273,
      "admin_name1": "Baringo"
    },
    {
      "place_name": "Nginyang",
      "postal_code": "30404",
      "country_code": "KE",
      "latitude": 0.9483,
      "longitude": 36.0155,
      "admin_name1": "Baringo"
    },
    {
      "place_name": "Koiwa",
      "postal_code": "20417",
      "country_code": "KE",
      "latitude": -0.6132,
      "longitude": 35.3229,
      "admin_name1": "Bomet"
    },
    {
      "place_name": "Brigadier",
      "postal_code": "50245",
      "country_code": "KE",
      "latitude": 0.6152,
      "longitude": 34.7134,
      "admin_name1": "Bungoma"
    },
    {
      "place_name": "Kevote",
      "postal_code": "60108",
      "country_code": "KE",
      "latitude": -0.4402,
      "longitude": 37.5317,
      "admin_name1": "Embu"
    },
    {
      "place_name": "Awach Tende",
      "postal_code": "40328",
      "country_code": "KE",
      "latitude": -0.4848,
      "longitude": 34.6202,
      "admin_name1": "Homa Bay"
    },
    {
      "place_name": "Asego",
      "postal_code": "40335",
      "country_code": "KE",
      "latitude": -0.5129,
      "longitude": 34.4175,
      "admin_name1": "Homa Bay"
    },
    {
      "place_name": "Kiserian",
      "postal_code": "00206",
      "country_code": "KE",
      "latitude": -1.4275,
      "longitude": 36.6865,
      "admin_name1": "Kajiado"
    },
    {
      "place_name": "Oltepesi",
      "postal_code": "00213",
      "country_code": "KE",
      "latitude": -1.19,
      "longitude": 36.7645,
      "admin_name1": "Kajiado"
    },
    {
      "place_name": "Manyulia",
      "postal_code": "50126",
      "country_code": "KE",
      "latitude": 0.3598,
      "longitude": 34.6241,
      "admin_name1": "Kakamega"
    },
    {
      "place_name": "Kapkugerwet",
      "postal_code": "20206",
      "country_code": "KE",
      "latitude": -0.3319,
      "longitude": 35.2904,
      "admin_name1": "Kericho"
    },
    {
      "place_name": "Mazeras",
      "postal_code": "80114",
      "country_code": "KE",
      "latitude": -3.9204,
      "longitude": 39.6497,
      "admin_name1": "Kilifi"
    },
    {
      "place_name": "Nyabondo",
      "postal_code": "40124",
      "country_code": "KE",
      "latitude": -0.3818,
      "longitude": 34.9794,
      "admin_name1": "Kisumu"
    },
    {
      "place_name": "Sigoti",
      "postal_code": "40135",
      "country_code": "KE",
      "latitude": -0.3387,
      "longitude": 34.9667,
      "admin_name1": "Kisumu"
    },
    {
      "place_name": "Kitui",
      "postal_code": "90200",
      "country_code": "KE",
      "latitude": -1.367,
      "longitude": 38.0106,
      "admin_name1": "Kitui"
    },
    {
      "place_name": "Matuga",
      "postal_code": "80406",
      "country_code": "KE",
      "latitude": -4.168,
      "longitude": 39.5707,
      "admin_name1": "Kwale"
    },
    {
      "place_name": "Ndalani",
      "postal_code": "90118",
      "country_code": "KE",
      "latitude": -1.0922,
      "longitude": 37.4865,
      "admin_name1": "Machakos"
    },
    {
      "place_name": "Matuu",
      "postal_code": "90119",
      "country_code": "KE",
      "latitude": -1.1454,
      "longitude": 37.5467,
      "admin_name1": "Machakos"
    },
    {
      "place_name": "Kithimani",
      "postal_code": "90124",
      "country_code": "KE",
      "latitude": -1.7509,
      "longitude": 37.5217,
      "admin_name1": "Makueni"
    },
    {
      "place_name": "Githiga",
      "postal_code": "00903",
      "country_code": "KE",
      "latitude": -1.1544,
      "longitude": 36.789,
      "admin_name1": "Meru"
    },
    {
      "place_name": "Kehancha",
      "postal_code": "40413",
      "country_code": "KE",
      "latitude": -1.1935,
      "longitude": 34.6197,
      "admin_name1": "Migori"
    },
    {
      "place_name": "Docks",
      "postal_code": "80104",
      "country_code": "KE",
      "latitude": -3.9307,
      "longitude": 39.6985,
      "admin_name1": "Mombasa"
    },
    {
      "place_name": "Baraton",
      "postal_code": "30306",
      "country_code": "KE",
      "latitude": 0.2552,
      "longitude": 35.0827,
      "admin_name1": "Nandi"
    },
    {
      "place_name": "Chemase",
      "postal_code": "40143",
      "country_code": "KE",
      "latitude": -0.0481,
      "longitude": 35.0587,
      "admin_name1": "Nandi"
    },
    {
      "place_name": "Njipiship",
      "postal_code": "40702",
      "country_code": "KE",
      "latitude": -1.0082,
      "longitude": 34.8781,
      "admin_name1": "Narok"
    },
    {
      "place_name": "Karatina",
      "postal_code": "10101",
      "country_code": "KE",
      "latitude": -0.4841,
      "longitude": 37.1266,
      "admin_name1": "Nyeri"
    },
    {
      "place_name": "Manyani",
      "postal_code": "80301",
      "country_code": "KE",
      "latitude": -3.4192,
      "longitude": 38.3346,
      "admin_name1": "Taita Taveta"
    },
    {
      "place_name": "Kaanwa",
      "postal_code": "60411",
      "country_code": "KE",
      "latitude": -0.322,
      "longitude": 37.7202,
      "admin_name1": "Tharaka - Nithi"
    },
    {
      "place_name": "Emuhaya",
      "postal_code": "50314",
      "country_code": "KE",
      "latitude": 0.0369,
      "longitude": 34.6269,
      "admin_name1": "Vihiga"
    },
    {
      "place_name": "Chavakali",
      "postal_code": "50317",
      "country_code": "KE",
      "latitude": 0.1177,
      "longitude": 34.7334,
      "admin_name1": "Vihiga"
    },
    {
      "place_name": "Mchumbi Road",
      "postal_code": "00504",
      "country_code": "KE",
      "latitude": -1.3574,
      "longitude": 36.7416,
      "admin_name1": "Nairobi"
    },
    {
      "place_name": "Sasumua Rd",
      "postal_code": "00513",
      "country_code": "KE",
      "latitude": -1.3191,
      "longitude": 36.8433,
      "admin_name1": "Nairobi"
    },
    {
      "place_name": "Uhuru Gardens",
      "postal_code": "00517",
      "country_code": "KE",
      "latitude": -1.3247,
      "longitude": 36.7915,
      "admin_name1": "Nairobi"
    },
    {
      "place_name": "Embakasi Village",
      "postal_code": "00521",
      "country_code": "KE",
      "latitude": -1.3067,
      "longitude": 36.91,
      "admin_name1": "Nairobi"
    },
    {
      "place_name": "Kariobangi",
      "postal_code": "00615",
      "country_code": "KE",
      "latitude": -1.2537,
      "longitude": 36.882,
      "admin_name1": "Nairobi"
    },
    {
      "place_name": "Lusingeti",
      "postal_code": "00905",
      "country_code": "KE",
      "latitude": -1.1544,
      "longitude": 36.789,
      "admin_name1": "Nairobi"
    },
    {
      "place_name": "Gembe",
      "postal_code": "40312",
      "country_code": "KE",
      "latitude": -0.4374,
      "longitude": 34.6582,
      "admin_name1": "Nairobi"
    },
    {
      "place_name": "Silibwet",
      "postal_code": "20422",
      "country_code": "KE",
      "latitude": -0.7303,
      "longitude": 35.3461,
      "admin_name1": "Bomet"
    },
    {
      "place_name": "Kapsokwony",
      "postal_code": "50203",
      "country_code": "KE",
      "latitude": 0.8522,
      "longitude": 34.7019,
      "admin_name1": "Bungoma"
    },
    {
      "place_name": "Mbakalo",
      "postal_code": "50236",
      "country_code": "KE",
      "latitude": 0.7183,
      "longitude": 34.7465,
      "admin_name1": "Bungoma"
    },
    {
      "place_name": "Embu",
      "postal_code": "60100",
      "country_code": "KE",
      "latitude": -0.5399,
      "longitude": 37.4574,
      "admin_name1": "Embu"
    },
    {
      "place_name": "Siakago",
      "postal_code": "60104",
      "country_code": "KE",
      "latitude": -0.5773,
      "longitude": 37.64,
      "admin_name1": "Embu"
    },
    {
      "place_name": "Rangwe",
      "postal_code": "40303",
      "country_code": "KE",
      "latitude": -0.6003,
      "longitude": 34.5835,
      "admin_name1": "Homa Bay"
    },
    {
      "place_name": "Kitengela",
      "postal_code": "00241",
      "country_code": "KE",
      "latitude": -1.4761,
      "longitude": 36.9614,
      "admin_name1": "Kajiado"
    },
    {
      "place_name": "Mumias",
      "postal_code": "50102",
      "country_code": "KE",
      "latitude": 0.3347,
      "longitude": 34.488,
      "admin_name1": "Kakamega"
    },
    {
      "place_name": "Kagwe",
      "postal_code": "00223",
      "country_code": "KE",
      "latitude": -1.0038,
      "longitude": 36.7447,
      "admin_name1": "Kiambu"
    },
    {
      "place_name": "Kinari",
      "postal_code": "00227",
      "country_code": "KE",
      "latitude": -0.9042,
      "longitude": 36.6356,
      "admin_name1": "Kiambu"
    },
    {
      "place_name": "Ndithini",
      "postal_code": "01016",
      "country_code": "KE",
      "latitude": -0.9784,
      "longitude": 37.02,
      "admin_name1": "Kiambu"
    },
    {
      "place_name": "Kimunye",
      "postal_code": "10312",
      "country_code": "KE",
      "latitude": -0.4309,
      "longitude": 37.3101,
      "admin_name1": "Kirinyaga"
    },
    {
      "place_name": "Nyangande",
      "postal_code": "40126",
      "country_code": "KE",
      "latitude": -0.2067,
      "longitude": 34.849,
      "admin_name1": "Kisumu"
    },
    {
      "place_name": "Ratta",
      "postal_code": "40137",
      "country_code": "KE",
      "latitude": -0.1626,
      "longitude": 34.6685,
      "admin_name1": "Kisumu"
    },
    {
      "place_name": "Rakwaro",
      "postal_code": "40325",
      "country_code": "KE",
      "latitude": -0.363,
      "longitude": 34.9191,
      "admin_name1": "Kisumu"
    },
    {
      "place_name": "Kwavonza",
      "postal_code": "90215",
      "country_code": "KE",
      "latitude": -1.4884,
      "longitude": 38.1367,
      "admin_name1": "Kitui"
    },
    {
      "place_name": "Nyali",
      "postal_code": "80118",
      "country_code": "KE",
      "latitude": -3.9204,
      "longitude": 39.6497,
      "admin_name1": "Mombasa"
    },
    {
      "place_name": "Ewaso Kedong",
      "postal_code": "00242",
      "country_code": "KE",
      "latitude": -1.4761,
      "longitude": 36.9614,
      "admin_name1": "Nakuru"
    },
    {
      "place_name": "Chepsonoi",
      "postal_code": "30309",
      "country_code": "KE",
      "latitude": 0.1896,
      "longitude": 34.9501,
      "admin_name1": "Nandi"
    },
    {
      "place_name": "Magombo",
      "postal_code": "40507",
      "country_code": "KE",
      "latitude": -0.6848,
      "longitude": 34.9184,
      "admin_name1": "Nyamira"
    },
    {
      "place_name": "Ngano",
      "postal_code": "20308",
      "country_code": "KE",
      "latitude": -0.1075,
      "longitude": 36.2725,
      "admin_name1": "Nyandarua"
    },
    {
      "place_name": "South Horr",
      "postal_code": "20604",
      "country_code": "KE",
      "latitude": 2.0977,
      "longitude": 36.9185,
      "admin_name1": "Samburu"
    },
    {
      "place_name": "Chemiron",
      "postal_code": "30206",
      "country_code": "KE",
      "latitude": 0.9339,
      "longitude": 35.0194,
      "admin_name1": "Trans Nzoia"
    },
    {
      "place_name": "Kapedo",
      "postal_code": "30410",
      "country_code": "KE",
      "latitude": 1.1745,
      "longitude": 36.039,
      "admin_name1": "Turkana"
    },
    {
      "place_name": "Ainabkoi",
      "postal_code": "30101",
      "country_code": "KE",
      "latitude": 0.4637,
      "longitude": 35.3318,
      "admin_name1": "Uasin Gishu"
    },
    {
      "place_name": "Kainuk",
      "postal_code": "30604",
      "country_code": "KE",
      "latitude": 1.7744,
      "longitude": 35.5064,
      "admin_name1": "West Pokot"
    },
    {
      "place_name": "Mbagathi",
      "postal_code": "00503",
      "country_code": "KE",
      "latitude": -1.3817,
      "longitude": 36.7669,
      "admin_name1": "Nairobi"
    },
    {
      "place_name": "Kangemi",
      "postal_code": "00625",
      "country_code": "KE",
      "latitude": -1.2695,
      "longitude": 36.7436,
      "admin_name1": "Nairobi"
    },
    {
      "place_name": "Lukore",
      "postal_code": "80408",
      "country_code": "KE",
      "latitude": -4.3416,
      "longitude": 39.4333,
      "admin_name1": "Nairobi"
    },
    {
      "place_name": "Kavuti",
      "postal_code": "90405",
      "country_code": "KE",
      "latitude": -0.7581,
      "longitude": 38.1738,
      "admin_name1": "Nairobi"
    },
    {
      "place_name": "Sotik",
      "postal_code": "20406",
      "country_code": "KE",
      "latitude": -0.7813,
      "longitude": 35.3416,
      "admin_name1": "Bomet"
    },
    {
      "place_name": "Cheptalal",
      "postal_code": "20410",
      "country_code": "KE",
      "latitude": -0.6168,
      "longitude": 35.3753,
      "admin_name1": "Bomet"
    },
    {
      "place_name": "Sio Port",
      "postal_code": "50401",
      "country_code": "KE",
      "latitude": 0.2252,
      "longitude": 34.0221,
      "admin_name1": "Busia"
    },
    {
      "place_name": "Kipsaiya",
      "postal_code": "30705",
      "country_code": "KE",
      "latitude": 0.8943,
      "longitude": 35.5745,
      "admin_name1": "Elegeyo-Marakwet"
    },
    {
      "place_name": "Kapsumai",
      "postal_code": "30705",
      "country_code": "KE",
      "latitude": 0.8943,
      "longitude": 35.5745,
      "admin_name1": "Elegeyo-Marakwet"
    },
    {
      "place_name": "Butere",
      "postal_code": "50101",
      "country_code": "KE",
      "latitude": 0.2069,
      "longitude": 34.4901,
      "admin_name1": "Kakamega"
    },
    {
      "place_name": "Sorget",
      "postal_code": "20223",
      "country_code": "KE",
      "latitude": -0.0436,
      "longitude": 35.5343,
      "admin_name1": "Kericho"
    },
    {
      "place_name": "Kimulot",
      "postal_code": "20225",
      "country_code": "KE",
      "latitude": -0.3157,
      "longitude": 35.377,
      "admin_name1": "Kericho"
    },
    {
      "place_name": "Gathiru-Ini",
      "postal_code": "00239",
      "country_code": "KE",
      "latitude": -1.1702,
      "longitude": 36.8536,
      "admin_name1": "Kiambu"
    },
    {
      "place_name": "Wanguru",
      "postal_code": "10303",
      "country_code": "KE",
      "latitude": -0.6839,
      "longitude": 37.357,
      "admin_name1": "Kirinyaga"
    },
    {
      "place_name": "Kutus",
      "postal_code": "10304",
      "country_code": "KE",
      "latitude": -0.5753,
      "longitude": 37.3269,
      "admin_name1": "Kirinyaga"
    },
    {
      "place_name": "Nyangusu",
      "postal_code": "40218",
      "country_code": "KE",
      "latitude": -0.9326,
      "longitude": 34.8442,
      "admin_name1": "Kisii"
    },
    {
      "place_name": "Voo",
      "postal_code": "90212",
      "country_code": "KE",
      "latitude": -1.6674,
      "longitude": 38.3243,
      "admin_name1": "Kitui"
    },
    {
      "place_name": "Samburu",
      "postal_code": "80120",
      "country_code": "KE",
      "latitude": -3.7947,
      "longitude": 39.2637,
      "admin_name1": "Kwale"
    },
    {
      "place_name": "Kwale",
      "postal_code": "80403",
      "country_code": "KE",
      "latitude": -4.1737,
      "longitude": 39.4521,
      "admin_name1": "Kwale"
    },
    {
      "place_name": "Kasikeu",
      "postal_code": "90123",
      "country_code": "KE",
      "latitude": -1.9481,
      "longitude": 37.385,
      "admin_name1": "Makueni"
    },
    {
      "place_name": "Mombasa",
      "postal_code": "80100",
      "country_code": "KE",
      "latitude": -4.0547,
      "longitude": 39.6636,
      "admin_name1": "Mombasa"
    },
    {
      "place_name": "Kabatini",
      "postal_code": "20120",
      "country_code": "KE",
      "latitude": -0.2163,
      "longitude": 36.1631,
      "admin_name1": "Nakuru"
    },
    {
      "place_name": "Milton Siding",
      "postal_code": "20123",
      "country_code": "KE",
      "latitude": -0.1695,
      "longitude": 35.9972,
      "admin_name1": "Nakuru"
    },
    {
      "place_name": "Siaya",
      "postal_code": "40600",
      "country_code": "KE",
      "latitude": 0.0607,
      "longitude": 34.2881,
      "admin_name1": "Siaya"
    },
    {
      "place_name": "Werugha",
      "postal_code": "80303",
      "country_code": "KE",
      "latitude": -3.4192,
      "longitude": 38.3346,
      "admin_name1": "Taita Taveta"
    },
    {
      "place_name": "Chiakanyinga",
      "postal_code": "60410",
      "country_code": "KE",
      "latitude": -0.322,
      "longitude": 37.7202,
      "admin_name1": "Tharaka - Nithi"
    },
    {
      "place_name": "Huduma Chuka",
      "postal_code": "60411",
      "country_code": "KE",
      "latitude": -0.322,
      "longitude": 37.7202,
      "admin_name1": "Tharaka - Nithi"
    },
    {
      "place_name": "Huduma Lodwar",
      "postal_code": "30505",
      "country_code": "KE",
      "latitude": 3.4515,
      "longitude": 35.4289,
      "admin_name1": "Turkana"
    },
    {
      "place_name": "Nguyoini",
      "postal_code": "10224",
      "country_code": "KE",
      "latitude": -0.7043,
      "longitude": 36.8438,
      "admin_name1": "Nairobi"
    },
    {
      "place_name": "Mashini",
      "postal_code": "80312",
      "country_code": "KE",
      "latitude": -3.4369,
      "longitude": 38.4157,
      "admin_name1": "Nairobi"
    },
    {
      "place_name": "Sangurur",
      "postal_code": "30705",
      "country_code": "KE",
      "latitude": 0.8943,
      "longitude": 35.5745,
      "admin_name1": "Elegeyo-Marakwet"
    },
    {
      "place_name": "Oriang",
      "postal_code": "40227",
      "country_code": "KE",
      "latitude": -0.4457,
      "longitude": 34.9296,
      "admin_name1": "Homa Bay"
    },
    {
      "place_name": "Nyandhiwa",
      "postal_code": "40333",
      "country_code": "KE",
      "latitude": -0.7227,
      "longitude": 34.0591,
      "admin_name1": "Homa Bay"
    },
    {
      "place_name": "Lunza",
      "postal_code": "50119",
      "country_code": "KE",
      "latitude": 0.238,
      "longitude": 34.5525,
      "admin_name1": "Kakamega"
    },
    {
      "place_name": "Milimani",
      "postal_code": "50138",
      "country_code": "KE",
      "latitude": 0.3562,
      "longitude": 34.6952,
      "admin_name1": "Kakamega"
    },
    {
      "place_name": "Roret",
      "postal_code": "20204",
      "country_code": "KE",
      "latitude": -0.505,
      "longitude": 35.0995,
      "admin_name1": "Kericho"
    },
    {
      "place_name": "Litein",
      "postal_code": "20210",
      "country_code": "KE",
      "latitude": -0.5825,
      "longitude": 35.1897,
      "admin_name1": "Kericho"
    },
    {
      "place_name": "Oboch",
      "postal_code": "40129",
      "country_code": "KE",
      "latitude": -0.2038,
      "longitude": 34.8578,
      "admin_name1": "Kisumu"
    },
    {
      "place_name": "Lunga Lunga",
      "postal_code": "80402",
      "country_code": "KE",
      "latitude": -4.5528,
      "longitude": 39.1236,
      "admin_name1": "Kwale"
    },
    {
      "place_name": "Elwak",
      "postal_code": "70301",
      "country_code": "KE",
      "latitude": 3.9373,
      "longitude": 41.8569,
      "admin_name1": "Mandera"
    },
    {
      "place_name": "Bondeni",
      "postal_code": "20101",
      "country_code": "KE",
      "latitude": -0.1683,
      "longitude": 35.9149,
      "admin_name1": "Nakuru"
    },
    {
      "place_name": "Rongai",
      "postal_code": "20108",
      "country_code": "KE",
      "latitude": -0.1734,
      "longitude": 35.8631,
      "admin_name1": "Nakuru"
    },
    {
      "place_name": "Kabiyet",
      "postal_code": "30303",
      "country_code": "KE",
      "latitude": 0.4045,
      "longitude": 35.086,
      "admin_name1": "Nandi"
    },
    {
      "place_name": "Mosoriot",
      "postal_code": "30307",
      "country_code": "KE",
      "latitude": 0.3206,
      "longitude": 35.176,
      "admin_name1": "Nandi"
    },
    {
      "place_name": "Sigomre",
      "postal_code": "40635",
      "country_code": "KE",
      "latitude": -0.0436,
      "longitude": 34.2607,
      "admin_name1": "Siaya"
    },
    {
      "place_name": "Chuka",
      "postal_code": "60400",
      "country_code": "KE",
      "latitude": -0.3332,
      "longitude": 37.6459,
      "admin_name1": "Tharaka - Nithi"
    },
    {
      "place_name": "Kiptabach",
      "postal_code": "30118",
      "country_code": "KE",
      "latitude": 0.3691,
      "longitude": 35.435,
      "admin_name1": "Uasin Gishu"
    },
    {
      "place_name": "Kacheliba",
      "postal_code": "30601",
      "country_code": "KE",
      "latitude": 1.4805,
      "longitude": 35.0121,
      "admin_name1": "West Pokot"
    },
    {
      "place_name": "City Square",
      "postal_code": "00200",
      "country_code": "KE",
      "latitude": -1.595,
      "longitude": 36.6506,
      "admin_name1": "Nairobi"
    },
    {
      "place_name": "Ngong Road",
      "postal_code": "00505",
      "country_code": "KE",
      "latitude": -1.3574,
      "longitude": 36.7416,
      "admin_name1": "Nairobi"
    },
    {
      "place_name": "Muthaiga",
      "postal_code": "00619",
      "country_code": "KE",
      "latitude": -1.2534,
      "longitude": 36.8347,
      "admin_name1": "Nairobi"
    },
    {
      "place_name": "Othoch Rapwong",
      "postal_code": "40411",
      "country_code": "KE",
      "latitude": -1.1455,
      "longitude": 34.5363,
      "admin_name1": "Nairobi"
    },
    {
      "place_name": "Kitivo",
      "postal_code": "80316",
      "country_code": "KE",
      "latitude": -3.4369,
      "longitude": 38.4157,
      "admin_name1": "Nairobi"
    },
    {
      "place_name": "Busia",
      "postal_code": "50400",
      "country_code": "KE",
      "latitude": 0.46,
      "longitude": 34.1117,
      "admin_name1": "Busia"
    },
    {
      "place_name": "Murumba",
      "postal_code": "50426",
      "country_code": "KE",
      "latitude": 0.4152,
      "longitude": 34.2428,
      "admin_name1": "Busia"
    },
    {
      "place_name": "Kiambere",
      "postal_code": "60109",
      "country_code": "KE",
      "latitude": -0.6952,
      "longitude": 37.7945,
      "admin_name1": "Embu"
    },
    {
      "place_name": "Bura Tana",
      "postal_code": "70104",
      "country_code": "KE",
      "latitude": -0.6276,
      "longitude": 39.996,
      "admin_name1": "Garissa"
    },
    {
      "place_name": "Kilifi",
      "postal_code": "80108",
      "country_code": "KE",
      "latitude": -3.6305,
      "longitude": 39.8499,
      "admin_name1": "Kilifi"
    },
    {
      "place_name": "Kirinyaga",
      "postal_code": "10301",
      "country_code": "KE",
      "latitude": -0.5534,
      "longitude": 37.2991,
      "admin_name1": "Kirinyaga"
    },
    {
      "place_name": "Matinyani",
      "postal_code": "90210",
      "country_code": "KE",
      "latitude": -1.3085,
      "longitude": 37.9917,
      "admin_name1": "Kitui"
    },
    {
      "place_name": "Katse",
      "postal_code": "90404",
      "country_code": "KE",
      "latitude": -0.5076,
      "longitude": 38.0818,
      "admin_name1": "Kitui"
    },
    {
      "place_name": "Machakos",
      "postal_code": "90100",
      "country_code": "KE",
      "latitude": -1.5223,
      "longitude": 37.2652,
      "admin_name1": "Machakos"
    },
    {
      "place_name": "Chumvi",
      "postal_code": "90147",
      "country_code": "KE",
      "latitude": -1.8179,
      "longitude": 37.5371,
      "admin_name1": "Machakos"
    },
    {
      "place_name": "Ikalaasa",
      "postal_code": "90135",
      "country_code": "KE",
      "latitude": -1.5538,
      "longitude": 37.4607,
      "admin_name1": "Makueni"
    },
    {
      "place_name": "Nyatike",
      "postal_code": "40402",
      "country_code": "KE",
      "latitude": -0.936,
      "longitude": 34.4175,
      "admin_name1": "Migori"
    },
    {
      "place_name": "Rongo",
      "postal_code": "40404",
      "country_code": "KE",
      "latitude": -0.7568,
      "longitude": 34.5983,
      "admin_name1": "Migori"
    },
    {
      "place_name": "Kenol",
      "postal_code": "01020",
      "country_code": "KE",
      "latitude": -0.9373,
      "longitude": 37.1228,
      "admin_name1": "Murang'A"
    },
    {
      "place_name": "Kamahuha",
      "postal_code": "10217",
      "country_code": "KE",
      "latitude": -0.8422,
      "longitude": 37.1792,
      "admin_name1": "Murang'A"
    },
    {
      "place_name": "Kiptangwanyi",
      "postal_code": "20133",
      "country_code": "KE",
      "latitude": -0.4477,
      "longitude": 35.633,
      "admin_name1": "Nakuru"
    },
    {
      "place_name": "Kapsabet",
      "postal_code": "30300",
      "country_code": "KE",
      "latitude": 0.2039,
      "longitude": 35.105,
      "admin_name1": "Nandi"
    },
    {
      "place_name": "Wanjohi",
      "postal_code": "20305",
      "country_code": "KE",
      "latitude": -0.356,
      "longitude": 36.5363,
      "admin_name1": "Nyandarua"
    },
    {
      "place_name": "Mweiga",
      "postal_code": "10104",
      "country_code": "KE",
      "latitude": -0.3198,
      "longitude": 36.9019,
      "admin_name1": "Nyeri"
    },
    {
      "place_name": "Ndori",
      "postal_code": "40602",
      "country_code": "KE",
      "latitude": -0.0789,
      "longitude": 34.3633,
      "admin_name1": "Siaya"
    },
    {
      "place_name": "Ukwala",
      "postal_code": "40607",
      "country_code": "KE",
      "latitude": 0.1926,
      "longitude": 34.1872,
      "admin_name1": "Siaya"
    },
    {
      "place_name": "Tingwangi",
      "postal_code": "40645",
      "country_code": "KE",
      "latitude": -0.0069,
      "longitude": 34.3068,
      "admin_name1": "Siaya"
    },
    {
      "place_name": "Lokori",
      "postal_code": "30506",
      "country_code": "KE",
      "latitude": 3.4515,
      "longitude": 35.4289,
      "admin_name1": "Turkana"
    },
    {
      "place_name": "Ndere",
      "postal_code": "40629",
      "country_code": "KE",
      "latitude": -0.0173,
      "longitude": 34.3346,
      "admin_name1": "Nairobi"
    },
    {
      "place_name": "Torongo",
      "postal_code": "20153",
      "country_code": "KE",
      "latitude": 0.1249,
      "longitude": 35.5987,
      "admin_name1": "Baringo"
    },
    {
      "place_name": "Kimilili",
      "postal_code": "50204",
      "country_code": "KE",
      "latitude": 0.7877,
      "longitude": 34.7156,
      "admin_name1": "Bungoma"
    },
    {
      "place_name": "Bokoli",
      "postal_code": "50206",
      "country_code": "KE",
      "latitude": 0.7101,
      "longitude": 34.6626,
      "admin_name1": "Bungoma"
    },
    {
      "place_name": "Kamuriai",
      "postal_code": "50408",
      "country_code": "KE",
      "latitude": 0.3758,
      "longitude": 34.188,
      "admin_name1": "Busia"
    },
    {
      "place_name": "Karingari",
      "postal_code": "60107",
      "country_code": "KE",
      "latitude": -0.4713,
      "longitude": 37.5063,
      "admin_name1": "Embu"
    },
    {
      "place_name": "Garba Tulla",
      "postal_code": "60301",
      "country_code": "KE",
      "latitude": 0.7109,
      "longitude": 38.1242,
      "admin_name1": "Isiolo"
    },
    {
      "place_name": "Imanga",
      "postal_code": "50112",
      "country_code": "KE",
      "latitude": 0.3025,
      "longitude": 34.7234,
      "admin_name1": "Kakamega"
    },
    {
      "place_name": "Kapkatet",
      "postal_code": "20214",
      "country_code": "KE",
      "latitude": -0.6297,
      "longitude": 35.1944,
      "admin_name1": "Kericho"
    },
    {
      "place_name": "Chemamul",
      "postal_code": "20222",
      "country_code": "KE",
      "latitude": -0.4217,
      "longitude": 35.1046,
      "admin_name1": "Kericho"
    },
    {
      "place_name": "Mogogosiek",
      "postal_code": "20403",
      "country_code": "KE",
      "latitude": -0.8182,
      "longitude": 35.2981,
      "admin_name1": "Kericho"
    },
    {
      "place_name": "Matathia",
      "postal_code": "00221",
      "country_code": "KE",
      "latitude": -1.0563,
      "longitude": 36.6579,
      "admin_name1": "Kiambu"
    },
    {
      "place_name": "Kirwara",
      "postal_code": "01018",
      "country_code": "KE",
      "latitude": -0.9784,
      "longitude": 37.02,
      "admin_name1": "Kiambu"
    },
    {
      "place_name": "Vitengeni",
      "postal_code": "80211",
      "country_code": "KE",
      "latitude": -3.3638,
      "longitude": 39.7103,
      "admin_name1": "Kilifi"
    },
    {
      "place_name": "Kathonzweni",
      "postal_code": "90302",
      "country_code": "KE",
      "latitude": -1.9137,
      "longitude": 37.7319,
      "admin_name1": "Makueni"
    },
    {
      "place_name": "Rapogi",
      "postal_code": "40403",
      "country_code": "KE",
      "latitude": -0.9081,
      "longitude": 34.473,
      "admin_name1": "Migori"
    },
    {
      "place_name": "Kagundu-Ini",
      "postal_code": "01033",
      "country_code": "KE",
      "latitude": -0.924,
      "longitude": 36.9372,
      "admin_name1": "Murang'A"
    },
    {
      "place_name": "Kigumo",
      "postal_code": "10203",
      "country_code": "KE",
      "latitude": -0.8021,
      "longitude": 36.9253,
      "admin_name1": "Murang'A"
    },
    {
      "place_name": "Nakuru",
      "postal_code": "20100",
      "country_code": "KE",
      "latitude": -0.3072,
      "longitude": 36.0722,
      "admin_name1": "Nakuru"
    },
    {
      "place_name": "Nzoia",
      "postal_code": "50237",
      "country_code": "KE",
      "latitude": 0.7183,
      "longitude": 34.7465,
      "admin_name1": "Nakuru"
    },
    {
      "place_name": "Keekorok",
      "postal_code": "20501",
      "country_code": "KE",
      "latitude": -1.5872,
      "longitude": 35.2352,
      "admin_name1": "Narok"
    },
    {
      "place_name": "Nairage Enkare",
      "postal_code": "20504",
      "country_code": "KE",
      "latitude": -1.334,
      "longitude": 35.5532,
      "admin_name1": "Narok"
    },
    {
      "place_name": "Kiunduani",
      "postal_code": "90148",
      "country_code": "KE",
      "latitude": -1.8179,
      "longitude": 37.5371,
      "admin_name1": "Narok"
    },
    {
      "place_name": "Gesima",
      "postal_code": "40503",
      "country_code": "KE",
      "latitude": -0.7107,
      "longitude": 34.9889,
      "admin_name1": "Nyamira"
    },
    {
      "place_name": "Gakere Road",
      "postal_code": "10109",
      "country_code": "KE",
      "latitude": -0.4334,
      "longitude": 36.9641,
      "admin_name1": "Nyeri"
    },
    {
      "place_name": "Mugunda",
      "postal_code": "10129",
      "country_code": "KE",
      "latitude": -0.1657,
      "longitude": 36.7023,
      "admin_name1": "Nyeri"
    },
    {
      "place_name": "Munyu",
      "postal_code": "10130",
      "country_code": "KE",
      "latitude": -0.4605,
      "longitude": 37.0307,
      "admin_name1": "Nyeri"
    },
    {
      "place_name": "Voi",
      "postal_code": "80300",
      "country_code": "KE",
      "latitude": -3.396,
      "longitude": 38.5561,
      "admin_name1": "Taita Taveta"
    },
    {
      "place_name": "Mgambonyi",
      "postal_code": "80313",
      "country_code": "KE",
      "latitude": -3.3442,
      "longitude": 38.3612,
      "admin_name1": "Taita Taveta"
    },
    {
      "place_name": "Ziwa",
      "postal_code": "30214",
      "country_code": "KE",
      "latitude": 0.9437,
      "longitude": 34.8458,
      "admin_name1": "Uasin Gishu"
    }
  ]
]