[
  [
    {
      "place_name": "Werellagama",
      "postal_code": "20080",
      "country_code": "LK",
      "latitude": 7.3167,
      "longitude": 80.5833,
      "admin_name1": "Central Province"
    },
    {
      "place_name": "Minigamuwa",
      "postal_code": "20109",
      "country_code": "LK",
      "latitude": 7.3376,
      "longitude": 80.5026,
      "admin_name1": "Central Province"
    },
    {
      "place_name": "Godamunna",
      "postal_code": "20214",
      "country_code": "LK",
      "latitude": 7.2305,
      "longitude": 80.6995,
      "admin_name1": "Central Province"
    },
    {
      "place_name": "Mapakanda",
      "postal_code": "20662",
      "country_code": "LK",
      "latitude": 7.0243,
      "longitude": 80.5504,
      "admin_name1": "Central Province"
    },
    {
      "place_name": "Leliambe",
      "postal_code": "21008",
      "country_code": "LK",
      "latitude": 7.4324,
      "longitude": 80.6501,
      "admin_name1": "Central Province"
    },
    {
      "place_name": "Kibissa",
      "postal_code": "21122",
      "country_code": "LK",
      "latitude": 7.9412,
      "longitude": 80.7252,
      "admin_name1": "Central Province"
    },
    {
      "place_name": "Mananwatta",
      "postal_code": "21144",
      "country_code": "LK",
      "latitude": 7.6168,
      "longitude": 80.6043,
      "admin_name1": "Central Province"
    },
    {
      "place_name": "Katukitula",
      "postal_code": "20588",
      "country_code": "LK",
      "latitude": 7.0741,
      "longitude": 80.6584,
      "admin_name1": "Central Province"
    },
    {
      "place_name": "Dayagama Bazaar",
      "postal_code": "22096",
      "country_code": "LK",
      "latitude": 6.9217,
      "longitude": 80.685,
      "admin_name1": "Central Province"
    },
    {
      "place_name": "Mipilimana",
      "postal_code": "22214",
      "country_code": "LK",
      "latitude": 6.873,
      "longitude": 80.8106,
      "admin_name1": "Central Province"
    },
    {
      "place_name": "Negampaha",
      "postal_code": "50180",
      "country_code": "LK",
      "latitude": 7.998,
      "longitude": 80.4595,
      "admin_name1": "North Central Province"
    },
    {
      "place_name": "Parangiyawadiya",
      "postal_code": "50354",
      "country_code": "LK",
      "latitude": 8.4945,
      "longitude": 80.8654,
      "admin_name1": "North Central Province"
    },
    {
      "place_name": "Wahamalgollewa",
      "postal_code": "50492",
      "country_code": "LK",
      "latitude": 8.4771,
      "longitude": 80.5173,
      "admin_name1": "North Central Province"
    },
    {
      "place_name": "Padavi Maithripura",
      "postal_code": "50572",
      "country_code": "LK",
      "latitude": 8.4941,
      "longitude": 80.4801,
      "admin_name1": "North Central Province"
    },
    {
      "place_name": "Kosgolla",
      "postal_code": "60029",
      "country_code": "LK",
      "latitude": 7.4052,
      "longitude": 80.3927,
      "admin_name1": "North Western Province"
    },
    {
      "place_name": "Anhandiya",
      "postal_code": "60074",
      "country_code": "LK",
      "latitude": 7.262,
      "longitude": 80.2651,
      "admin_name1": "North Western Province"
    },
    {
      "place_name": "Welpalla",
      "postal_code": "60206",
      "country_code": "LK",
      "latitude": 7.4374,
      "longitude": 80.0554,
      "admin_name1": "North Western Province"
    },
    {
      "place_name": "Thalahitimulla",
      "postal_code": "60208",
      "country_code": "LK",
      "latitude": 7.428,
      "longitude": 80.0194,
      "admin_name1": "North Western Province"
    },
    {
      "place_name": "Madakumburumulla",
      "postal_code": "60209",
      "country_code": "LK",
      "latitude": 7.442,
      "longitude": 79.993,
      "admin_name1": "North Western Province"
    },
    {
      "place_name": "Sirisetagama",
      "postal_code": "60478",
      "country_code": "LK",
      "latitude": 7.7777,
      "longitude": 80.1506,
      "admin_name1": "North Western Province"
    },
    {
      "place_name": "Hunupola",
      "postal_code": "60582",
      "country_code": "LK",
      "latitude": 7.6097,
      "longitude": 80.3925,
      "admin_name1": "North Western Province"
    },
    {
      "place_name": "Balalla",
      "postal_code": "60604",
      "country_code": "LK",
      "latitude": 7.8,
      "longitude": 80.25,
      "admin_name1": "North Western Province"
    },
    {
      "place_name": "Tambutta",
      "postal_code": "60734",
      "country_code": "LK",
      "latitude": 8.0806,
      "longitude": 80.2311,
      "admin_name1": "North Western Province"
    },
    {
      "place_name": "Kumarakattuwa",
      "postal_code": "61032",
      "country_code": "LK",
      "latitude": 7.6577,
      "longitude": 79.8982,
      "admin_name1": "North Western Province"
    },
    {
      "place_name": "Mahakumbukkadawala",
      "postal_code": "61272",
      "country_code": "LK",
      "latitude": 7.8393,
      "longitude": 79.8924,
      "admin_name1": "North Western Province"
    },
    {
      "place_name": "Gantuna",
      "postal_code": "71222",
      "country_code": "LK",
      "latitude": 7.173,
      "longitude": 80.3612,
      "admin_name1": "Sabaragamuwa Province"
    },
    {
      "place_name": "Bulathkohupitiya",
      "postal_code": "71230",
      "country_code": "LK",
      "latitude": 7.1032,
      "longitude": 80.3344,
      "admin_name1": "Sabaragamuwa Province"
    },
    {
      "place_name": "Galpatha(Sab)",
      "postal_code": "71312",
      "country_code": "LK",
      "latitude": 7.0494,
      "longitude": 80.2324,
      "admin_name1": "Sabaragamuwa Province"
    },
    {
      "place_name": "Atale",
      "postal_code": "71363",
      "country_code": "LK",
      "latitude": 7.1453,
      "longitude": 80.2839,
      "admin_name1": "Sabaragamuwa Province"
    },
    {
      "place_name": "Kotiyakumbura",
      "postal_code": "71370",
      "country_code": "LK",
      "latitude": 7.1238,
      "longitude": 80.2864,
      "admin_name1": "Sabaragamuwa Province"
    },
    {
      "place_name": "Miyanawita",
      "postal_code": "71432",
      "country_code": "LK",
      "latitude": 6.9037,
      "longitude": 80.35,
      "admin_name1": "Sabaragamuwa Province"
    },
    {
      "place_name": "Bopitiya (SAB)",
      "postal_code": "71612",
      "country_code": "LK",
      "latitude": 7.2523,
      "longitude": 80.2248,
      "admin_name1": "Sabaragamuwa Province"
    },
    {
      "place_name": "Dodampe",
      "postal_code": "70017",
      "country_code": "LK",
      "latitude": 6.7272,
      "longitude": 80.3255,
      "admin_name1": "Sabaragamuwa Province"
    },
    {
      "place_name": "Tanjantenna",
      "postal_code": "70118",
      "country_code": "LK",
      "latitude": 6.6328,
      "longitude": 80.8548,
      "admin_name1": "Sabaragamuwa Province"
    },
    {
      "place_name": "Ranwala",
      "postal_code": "70162",
      "country_code": "LK",
      "latitude": 6.9022,
      "longitude": 80.4267,
      "admin_name1": "Sabaragamuwa Province"
    },
    {
      "place_name": "Gangeyaya",
      "postal_code": "70195",
      "country_code": "LK",
      "latitude": 6.636,
      "longitude": 80.6645,
      "admin_name1": "Sabaragamuwa Province"
    },
    {
      "place_name": "Bulutota",
      "postal_code": "70346",
      "country_code": "LK",
      "latitude": 6.4357,
      "longitude": 80.6488,
      "admin_name1": "Sabaragamuwa Province"
    },
    {
      "place_name": "Kella Junction",
      "postal_code": "70352",
      "country_code": "LK",
      "latitude": 6.4021,
      "longitude": 80.6865,
      "admin_name1": "Sabaragamuwa Province"
    },
    {
      "place_name": "Ellagawa",
      "postal_code": "70492",
      "country_code": "LK",
      "latitude": 6.7359,
      "longitude": 80.2188,
      "admin_name1": "Sabaragamuwa Province"
    },
    {
      "place_name": "Hawpe",
      "postal_code": "80132",
      "country_code": "LK",
      "latitude": 6.1265,
      "longitude": 80.4898,
      "admin_name1": "Southern Province"
    },
    {
      "place_name": "Kananke Bazaar",
      "postal_code": "80136",
      "country_code": "LK",
      "latitude": 6.1265,
      "longitude": 80.4898,
      "admin_name1": "Southern Province"
    },
    {
      "place_name": "Malgalla Talangalla",
      "postal_code": "80144",
      "country_code": "LK",
      "latitude": 6.3285,
      "longitude": 80.2408,
      "admin_name1": "Southern Province"
    },
    {
      "place_name": "Tawalama",
      "postal_code": "80148",
      "country_code": "LK",
      "latitude": 6.3387,
      "longitude": 80.3437,
      "admin_name1": "Southern Province"
    },
    {
      "place_name": "Weihena",
      "postal_code": "80216",
      "country_code": "LK",
      "latitude": 6.2982,
      "longitude": 80.2463,
      "admin_name1": "Southern Province"
    },
    {
      "place_name": "Uragaha",
      "postal_code": "80352",
      "country_code": "LK",
      "latitude": 6.3589,
      "longitude": 80.1181,
      "admin_name1": "Southern Province"
    },
    {
      "place_name": "Rantotuwila",
      "postal_code": "80354",
      "country_code": "LK",
      "latitude": 6.3847,
      "longitude": 80.097,
      "admin_name1": "Southern Province"
    },
    {
      "place_name": "Uswewa",
      "postal_code": "82278",
      "country_code": "LK",
      "latitude": 6.2475,
      "longitude": 80.8628,
      "admin_name1": "Southern Province"
    },
    {
      "place_name": "Uda Gomadiya",
      "postal_code": "82504",
      "country_code": "LK",
      "latitude": 6.2683,
      "longitude": 80.6971,
      "admin_name1": "Southern Province"
    },
    {
      "place_name": "Gonagamuwa Uduwila",
      "postal_code": "82602",
      "country_code": "LK",
      "latitude": 6.2466,
      "longitude": 81.2933,
      "admin_name1": "Southern Province"
    },
    {
      "place_name": "Magama",
      "postal_code": "82608",
      "country_code": "LK",
      "latitude": 6.2167,
      "longitude": 81.3,
      "admin_name1": "Southern Province"
    },
    {
      "place_name": "Kirinda",
      "postal_code": "82614",
      "country_code": "LK",
      "latitude": 6.2186,
      "longitude": 81.3256,
      "admin_name1": "Southern Province"
    },
    {
      "place_name": "Kawantissapura",
      "postal_code": "82622",
      "country_code": "LK",
      "latitude": 6.2908,
      "longitude": 81.2463,
      "admin_name1": "Southern Province"
    },
    {
      "place_name": "Horapawita",
      "postal_code": "81108",
      "country_code": "LK",
      "latitude": 6.1069,
      "longitude": 80.5866,
      "admin_name1": "Southern Province"
    },
    {
      "place_name": "Paragala",
      "postal_code": "81474",
      "country_code": "LK",
      "latitude": 6.2328,
      "longitude": 80.5321,
      "admin_name1": "Southern Province"
    },
    {
      "place_name": "Waralla",
      "postal_code": "81479",
      "country_code": "LK",
      "latitude": 6.2739,
      "longitude": 80.5333,
      "admin_name1": "Southern Province"
    },
    {
      "place_name": "Penetiyana",
      "postal_code": "81722",
      "country_code": "LK",
      "latitude": 6.0333,
      "longitude": 80.45,
      "admin_name1": "Southern Province"
    },
    {
      "place_name": "Kahataruppa",
      "postal_code": "90052",
      "country_code": "LK",
      "latitude": 7.0333,
      "longitude": 81.1167,
      "admin_name1": "Province of Uva"
    },
    {
      "place_name": "Boragas",
      "postal_code": "90362",
      "country_code": "LK",
      "latitude": 6.9097,
      "longitude": 80.8356,
      "admin_name1": "Province of Uva"
    },
    {
      "place_name": "Sorabora Colony",
      "postal_code": "90718",
      "country_code": "LK",
      "latitude": 7.3583,
      "longitude": 81.1083,
      "admin_name1": "Province of Uva"
    },
    {
      "place_name": "Malgoda",
      "postal_code": "90754",
      "country_code": "LK",
      "latitude": 7.4,
      "longitude": 81.05,
      "admin_name1": "Province of Uva"
    },
    {
      "place_name": "Kotagama",
      "postal_code": "91512",
      "country_code": "LK",
      "latitude": 7.1236,
      "longitude": 81.1902,
      "admin_name1": "Province of Uva"
    },
    {
      "place_name": "Bambalapitiya",
      "postal_code": "00400",
      "country_code": "LK",
      "latitude": 6.8914,
      "longitude": 79.8522,
      "admin_name1": "Western Province"
    },
    {
      "place_name": "Handapangoda",
      "postal_code": "10524",
      "country_code": "LK",
      "latitude": 6.7939,
      "longitude": 80.1441,
      "admin_name1": "Western Province"
    },
    {
      "place_name": "Kolonnawa",
      "postal_code": "10600",
      "country_code": "LK",
      "latitude": 6.9329,
      "longitude": 79.8848,
      "admin_name1": "Western Province"
    },
    {
      "place_name": "Attanagalla",
      "postal_code": "11120",
      "country_code": "LK",
      "latitude": 7.1152,
      "longitude": 80.1341,
      "admin_name1": "Western Province"
    },
    {
      "place_name": "Mirigama",
      "postal_code": "11200",
      "country_code": "LK",
      "latitude": 7.2439,
      "longitude": 80.1212,
      "admin_name1": "Western Province"
    },
    {
      "place_name": "Kitulwala",
      "postal_code": "11242",
      "country_code": "LK",
      "latitude": 7.5034,
      "longitude": 80.5318,
      "admin_name1": "Western Province"
    },
    {
      "place_name": "Yakkala",
      "postal_code": "11870",
      "country_code": "LK",
      "latitude": 7.0869,
      "longitude": 80.0271,
      "admin_name1": "Western Province"
    },
    {
      "place_name": "Yatadolawatta",
      "postal_code": "12104",
      "country_code": "LK",
      "latitude": 6.5273,
      "longitude": 80.0631,
      "admin_name1": "Western Province"
    },
    {
      "place_name": "Nawattuduwa",
      "postal_code": "12106",
      "country_code": "LK",
      "latitude": 6.5042,
      "longitude": 80.0934,
      "admin_name1": "Western Province"
    },
    {
      "place_name": "Thambiluvil",
      "postal_code": "32415",
      "country_code": "LK",
      "latitude": 7.1326,
      "longitude": 81.8514,
      "admin_name1": "Eastern Province"
    },
    {
      "place_name": "Wanagamuwa",
      "postal_code": "32454",
      "country_code": "LK",
      "latitude": 7.1148,
      "longitude": 81.8541,
      "admin_name1": "Eastern Province"
    },
    {
      "place_name": "Unnichchai",
      "postal_code": "30364",
      "country_code": "LK",
      "latitude": 7.6167,
      "longitude": 81.55,
      "admin_name1": "Eastern Province"
    },
    {
      "place_name": "Vakarai",
      "postal_code": "30450",
      "country_code": "LK",
      "latitude": 8.1333,
      "longitude": 81.4333,
      "admin_name1": "Eastern Province"
    },
    {
      "place_name": "Nugaliyadda",
      "postal_code": "20204",
      "country_code": "LK",
      "latitude": 7.2291,
      "longitude": 80.6889,
      "admin_name1": "Central Province"
    },
    {
      "place_name": "Bawlana",
      "postal_code": "20218",
      "country_code": "LK",
      "latitude": 7.2278,
      "longitude": 80.7174,
      "admin_name1": "Central Province"
    },
    {
      "place_name": "Madawala Bazaar",
      "postal_code": "20260",
      "country_code": "LK",
      "latitude": 7.2574,
      "longitude": 80.6715,
      "admin_name1": "Central Province"
    },
    {
      "place_name": "Atabage",
      "postal_code": "20574",
      "country_code": "LK",
      "latitude": 7.1354,
      "longitude": 80.6091,
      "admin_name1": "Central Province"
    },
    {
      "place_name": "lllagolla",
      "postal_code": "20724",
      "country_code": "LK",
      "latitude": 7.1727,
      "longitude": 80.8149,
      "admin_name1": "Central Province"
    },
    {
      "place_name": "Ekiriya",
      "postal_code": "20732",
      "country_code": "LK",
      "latitude": 7.1474,
      "longitude": 80.7562,
      "admin_name1": "Central Province"
    },
    {
      "place_name": "Madulkele",
      "postal_code": "20840",
      "country_code": "LK",
      "latitude": 7.3979,
      "longitude": 80.731,
      "admin_name1": "Central Province"
    },
    {
      "place_name": "Udispattuwa",
      "postal_code": "20916",
      "country_code": "LK",
      "latitude": 7.3076,
      "longitude": 80.887,
      "admin_name1": "Central Province"
    },
    {
      "place_name": "Kalugala",
      "postal_code": "20926",
      "country_code": "LK",
      "latitude": 7.3833,
      "longitude": 80.8833,
      "admin_name1": "Central Province"
    },
    {
      "place_name": "Bopana",
      "postal_code": "20932",
      "country_code": "LK",
      "latitude": 7.3,
      "longitude": 80.9,
      "admin_name1": "Central Province"
    },
    {
      "place_name": "Kalundawa",
      "postal_code": "21112",
      "country_code": "LK",
      "latitude": 7.8,
      "longitude": 80.7167,
      "admin_name1": "Central Province"
    },
    {
      "place_name": "Mahawela",
      "postal_code": "21140",
      "country_code": "LK",
      "latitude": 7.5869,
      "longitude": 80.6072,
      "admin_name1": "Central Province"
    },
    {
      "place_name": "Galewela",
      "postal_code": "21200",
      "country_code": "LK",
      "latitude": 7.7589,
      "longitude": 80.5683,
      "admin_name1": "Central Province"
    },
    {
      "place_name": "Gangala Puwakpitiya",
      "postal_code": "21404",
      "country_code": "LK",
      "latitude": 7.5205,
      "longitude": 80.6798,
      "admin_name1": "Central Province"
    },
    {
      "place_name": "Keerthi Bandarapura",
      "postal_code": "22274",
      "country_code": "LK",
      "latitude": 7.1141,
      "longitude": 80.8511,
      "admin_name1": "Central Province"
    },
    {
      "place_name": "Nildandahinna",
      "postal_code": "22280",
      "country_code": "LK",
      "latitude": 7.0679,
      "longitude": 80.8939,
      "admin_name1": "Central Province"
    },
    {
      "place_name": "Uttimaduwa",
      "postal_code": "50067",
      "country_code": "LK",
      "latitude": 8.25,
      "longitude": 80.55,
      "admin_name1": "North Central Province"
    },
    {
      "place_name": "Maha Elagamuwa",
      "postal_code": "50126",
      "country_code": "LK",
      "latitude": 7.9865,
      "longitude": 80.6153,
      "admin_name1": "North Central Province"
    },
    {
      "place_name": "Galadivulwewa",
      "postal_code": "50210",
      "country_code": "LK",
      "latitude": 7.9218,
      "longitude": 80.0859,
      "admin_name1": "North Central Province"
    },
    {
      "place_name": "Dunumadalawa",
      "postal_code": "50214",
      "country_code": "LK",
      "latitude": 7.9169,
      "longitude": 80.0505,
      "admin_name1": "North Central Province"
    },
    {
      "place_name": "Pahalagama",
      "postal_code": "50244",
      "country_code": "LK",
      "latitude": 8.1988,
      "longitude": 80.2808,
      "admin_name1": "North Central Province"
    },
    {
      "place_name": "Rambewa",
      "postal_code": "50450",
      "country_code": "LK",
      "latitude": 8.4423,
      "longitude": 80.5054,
      "admin_name1": "North Central Province"
    },
    {
      "place_name": "Nuwaragala",
      "postal_code": "51039",
      "country_code": "LK",
      "latitude": 7.9167,
      "longitude": 80.55,
      "admin_name1": "North Central Province"
    },
    {
      "place_name": "Attanakadawala",
      "postal_code": "51235",
      "country_code": "LK",
      "latitude": 7.85,
      "longitude": 80.8667,
      "admin_name1": "North Central Province"
    },
    {
      "place_name": "Mahatalakolawewa",
      "postal_code": "51506",
      "country_code": "LK",
      "latitude": 7.9,
      "longitude": 80.4833,
      "admin_name1": "North Central Province"
    },
    {
      "place_name": "Meegaswewa",
      "postal_code": "51508",
      "country_code": "LK",
      "latitude": 7.9,
      "longitude": 80.4833,
      "admin_name1": "North Central Province"
    },
    {
      "place_name": "Kurunegala",
      "postal_code": "60000",
      "country_code": "LK",
      "latitude": 7.4863,
      "longitude": 80.3623,
      "admin_name1": "North Western Province"
    },
    {
      "place_name": "Alawatuwala",
      "postal_code": "60047",
      "country_code": "LK",
      "latitude": 7.5102,
      "longitude": 80.5211,
      "admin_name1": "North Western Province"
    },
    {
      "place_name": "Meetanwala",
      "postal_code": "60066",
      "country_code": "LK",
      "latitude": 7.2934,
      "longitude": 80.4557,
      "admin_name1": "North Western Province"
    },
    {
      "place_name": "Wellagala",
      "postal_code": "60402",
      "country_code": "LK",
      "latitude": 7.6176,
      "longitude": 80.2815,
      "admin_name1": "North Western Province"
    },
    {
      "place_name": "Weerapokuna",
      "postal_code": "60454",
      "country_code": "LK",
      "latitude": 7.6476,
      "longitude": 79.9904,
      "admin_name1": "North Western Province"
    },
    {
      "place_name": "Nikaweratiya",
      "postal_code": "60470",
      "country_code": "LK",
      "latitude": 7.7503,
      "longitude": 80.1159,
      "admin_name1": "North Western Province"
    },
    {
      "place_name": "Ulpotha Pallekele",
      "postal_code": "60622",
      "country_code": "LK",
      "latitude": 7.8071,
      "longitude": 80.4188,
      "admin_name1": "North Western Province"
    },
    {
      "place_name": "Usgala Siyabmalangamuwa",
      "postal_code": "60732",
      "country_code": "LK",
      "latitude": 8.0862,
      "longitude": 80.2271,
      "admin_name1": "North Western Province"
    },
    {
      "place_name": "Eluwankulama",
      "postal_code": "61308",
      "country_code": "LK",
      "latitude": 8.0362,
      "longitude": 79.8283,
      "admin_name1": "North Western Province"
    },
    {
      "place_name": "Dewalegama",
      "postal_code": "71050",
      "country_code": "LK",
      "latitude": 7.2801,
      "longitude": 80.3186,
      "admin_name1": "Sabaragamuwa Province"
    },
    {
      "place_name": "Maharangalla",
      "postal_code": "71211",
      "country_code": "LK",
      "latitude": 7.2094,
      "longitude": 80.358,
      "admin_name1": "Sabaragamuwa Province"
    },
    {
      "place_name": "Pitagaldeniya",
      "postal_code": "71360",
      "country_code": "LK",
      "latitude": 7.1453,
      "longitude": 80.2839,
      "admin_name1": "Sabaragamuwa Province"
    },
    {
      "place_name": "Talgaspitiya",
      "postal_code": "71541",
      "country_code": "LK",
      "latitude": 7.1647,
      "longitude": 80.4793,
      "admin_name1": "Sabaragamuwa Province"
    },
    {
      "place_name": "Warakapola",
      "postal_code": "71600",
      "country_code": "LK",
      "latitude": 7.2226,
      "longitude": 80.1887,
      "admin_name1": "Sabaragamuwa Province"
    },
    {
      "place_name": "Elapatha",
      "postal_code": "70032",
      "country_code": "LK",
      "latitude": 6.6546,
      "longitude": 80.3712,
      "admin_name1": "Sabaragamuwa Province"
    },
    {
      "place_name": "Gallella",
      "postal_code": "70062",
      "country_code": "LK",
      "latitude": 6.855,
      "longitude": 80.3554,
      "admin_name1": "Sabaragamuwa Province"
    },
    {
      "place_name": "Godakawela",
      "postal_code": "70160",
      "country_code": "LK",
      "latitude": 6.5063,
      "longitude": 80.6434,
      "admin_name1": "Sabaragamuwa Province"
    },
    {
      "place_name": "Kalawana",
      "postal_code": "70450",
      "country_code": "LK",
      "latitude": 6.5391,
      "longitude": 80.4039,
      "admin_name1": "Sabaragamuwa Province"
    },
    {
      "place_name": "Ellaulla",
      "postal_code": "70552",
      "country_code": "LK",
      "latitude": 6.8559,
      "longitude": 80.3123,
      "admin_name1": "Sabaragamuwa Province"
    },
    {
      "place_name": "Gintota",
      "postal_code": "80280",
      "country_code": "LK",
      "latitude": 6.0559,
      "longitude": 80.1774,
      "admin_name1": "Southern Province"
    },
    {
      "place_name": "Talgaswela",
      "postal_code": "80470",
      "country_code": "LK",
      "latitude": 6.2995,
      "longitude": 80.1968,
      "admin_name1": "Southern Province"
    },
    {
      "place_name": "Bentota",
      "postal_code": "80500",
      "country_code": "LK",
      "latitude": 6.4254,
      "longitude": 79.9948,
      "admin_name1": "Southern Province"
    },
    {
      "place_name": "Gonagalpura",
      "postal_code": "80502",
      "country_code": "LK",
      "latitude": 6.4015,
      "longitude": 80.0291,
      "admin_name1": "Southern Province"
    },
    {
      "place_name": "Balapitiya",
      "postal_code": "80550",
      "country_code": "LK",
      "latitude": 6.278,
      "longitude": 80.0366,
      "admin_name1": "Southern Province"
    },
    {
      "place_name": "Medamulana",
      "postal_code": "82254",
      "country_code": "LK",
      "latitude": 6.1783,
      "longitude": 80.7692,
      "admin_name1": "Southern Province"
    },
    {
      "place_name": "Karagoda Uyangoda",
      "postal_code": "81082",
      "country_code": "LK",
      "latitude": 6.0249,
      "longitude": 80.5641,
      "admin_name1": "Southern Province"
    },
    {
      "place_name": "Pitabeddara",
      "postal_code": "81450",
      "country_code": "LK",
      "latitude": 6.2014,
      "longitude": 80.4593,
      "admin_name1": "Southern Province"
    },
    {
      "place_name": "Uva Karandagolla",
      "postal_code": "90091",
      "country_code": "LK",
      "latitude": 6.8336,
      "longitude": 81.0705,
      "admin_name1": "Province of Uva"
    },
    {
      "place_name": "Uduhawara",
      "postal_code": "90226",
      "country_code": "LK",
      "latitude": 6.9667,
      "longitude": 80.8667,
      "admin_name1": "Province of Uva"
    },
    {
      "place_name": "Pitamaruwa",
      "postal_code": "90544",
      "country_code": "LK",
      "latitude": 7.1162,
      "longitude": 81.1262,
      "admin_name1": "Province of Uva"
    },
    {
      "place_name": "Namunukula",
      "postal_code": "90580",
      "country_code": "LK",
      "latitude": 6.9041,
      "longitude": 81.1211,
      "admin_name1": "Province of Uva"
    },
    {
      "place_name": "Hebarawa",
      "postal_code": "90724",
      "country_code": "LK",
      "latitude": 7.2221,
      "longitude": 81.0612,
      "admin_name1": "Province of Uva"
    },
    {
      "place_name": "Ettiliwewa",
      "postal_code": "91250",
      "country_code": "LK",
      "latitude": 6.682,
      "longitude": 81.1048,
      "admin_name1": "Province of Uva"
    },
    {
      "place_name": "Suriara",
      "postal_code": "91306",
      "country_code": "LK",
      "latitude": 6.4555,
      "longitude": 81.0577,
      "admin_name1": "Province of Uva"
    },
    {
      "place_name": "Colpetty",
      "postal_code": "00300",
      "country_code": "LK",
      "latitude": 6.8833,
      "longitude": 79.85,
      "admin_name1": "Western Province"
    },
    {
      "place_name": "Avissawella",
      "postal_code": "10700",
      "country_code": "LK",
      "latitude": 6.953,
      "longitude": 80.2075,
      "admin_name1": "Western Province"
    },
    {
      "place_name": "Mudungoda",
      "postal_code": "11056",
      "country_code": "LK",
      "latitude": 7.061,
      "longitude": 80.0049,
      "admin_name1": "Western Province"
    },
    {
      "place_name": "Urapola",
      "postal_code": "11126",
      "country_code": "LK",
      "latitude": 7.0987,
      "longitude": 80.143,
      "admin_name1": "Western Province"
    },
    {
      "place_name": "Dagonna",
      "postal_code": "11524",
      "country_code": "LK",
      "latitude": 7.2219,
      "longitude": 79.9279,
      "admin_name1": "Western Province"
    },
    {
      "place_name": "Mahagama",
      "postal_code": "12210",
      "country_code": "LK",
      "latitude": 6.6167,
      "longitude": 80.1667,
      "admin_name1": "Western Province"
    },
    {
      "place_name": "Hulannuge",
      "postal_code": "32514",
      "country_code": "LK",
      "latitude": 6.914,
      "longitude": 81.6639,
      "admin_name1": "Eastern Province"
    },
    {
      "place_name": "Kannankudah",
      "postal_code": "30016",
      "country_code": "LK",
      "latitude": 7.6798,
      "longitude": 81.6702,
      "admin_name1": "Eastern Province"
    },
    {
      "place_name": "Puthukudiyiruppu",
      "postal_code": "30158",
      "country_code": "LK",
      "latitude": 7.6333,
      "longitude": 81.75,
      "admin_name1": "Eastern Province"
    },
    {
      "place_name": "Thettativu",
      "postal_code": "30196",
      "country_code": "LK",
      "latitude": 7.5855,
      "longitude": 81.7831,
      "admin_name1": "Eastern Province"
    },
    {
      "place_name": "Lankapatuna",
      "postal_code": "31234",
      "country_code": "LK",
      "latitude": 8.4477,
      "longitude": 81.2874,
      "admin_name1": "Eastern Province"
    },
    {
      "place_name": "Jaffna",
      "postal_code": "40000",
      "country_code": "LK",
      "latitude": 9.6684,
      "longitude": 80.0074,
      "admin_name1": "Northern Province"
    },
    {
      "place_name": "Etulgama",
      "postal_code": "20202",
      "country_code": "LK",
      "latitude": 7.2425,
      "longitude": 80.6687,
      "admin_name1": "Central Province"
    },
    {
      "place_name": "Kapuliyadde",
      "postal_code": "20206",
      "country_code": "LK",
      "latitude": 7.2408,
      "longitude": 80.6825,
      "admin_name1": "Central Province"
    },
    {
      "place_name": "Kolabissa",
      "postal_code": "20212",
      "country_code": "LK",
      "latitude": 7.2278,
      "longitude": 80.7174,
      "admin_name1": "Central Province"
    },
    {
      "place_name": "Doluwa",
      "postal_code": "20532",
      "country_code": "LK",
      "latitude": 7.1794,
      "longitude": 80.598,
      "admin_name1": "Central Province"
    },
    {
      "place_name": "Pupuressa",
      "postal_code": "20546",
      "country_code": "LK",
      "latitude": 7.1262,
      "longitude": 80.6692,
      "admin_name1": "Central Province"
    },
    {
      "place_name": "Teldeniya",
      "postal_code": "20900",
      "country_code": "LK",
      "latitude": 7.2969,
      "longitude": 80.7686,
      "admin_name1": "Central Province"
    },
    {
      "place_name": "Ududumbara",
      "postal_code": "20950",
      "country_code": "LK",
      "latitude": 7.3076,
      "longitude": 80.887,
      "admin_name1": "Central Province"
    },
    {
      "place_name": "Weragantota",
      "postal_code": "20982",
      "country_code": "LK",
      "latitude": 7.3167,
      "longitude": 80.9833,
      "admin_name1": "Central Province"
    },
    {
      "place_name": "Yatawatta",
      "postal_code": "21056",
      "country_code": "LK",
      "latitude": 7.5649,
      "longitude": 80.5821,
      "admin_name1": "Central Province"
    },
    {
      "place_name": "Ukuwela",
      "postal_code": "21300",
      "country_code": "LK",
      "latitude": 7.4228,
      "longitude": 80.6167,
      "admin_name1": "Central Province"
    },
    {
      "place_name": "Ranamuregama",
      "postal_code": "21524",
      "country_code": "LK",
      "latitude": 7.6622,
      "longitude": 80.7728,
      "admin_name1": "Central Province"
    },
    {
      "place_name": "Wijebahukanda",
      "postal_code": "22018",
      "country_code": "LK",
      "latitude": 7.011,
      "longitude": 80.6238,
      "admin_name1": "Central Province"
    },
    {
      "place_name": "Pundaluoya",
      "postal_code": "22120",
      "country_code": "LK",
      "latitude": 7.0151,
      "longitude": 80.6697,
      "admin_name1": "Central Province"
    },
    {
      "place_name": "Walapane",
      "postal_code": "22270",
      "country_code": "LK",
      "latitude": 7.1141,
      "longitude": 80.8511,
      "admin_name1": "Central Province"
    },
    {
      "place_name": "Viharapalugama",
      "postal_code": "50012",
      "country_code": "LK",
      "latitude": 8.3955,
      "longitude": 80.3103,
      "admin_name1": "North Central Province"
    },
    {
      "place_name": "Galnewa",
      "postal_code": "50170",
      "country_code": "LK",
      "latitude": 8.0257,
      "longitude": 80.4803,
      "admin_name1": "North Central Province"
    },
    {
      "place_name": "Rajanganaya",
      "postal_code": "50246",
      "country_code": "LK",
      "latitude": 8.062,
      "longitude": 80.251,
      "admin_name1": "North Central Province"
    },
    {
      "place_name": "Kahatagasdigiliya",
      "postal_code": "50320",
      "country_code": "LK",
      "latitude": 8.4214,
      "longitude": 80.6865,
      "admin_name1": "North Central Province"
    },
    {
      "place_name": "Walahaviddawewa",
      "postal_code": "50516",
      "country_code": "LK",
      "latitude": 8.4941,
      "longitude": 80.4801,
      "admin_name1": "North Central Province"
    },
    {
      "place_name": "Jayanthipura",
      "postal_code": "51024",
      "country_code": "LK",
      "latitude": 8.0,
      "longitude": 81.0,
      "admin_name1": "North Central Province"
    },
    {
      "place_name": "Welikanda",
      "postal_code": "51070",
      "country_code": "LK",
      "latitude": 7.9516,
      "longitude": 81.2452,
      "admin_name1": "North Central Province"
    },
    {
      "place_name": "Diyabeduma",
      "postal_code": "51225",
      "country_code": "LK",
      "latitude": 7.8833,
      "longitude": 80.8833,
      "admin_name1": "North Central Province"
    },
    {
      "place_name": "Dambadeniya",
      "postal_code": "60130",
      "country_code": "LK",
      "latitude": 7.3633,
      "longitude": 80.1653,
      "admin_name1": "North Western Province"
    },
    {
      "place_name": "Wariyapola",
      "postal_code": "60400",
      "country_code": "LK",
      "latitude": 7.6177,
      "longitude": 80.245,
      "admin_name1": "North Western Province"
    },
    {
      "place_name": "Mahagirilla",
      "postal_code": "60479",
      "country_code": "LK",
      "latitude": 7.8333,
      "longitude": 80.1333,
      "admin_name1": "North Western Province"
    },
    {
      "place_name": "Moragollagama",
      "postal_code": "60640",
      "country_code": "LK",
      "latitude": 7.75,
      "longitude": 80.3,
      "admin_name1": "North Western Province"
    },
    {
      "place_name": "Wannikudawewa",
      "postal_code": "60721",
      "country_code": "LK",
      "latitude": 8.0107,
      "longitude": 80.2979,
      "admin_name1": "North Western Province"
    },
    {
      "place_name": "Pahalagiribawa",
      "postal_code": "60735",
      "country_code": "LK",
      "latitude": 8.0862,
      "longitude": 80.2271,
      "admin_name1": "North Western Province"
    },
    {
      "place_name": "Muttibendiwila",
      "postal_code": "61195",
      "country_code": "LK",
      "latitude": 7.4541,
      "longitude": 79.8806,
      "admin_name1": "North Western Province"
    },
    {
      "place_name": "Marawila",
      "postal_code": "61210",
      "country_code": "LK",
      "latitude": 7.4106,
      "longitude": 79.828,
      "admin_name1": "North Western Province"
    },
    {
      "place_name": "Kudawewa",
      "postal_code": "61226",
      "country_code": "LK",
      "latitude": 7.8857,
      "longitude": 80.0312,
      "admin_name1": "North Western Province"
    },
    {
      "place_name": "Galmuruwa",
      "postal_code": "61233",
      "country_code": "LK",
      "latitude": 7.5,
      "longitude": 79.8833,
      "admin_name1": "North Western Province"
    },
    {
      "place_name": "Rambukkana",
      "postal_code": "71100",
      "country_code": "LK",
      "latitude": 7.3164,
      "longitude": 80.3906,
      "admin_name1": "Sabaragamuwa Province"
    },
    {
      "place_name": "Welihelatenna",
      "postal_code": "71712",
      "country_code": "LK",
      "latitude": 7.0281,
      "longitude": 80.3348,
      "admin_name1": "Sabaragamuwa Province"
    },
    {
      "place_name": "Mahabage",
      "postal_code": "71722",
      "country_code": "LK",
      "latitude": 7.0225,
      "longitude": 80.4333,
      "admin_name1": "Sabaragamuwa Province"
    },
    {
      "place_name": "Dambuluwana",
      "postal_code": "70019",
      "country_code": "LK",
      "latitude": 6.7105,
      "longitude": 80.3324,
      "admin_name1": "Sabaragamuwa Province"
    },
    {
      "place_name": "Mahawalatenna",
      "postal_code": "70112",
      "country_code": "LK",
      "latitude": 6.5881,
      "longitude": 80.746,
      "admin_name1": "Sabaragamuwa Province"
    },
    {
      "place_name": "Halpe",
      "postal_code": "70145",
      "country_code": "LK",
      "latitude": 6.7181,
      "longitude": 80.7671,
      "admin_name1": "Sabaragamuwa Province"
    },
    {
      "place_name": "Veddagala",
      "postal_code": "70459",
      "country_code": "LK",
      "latitude": 6.4574,
      "longitude": 80.4381,
      "admin_name1": "Sabaragamuwa Province"
    },
    {
      "place_name": "Kottawagama",
      "postal_code": "80062",
      "country_code": "LK",
      "latitude": 6.1439,
      "longitude": 80.3353,
      "admin_name1": "Southern Province"
    },
    {
      "place_name": "Udugama",
      "postal_code": "80070",
      "country_code": "LK",
      "latitude": 6.2211,
      "longitude": 80.3336,
      "admin_name1": "Southern Province"
    },
    {
      "place_name": "Meda-Keembiya",
      "postal_code": "80092",
      "country_code": "LK",
      "latitude": 6.1818,
      "longitude": 80.3036,
      "admin_name1": "Southern Province"
    },
    {
      "place_name": "Wanchawela",
      "postal_code": "80120",
      "country_code": "LK",
      "latitude": 6.0359,
      "longitude": 80.3156,
      "admin_name1": "Southern Province"
    },
    {
      "place_name": "Ambalantota",
      "postal_code": "82100",
      "country_code": "LK",
      "latitude": 6.1196,
      "longitude": 81.0214,
      "admin_name1": "Southern Province"
    },
    {
      "place_name": "Palatuwa",
      "postal_code": "81050",
      "country_code": "LK",
      "latitude": 5.9833,
      "longitude": 80.5167,
      "admin_name1": "Southern Province"
    },
    {
      "place_name": "Mulatiyana Junction",
      "postal_code": "81071",
      "country_code": "LK",
      "latitude": 6.1919,
      "longitude": 80.5697,
      "admin_name1": "Southern Province"
    },
    {
      "place_name": "Gomilamawarala",
      "postal_code": "81072",
      "country_code": "LK",
      "latitude": 6.1919,
      "longitude": 80.5697,
      "admin_name1": "Southern Province"
    },
    {
      "place_name": "Dikwella",
      "postal_code": "81200",
      "country_code": "LK",
      "latitude": 5.9667,
      "longitude": 80.6833,
      "admin_name1": "Southern Province"
    },
    {
      "place_name": "Mirissa",
      "postal_code": "81740",
      "country_code": "LK",
      "latitude": 5.9333,
      "longitude": 80.45,
      "admin_name1": "Southern Province"
    },
    {
      "place_name": "Jangulla",
      "postal_code": "90063",
      "country_code": "LK",
      "latitude": 7.0218,
      "longitude": 80.9957,
      "admin_name1": "Province of Uva"
    },
    {
      "place_name": "Galauda",
      "postal_code": "90065",
      "country_code": "LK",
      "latitude": 7.034,
      "longitude": 80.9861,
      "admin_name1": "Province of Uva"
    },
    {
      "place_name": "Ettampitiya",
      "postal_code": "90140",
      "country_code": "LK",
      "latitude": 6.9387,
      "longitude": 80.9717,
      "admin_name1": "Province of Uva"
    },
    {
      "place_name": "Akkarasiyaya",
      "postal_code": "90166",
      "country_code": "LK",
      "latitude": 6.7797,
      "longitude": 80.9208,
      "admin_name1": "Province of Uva"
    },
    {
      "place_name": "Soragune",
      "postal_code": "90183",
      "country_code": "LK",
      "latitude": 6.8294,
      "longitude": 80.8806,
      "admin_name1": "Province of Uva"
    },
    {
      "place_name": "Koslanda",
      "postal_code": "90190",
      "country_code": "LK",
      "latitude": 6.7434,
      "longitude": 81.0189,
      "admin_name1": "Province of Uva"
    },
    {
      "place_name": "Puhulpola",
      "postal_code": "90212",
      "country_code": "LK",
      "latitude": 6.9028,
      "longitude": 80.9238,
      "admin_name1": "Province of Uva"
    },
    {
      "place_name": "Ethimalewewa",
      "postal_code": "91020",
      "country_code": "LK",
      "latitude": 6.7689,
      "longitude": 81.4863,
      "admin_name1": "Province of Uva"
    },
    {
      "place_name": "Nelliyadda",
      "postal_code": "91042",
      "country_code": "LK",
      "latitude": 7.2233,
      "longitude": 81.541,
      "admin_name1": "Province of Uva"
    },
    {
      "place_name": "Athurugiriya",
      "postal_code": "10150",
      "country_code": "LK",
      "latitude": 6.8687,
      "longitude": 79.9998,
      "admin_name1": "Western Province"
    },
    {
      "place_name": "Deltara",
      "postal_code": "10302",
      "country_code": "LK",
      "latitude": 6.7841,
      "longitude": 79.9117,
      "admin_name1": "Western Province"
    },
    {
      "place_name": "Ellakkala",
      "postal_code": "11116",
      "country_code": "LK",
      "latitude": 7.144,
      "longitude": 80.1241,
      "admin_name1": "Western Province"
    },
    {
      "place_name": "Alawala",
      "postal_code": "11122",
      "country_code": "LK",
      "latitude": 7.1202,
      "longitude": 80.1815,
      "admin_name1": "Western Province"
    },
    {
      "place_name": "Kitulgoda",
      "postal_code": "12222",
      "country_code": "LK",
      "latitude": 6.4996,
      "longitude": 80.1807,
      "admin_name1": "Western Province"
    },
    {
      "place_name": "Gonapola Junction",
      "postal_code": "12410",
      "country_code": "LK",
      "latitude": 6.6927,
      "longitude": 80.0326,
      "admin_name1": "Western Province"
    },
    {
      "place_name": "Deegawapiya",
      "postal_code": "32006",
      "country_code": "LK",
      "latitude": 7.2975,
      "longitude": 81.682,
      "admin_name1": "Eastern Province"
    },
    {
      "place_name": "Werunketagoda",
      "postal_code": "32062",
      "country_code": "LK",
      "latitude": 7.4083,
      "longitude": 81.6333,
      "admin_name1": "Eastern Province"
    },
    {
      "place_name": "Chinabay",
      "postal_code": "31050",
      "country_code": "LK",
      "latitude": 8.5164,
      "longitude": 81.1891,
      "admin_name1": "Eastern Province"
    },
    {
      "place_name": "Handawalapitiya",
      "postal_code": "20438",
      "country_code": "LK",
      "latitude": 7.1944,
      "longitude": 80.6917,
      "admin_name1": "Central Province"
    },
    {
      "place_name": "Udawatta",
      "postal_code": "20722",
      "country_code": "LK",
      "latitude": 7.1727,
      "longitude": 80.8149,
      "admin_name1": "Central Province"
    },
    {
      "place_name": "Katudeniya",
      "postal_code": "21016",
      "country_code": "LK",
      "latitude": 7.3058,
      "longitude": 80.0814,
      "admin_name1": "Central Province"
    },
    {
      "place_name": "Kiwula",
      "postal_code": "21042",
      "country_code": "LK",
      "latitude": 7.5193,
      "longitude": 80.5657,
      "admin_name1": "Central Province"
    },
    {
      "place_name": "Kongahawela",
      "postal_code": "21500",
      "country_code": "LK",
      "latitude": 7.6742,
      "longitude": 80.7171,
      "admin_name1": "Central Province"
    },
    {
      "place_name": "Maraka",
      "postal_code": "21554",
      "country_code": "LK",
      "latitude": 7.5833,
      "longitude": 80.9667,
      "admin_name1": "Central Province"
    },
    {
      "place_name": "Labukele",
      "postal_code": "20592",
      "country_code": "LK",
      "latitude": 7.0457,
      "longitude": 80.6876,
      "admin_name1": "Central Province"
    },
    {
      "place_name": "Nissanka Uyana",
      "postal_code": "22075",
      "country_code": "LK",
      "latitude": 6.8343,
      "longitude": 80.5676,
      "admin_name1": "Central Province"
    },
    {
      "place_name": "Nachchaduwa",
      "postal_code": "50046",
      "country_code": "LK",
      "latitude": 8.2667,
      "longitude": 80.4667,
      "admin_name1": "North Central Province"
    },
    {
      "place_name": "Kirigalwewa",
      "postal_code": "50511",
      "country_code": "LK",
      "latitude": 8.4941,
      "longitude": 80.4801,
      "admin_name1": "North Central Province"
    },
    {
      "place_name": "Kahatagollewa",
      "postal_code": "50562",
      "country_code": "LK",
      "latitude": 8.4445,
      "longitude": 80.647,
      "admin_name1": "North Central Province"
    },
    {
      "place_name": "Welioya Project",
      "postal_code": "50586",
      "country_code": "LK",
      "latitude": 8.4941,
      "longitude": 80.4801,
      "admin_name1": "North Central Province"
    },
    {
      "place_name": "Palugasdamana",
      "postal_code": "51046",
      "country_code": "LK",
      "latitude": 8.0167,
      "longitude": 81.0833,
      "admin_name1": "North Central Province"
    },
    {
      "place_name": "Mahawela Sinhapura",
      "postal_code": "51076",
      "country_code": "LK",
      "latitude": 7.9516,
      "longitude": 81.2452,
      "admin_name1": "North Central Province"
    },
    {
      "place_name": "Ihala Gomugomuwa",
      "postal_code": "60211",
      "country_code": "LK",
      "latitude": 7.5135,
      "longitude": 80.0754,
      "admin_name1": "North Western Province"
    },
    {
      "place_name": "Wennoruwa",
      "postal_code": "60284",
      "country_code": "LK",
      "latitude": 7.3646,
      "longitude": 80.2183,
      "admin_name1": "North Western Province"
    },
    {
      "place_name": "Kosdeniya",
      "postal_code": "60356",
      "country_code": "LK",
      "latitude": 7.5724,
      "longitude": 80.1397,
      "admin_name1": "North Western Province"
    },
    {
      "place_name": "Madahapola",
      "postal_code": "60552",
      "country_code": "LK",
      "latitude": 7.7061,
      "longitude": 80.4964,
      "admin_name1": "North Western Province"
    },
    {
      "place_name": "Meegalawa",
      "postal_code": "60750",
      "country_code": "LK",
      "latitude": 7.9935,
      "longitude": 80.381,
      "admin_name1": "North Western Province"
    },
    {
      "place_name": "Madampe",
      "postal_code": "61230",
      "country_code": "LK",
      "latitude": 7.4979,
      "longitude": 79.8381,
      "admin_name1": "North Western Province"
    },
    {
      "place_name": "Dunumala",
      "postal_code": "71605",
      "country_code": "LK",
      "latitude": 7.1746,
      "longitude": 80.2058,
      "admin_name1": "Sabaragamuwa Province"
    },
    {
      "place_name": "Weeoya",
      "postal_code": "71702",
      "country_code": "LK",
      "latitude": 7.0549,
      "longitude": 80.3693,
      "admin_name1": "Sabaragamuwa Province"
    },
    {
      "place_name": "Lellopitiya",
      "postal_code": "70056",
      "country_code": "LK",
      "latitude": 6.6627,
      "longitude": 80.4847,
      "admin_name1": "Sabaragamuwa Province"
    },
    {
      "place_name": "Talakolahinna",
      "postal_code": "70101",
      "country_code": "LK",
      "latitude": 6.6112,
      "longitude": 80.7142,
      "admin_name1": "Sabaragamuwa Province"
    },
    {
      "place_name": "Handagiriya",
      "postal_code": "70106",
      "country_code": "LK",
      "latitude": 6.5239,
      "longitude": 80.8085,
      "admin_name1": "Sabaragamuwa Province"
    },
    {
      "place_name": "Kaltota",
      "postal_code": "70122",
      "country_code": "LK",
      "latitude": 6.6821,
      "longitude": 80.6757,
      "admin_name1": "Sabaragamuwa Province"
    },
    {
      "place_name": "Belihuloya",
      "postal_code": "70140",
      "country_code": "LK",
      "latitude": 6.7181,
      "longitude": 80.7671,
      "admin_name1": "Sabaragamuwa Province"
    },
    {
      "place_name": "Sudagala",
      "postal_code": "70502",
      "country_code": "LK",
      "latitude": 6.7928,
      "longitude": 80.3913,
      "admin_name1": "Sabaragamuwa Province"
    },
    {
      "place_name": "Yatalamatta",
      "postal_code": "80107",
      "country_code": "LK",
      "latitude": 6.1619,
      "longitude": 80.2766,
      "admin_name1": "Southern Province"
    },
    {
      "place_name": "Karagoda",
      "postal_code": "80151",
      "country_code": "LK",
      "latitude": 6.0931,
      "longitude": 80.3781,
      "admin_name1": "Southern Province"
    },
    {
      "place_name": "Weeraketiya",
      "postal_code": "82240",
      "country_code": "LK",
      "latitude": 6.151,
      "longitude": 80.7643,
      "admin_name1": "Southern Province"
    },
    {
      "place_name": "Kirama",
      "postal_code": "82550",
      "country_code": "LK",
      "latitude": 6.2098,
      "longitude": 80.6632,
      "admin_name1": "Southern Province"
    },
    {
      "place_name": "Pahala Millawa",
      "postal_code": "81472",
      "country_code": "LK",
      "latitude": 6.297,
      "longitude": 80.469,
      "admin_name1": "Southern Province"
    },
    {
      "place_name": "Kotapola",
      "postal_code": "81480",
      "country_code": "LK",
      "latitude": 6.296,
      "longitude": 80.5421,
      "admin_name1": "Southern Province"
    },
    {
      "place_name": "Denipitiya",
      "postal_code": "81730",
      "country_code": "LK",
      "latitude": 5.9667,
      "longitude": 80.45,
      "admin_name1": "Southern Province"
    },
    {
      "place_name": "Uva Uduwara",
      "postal_code": "90061",
      "country_code": "LK",
      "latitude": 7.0218,
      "longitude": 80.9957,
      "admin_name1": "Province of Uva"
    },
    {
      "place_name": "Gawarawela",
      "postal_code": "90082",
      "country_code": "LK",
      "latitude": 6.9,
      "longitude": 81.0639,
      "admin_name1": "Province of Uva"
    },
    {
      "place_name": "Maspanna",
      "postal_code": "90328",
      "country_code": "LK",
      "latitude": 7.0167,
      "longitude": 80.95,
      "admin_name1": "Province of Uva"
    },
    {
      "place_name": "Kotamuduna",
      "postal_code": "90506",
      "country_code": "LK",
      "latitude": 6.8929,
      "longitude": 81.1841,
      "admin_name1": "Province of Uva"
    },
    {
      "place_name": "Arawatta",
      "postal_code": "90712",
      "country_code": "LK",
      "latitude": 7.3333,
      "longitude": 81.05,
      "admin_name1": "Province of Uva"
    },
    {
      "place_name": "Idalgashinna",
      "postal_code": "96167",
      "country_code": "LK",
      "latitude": 6.7819,
      "longitude": 80.8931,
      "admin_name1": "Province of Uva"
    },
    {
      "place_name": "Nakkala",
      "postal_code": "91003",
      "country_code": "LK",
      "latitude": 6.8875,
      "longitude": 81.2939,
      "admin_name1": "Province of Uva"
    },
    {
      "place_name": "Obbegoda",
      "postal_code": "91007",
      "country_code": "LK",
      "latitude": 6.9242,
      "longitude": 81.3493,
      "admin_name1": "Province of Uva"
    },
    {
      "place_name": "Buddama",
      "postal_code": "91038",
      "country_code": "LK",
      "latitude": 7.0434,
      "longitude": 81.4838,
      "admin_name1": "Province of Uva"
    },
    {
      "place_name": "Kumbukkana",
      "postal_code": "91098",
      "country_code": "LK",
      "latitude": 6.8235,
      "longitude": 81.3068,
      "admin_name1": "Province of Uva"
    },
    {
      "place_name": "Kandawinna",
      "postal_code": "91552",
      "country_code": "LK",
      "latitude": 6.9979,
      "longitude": 81.2821,
      "admin_name1": "Province of Uva"
    },
    {
      "place_name": "Kaduwela",
      "postal_code": "10640",
      "country_code": "LK",
      "latitude": 6.9339,
      "longitude": 79.982,
      "admin_name1": "Western Province"
    },
    {
      "place_name": "Hewainna",
      "postal_code": "10714",
      "country_code": "LK",
      "latitude": 7.0999,
      "longitude": 80.0944,
      "admin_name1": "Western Province"
    },
    {
      "place_name": "Bemmulla",
      "postal_code": "11040",
      "country_code": "LK",
      "latitude": 7.1229,
      "longitude": 80.0239,
      "admin_name1": "Western Province"
    },
    {
      "place_name": "Negombo",
      "postal_code": "11500",
      "country_code": "LK",
      "latitude": 7.2083,
      "longitude": 79.8358,
      "admin_name1": "Western Province"
    },
    {
      "place_name": "Imbulgoda",
      "postal_code": "11856",
      "country_code": "LK",
      "latitude": 7.0376,
      "longitude": 79.9913,
      "admin_name1": "Western Province"
    },
    {
      "place_name": "Debahera",
      "postal_code": "11889",
      "country_code": "LK",
      "latitude": 7.1426,
      "longitude": 80.0938,
      "admin_name1": "Western Province"
    },
    {
      "place_name": "Danowita",
      "postal_code": "11896",
      "country_code": "LK",
      "latitude": 7.207,
      "longitude": 80.1769,
      "admin_name1": "Western Province"
    },
    {
      "place_name": "Karativu",
      "postal_code": "32250",
      "country_code": "LK",
      "latitude": 7.3833,
      "longitude": 81.8333,
      "admin_name1": "Eastern Province"
    },
    {
      "place_name": "Kalkudah",
      "postal_code": "30410",
      "country_code": "LK",
      "latitude": 7.9167,
      "longitude": 81.5667,
      "admin_name1": "Eastern Province"
    },
    {
      "place_name": "Maharugiramam",
      "postal_code": "31106",
      "country_code": "LK",
      "latitude": 8.4981,
      "longitude": 81.1779,
      "admin_name1": "Eastern Province"
    },
    {
      "place_name": "Somapura",
      "postal_code": "31222",
      "country_code": "LK",
      "latitude": 8.4477,
      "longitude": 81.2874,
      "admin_name1": "Eastern Province"
    },
    {
      "place_name": "Mannar",
      "postal_code": "41000",
      "country_code": "LK",
      "latitude": 8.9833,
      "longitude": 79.9,
      "admin_name1": "Northern Province"
    },
    {
      "place_name": "Gallellagama",
      "postal_code": "20095",
      "country_code": "LK",
      "latitude": 7.4012,
      "longitude": 80.5289,
      "admin_name1": "Central Province"
    },
    {
      "place_name": "Peradeniya",
      "postal_code": "20400",
      "country_code": "LK",
      "latitude": 7.2622,
      "longitude": 80.5841,
      "admin_name1": "Central Province"
    },
    {
      "place_name": "Udahentenna",
      "postal_code": "20506",
      "country_code": "LK",
      "latitude": 7.0969,
      "longitude": 80.5128,
      "admin_name1": "Central Province"
    },
    {
      "place_name": "Muruthagahamulla",
      "postal_code": "20526",
      "country_code": "LK",
      "latitude": 7.1049,
      "longitude": 80.5917,
      "admin_name1": "Central Province"
    },
    {
      "place_name": "Wattegama",
      "postal_code": "20810",
      "country_code": "LK",
      "latitude": 7.3493,
      "longitude": 80.6808,
      "admin_name1": "Central Province"
    },
    {
      "place_name": "Etanawala",
      "postal_code": "21402",
      "country_code": "LK",
      "latitude": 7.5205,
      "longitude": 80.6798,
      "admin_name1": "Central Province"
    },
    {
      "place_name": "Pitawala",
      "postal_code": "20682",
      "country_code": "LK",
      "latitude": 6.9984,
      "longitude": 80.4513,
      "admin_name1": "Central Province"
    },
    {
      "place_name": "Kelanigama",
      "postal_code": "20688",
      "country_code": "LK",
      "latitude": 6.9826,
      "longitude": 80.4772,
      "admin_name1": "Central Province"
    },
    {
      "place_name": "Morahenagama",
      "postal_code": "22036",
      "country_code": "LK",
      "latitude": 6.9268,
      "longitude": 80.4888,
      "admin_name1": "Central Province"
    },
    {
      "place_name": "Norwood",
      "postal_code": "22058",
      "country_code": "LK",
      "latitude": 6.8377,
      "longitude": 80.6079,
      "admin_name1": "Central Province"
    },
    {
      "place_name": "Habarana",
      "postal_code": "50150",
      "country_code": "LK",
      "latitude": 8.0363,
      "longitude": 80.7467,
      "admin_name1": "North Central Province"
    },
    {
      "place_name": "Hurigaswewa",
      "postal_code": "50176",
      "country_code": "LK",
      "latitude": 8.0759,
      "longitude": 80.373,
      "admin_name1": "North Central Province"
    },
    {
      "place_name": "Siyambalewa",
      "postal_code": "50184",
      "country_code": "LK",
      "latitude": 7.9474,
      "longitude": 80.5172,
      "admin_name1": "North Central Province"
    },
    {
      "place_name": "Gemunupura",
      "postal_code": "50224",
      "country_code": "LK",
      "latitude": 8.1929,
      "longitude": 80.1457,
      "admin_name1": "North Central Province"
    },
    {
      "place_name": "Kapugallawa",
      "postal_code": "50370",
      "country_code": "LK",
      "latitude": 8.3558,
      "longitude": 80.6894,
      "admin_name1": "North Central Province"
    },
    {
      "place_name": "Alahitiyawa",
      "postal_code": "60182",
      "country_code": "LK",
      "latitude": 7.4741,
      "longitude": 80.1709,
      "admin_name1": "North Western Province"
    },
    {
      "place_name": "Watuwatta",
      "postal_code": "60262",
      "country_code": "LK",
      "latitude": 7.5241,
      "longitude": 79.9193,
      "admin_name1": "North Western Province"
    },
    {
      "place_name": "Thambagalla",
      "postal_code": "60584",
      "country_code": "LK",
      "latitude": 7.6097,
      "longitude": 80.3925,
      "admin_name1": "North Western Province"
    },
    {
      "place_name": "Ridibendiella",
      "postal_code": "60606",
      "country_code": "LK",
      "latitude": 7.802,
      "longitude": 80.287,
      "admin_name1": "North Western Province"
    },
    {
      "place_name": "Dankotuwa",
      "postal_code": "61130",
      "country_code": "LK",
      "latitude": 7.2964,
      "longitude": 79.8715,
      "admin_name1": "North Western Province"
    },
    {
      "place_name": "Mahawewa",
      "postal_code": "61220",
      "country_code": "LK",
      "latitude": 7.5139,
      "longitude": 79.9207,
      "admin_name1": "North Western Province"
    },
    {
      "place_name": "Mudalakkuliya",
      "postal_code": "61506",
      "country_code": "LK",
      "latitude": 7.8124,
      "longitude": 79.96,
      "admin_name1": "North Western Province"
    },
    {
      "place_name": "Mahapallegama",
      "postal_code": "71063",
      "country_code": "LK",
      "latitude": 7.3605,
      "longitude": 80.0911,
      "admin_name1": "Sabaragamuwa Province"
    },
    {
      "place_name": "Niyadurupola",
      "postal_code": "71602",
      "country_code": "LK",
      "latitude": 7.1665,
      "longitude": 80.2189,
      "admin_name1": "Sabaragamuwa Province"
    },
    {
      "place_name": "Tholangamuwa",
      "postal_code": "71619",
      "country_code": "LK",
      "latitude": 7.2347,
      "longitude": 80.2239,
      "admin_name1": "Sabaragamuwa Province"
    },
    {
      "place_name": "Madalagama",
      "postal_code": "70158",
      "country_code": "LK",
      "latitude": 6.5317,
      "longitude": 80.515,
      "admin_name1": "Sabaragamuwa Province"
    },
    {
      "place_name": "Mulendiyawala",
      "postal_code": "70212",
      "country_code": "LK",
      "latitude": 6.2945,
      "longitude": 80.7625,
      "admin_name1": "Sabaragamuwa Province"
    },
    {
      "place_name": "Nivitigala",
      "postal_code": "70400",
      "country_code": "LK",
      "latitude": 6.6094,
      "longitude": 80.4186,
      "admin_name1": "Sabaragamuwa Province"
    },
    {
      "place_name": "Warukandeniya",
      "postal_code": "80084",
      "country_code": "LK",
      "latitude": 6.3834,
      "longitude": 80.4182,
      "admin_name1": "Southern Province"
    },
    {
      "place_name": "Boossa",
      "postal_code": "80270",
      "country_code": "LK",
      "latitude": 6.0733,
      "longitude": 80.1577,
      "admin_name1": "Southern Province"
    },
    {
      "place_name": "Lunama",
      "postal_code": "82108",
      "country_code": "LK",
      "latitude": 6.1074,
      "longitude": 80.9783,
      "admin_name1": "Southern Province"
    },
    {
      "place_name": "Hungama",
      "postal_code": "82120",
      "country_code": "LK",
      "latitude": 6.1087,
      "longitude": 80.9309,
      "admin_name1": "Southern Province"
    },
    {
      "place_name": "Katuwana",
      "postal_code": "82500",
      "country_code": "LK",
      "latitude": 6.2683,
      "longitude": 80.6971,
      "admin_name1": "Southern Province"
    },
    {
      "place_name": "Telijjawila",
      "postal_code": "81060",
      "country_code": "LK",
      "latitude": 6.0249,
      "longitude": 80.5641,
      "admin_name1": "Southern Province"
    },
    {
      "place_name": "Dellawa",
      "postal_code": "81477",
      "country_code": "LK",
      "latitude": 6.3355,
      "longitude": 80.4488,
      "admin_name1": "Southern Province"
    },
    {
      "place_name": "Arawa",
      "postal_code": "90017",
      "country_code": "LK",
      "latitude": 7.1591,
      "longitude": 81.0761,
      "admin_name1": "Province of Uva"
    },
    {
      "place_name": "Demodara",
      "postal_code": "90080",
      "country_code": "LK",
      "latitude": 6.9002,
      "longitude": 81.0555,
      "admin_name1": "Province of Uva"
    },
    {
      "place_name": "Diyatalawa",
      "postal_code": "90150",
      "country_code": "LK",
      "latitude": 6.8007,
      "longitude": 80.9546,
      "admin_name1": "Province of Uva"
    },
    {
      "place_name": "Ratkarawwa",
      "postal_code": "90164",
      "country_code": "LK",
      "latitude": 6.8,
      "longitude": 80.9167,
      "admin_name1": "Province of Uva"
    },
    {
      "place_name": "Ambagasdowa",
      "postal_code": "90300",
      "country_code": "LK",
      "latitude": 6.9232,
      "longitude": 80.8936,
      "admin_name1": "Province of Uva"
    },
    {
      "place_name": "Wedikumbura",
      "postal_code": "91005",
      "country_code": "LK",
      "latitude": 6.8349,
      "longitude": 81.3879,
      "admin_name1": "Province of Uva"
    },
    {
      "place_name": "Wilaoya",
      "postal_code": "91022",
      "country_code": "LK",
      "latitude": 6.8261,
      "longitude": 81.4907,
      "admin_name1": "Province of Uva"
    },
    {
      "place_name": "Balaharuwa",
      "postal_code": "91295",
      "country_code": "LK",
      "latitude": 6.5716,
      "longitude": 81.049,
      "admin_name1": "Province of Uva"
    },
    {
      "place_name": "Kataragama",
      "postal_code": "91400",
      "country_code": "LK",
      "latitude": 6.4134,
      "longitude": 81.3346,
      "admin_name1": "Province of Uva"
    },
    {
      "place_name": "Bibile",
      "postal_code": "91500",
      "country_code": "LK",
      "latitude": 7.1577,
      "longitude": 81.2192,
      "admin_name1": "Province of Uva"
    },
    {
      "place_name": "Nannapurawa",
      "postal_code": "91519",
      "country_code": "LK",
      "latitude": 7.0847,
      "longitude": 81.2629,
      "admin_name1": "Province of Uva"
    },
    {
      "place_name": "Demanhandiya",
      "postal_code": "11270",
      "country_code": "LK",
      "latitude": 7.2282,
      "longitude": 79.8964,
      "admin_name1": "Western Province"
    },
    {
      "place_name": "Kandana",
      "postal_code": "11320",
      "country_code": "LK",
      "latitude": 7.048,
      "longitude": 79.8937,
      "admin_name1": "Western Province"
    },
    {
      "place_name": "Tebuwana",
      "postal_code": "12025",
      "country_code": "LK",
      "latitude": 6.5829,
      "longitude": 80.0466,
      "admin_name1": "Western Province"
    },
    {
      "place_name": "Matugama",
      "postal_code": "12100",
      "country_code": "LK",
      "latitude": 6.5204,
      "longitude": 80.1128,
      "admin_name1": "Western Province"
    },
    {
      "place_name": "Anguruwatota",
      "postal_code": "12320",
      "country_code": "LK",
      "latitude": 6.6383,
      "longitude": 80.0861,
      "admin_name1": "Western Province"
    },
    {
      "place_name": "Millaniya",
      "postal_code": "12412",
      "country_code": "LK",
      "latitude": 6.6927,
      "longitude": 80.0326,
      "admin_name1": "Western Province"
    },
    {
      "place_name": "Pannalagama",
      "postal_code": "32022",
      "country_code": "LK",
      "latitude": 7.0724,
      "longitude": 81.6065,
      "admin_name1": "Eastern Province"
    },
    {
      "place_name": "Samanthurai",
      "postal_code": "32200",
      "country_code": "LK",
      "latitude": 7.3833,
      "longitude": 81.8333,
      "admin_name1": "Eastern Province"
    },
    {
      "place_name": "Marathamune",
      "postal_code": "32314",
      "country_code": "LK",
      "latitude": 7.45,
      "longitude": 81.8167,
      "admin_name1": "Eastern Province"
    },
    {
      "place_name": "Yatihalagala",
      "postal_code": "20034",
      "country_code": "LK",
      "latitude": 7.2932,
      "longitude": 80.5982,
      "admin_name1": "Central Province"
    },
    {
      "place_name": "Murutalawa",
      "postal_code": "20232",
      "country_code": "LK",
      "latitude": 7.2928,
      "longitude": 80.572,
      "admin_name1": "Central Province"
    },
    {
      "place_name": "Dolosbage",
      "postal_code": "20510",
      "country_code": "LK",
      "latitude": 7.0808,
      "longitude": 80.4693,
      "admin_name1": "Central Province"
    },
    {
      "place_name": "Madawala Ulpotha",
      "postal_code": "21074",
      "country_code": "LK",
      "latitude": 7.6083,
      "longitude": 80.6595,
      "admin_name1": "Central Province"
    },
    {
      "place_name": "Erawula Junction",
      "postal_code": "21108",
      "country_code": "LK",
      "latitude": 7.8633,
      "longitude": 80.6842,
      "admin_name1": "Central Province"
    },
    {
      "place_name": "Inamaluwa",
      "postal_code": "21124",
      "country_code": "LK",
      "latitude": 7.9314,
      "longitude": 80.6845,
      "admin_name1": "Central Province"
    },
    {
      "place_name": "Ambatalawa",
      "postal_code": "20686",
      "country_code": "LK",
      "latitude": 6.9658,
      "longitude": 80.4958,
      "admin_name1": "Central Province"
    },
    {
      "place_name": "Padiyapelella",
      "postal_code": "20750",
      "country_code": "LK",
      "latitude": 7.0877,
      "longitude": 80.8044,
      "admin_name1": "Central Province"
    },
    {
      "place_name": "Hangarapitiya",
      "postal_code": "22044",
      "country_code": "LK",
      "latitude": 6.9182,
      "longitude": 80.472,
      "admin_name1": "Central Province"
    },
    {
      "place_name": "Andiyagala",
      "postal_code": "50112",
      "country_code": "LK",
      "latitude": 7.9,
      "longitude": 80.5261,
      "admin_name1": "North Central Province"
    },
    {
      "place_name": "lhala Halmillewa",
      "postal_code": "50262",
      "country_code": "LK",
      "latitude": 7.8817,
      "longitude": 80.4772,
      "admin_name1": "North Central Province"
    },
    {
      "place_name": "Maradankalla",
      "postal_code": "50308",
      "country_code": "LK",
      "latitude": 8.3593,
      "longitude": 80.5103,
      "admin_name1": "North Central Province"
    },
    {
      "place_name": "Welimuwapotana",
      "postal_code": "50358",
      "country_code": "LK",
      "latitude": 8.3889,
      "longitude": 80.766,
      "admin_name1": "North Central Province"
    },
    {
      "place_name": "Halmillawetiya",
      "postal_code": "50552",
      "country_code": "LK",
      "latitude": 8.3407,
      "longitude": 80.2796,
      "admin_name1": "North Central Province"
    },
    {
      "place_name": "Lakshauyana",
      "postal_code": "51006",
      "country_code": "LK",
      "latitude": 7.9615,
      "longitude": 81.043,
      "admin_name1": "North Central Province"
    },
    {
      "place_name": "Pelatiyawa",
      "postal_code": "51033",
      "country_code": "LK",
      "latitude": 7.9167,
      "longitude": 80.55,
      "admin_name1": "North Central Province"
    },
    {
      "place_name": "Medirigiriya",
      "postal_code": "51500",
      "country_code": "LK",
      "latitude": 7.9,
      "longitude": 80.4833,
      "admin_name1": "North Central Province"
    },
    {
      "place_name": "Magulagama",
      "postal_code": "60221",
      "country_code": "LK",
      "latitude": 7.5413,
      "longitude": 80.0941,
      "admin_name1": "North Western Province"
    },
    {
      "place_name": "Nawatalwatta",
      "postal_code": "60292",
      "country_code": "LK",
      "latitude": 7.4558,
      "longitude": 80.0511,
      "admin_name1": "North Western Province"
    },
    {
      "place_name": "Kimbulwanaoya",
      "postal_code": "60548",
      "country_code": "LK",
      "latitude": 7.6668,
      "longitude": 80.4796,
      "admin_name1": "North Western Province"
    },
    {
      "place_name": "Thalakolawewa",
      "postal_code": "60624",
      "country_code": "LK",
      "latitude": 7.8,
      "longitude": 80.4333,
      "admin_name1": "North Western Province"
    },
    {
      "place_name": "Panirendawa",
      "postal_code": "61234",
      "country_code": "LK",
      "latitude": 7.5575,
      "longitude": 79.8846,
      "admin_name1": "North Western Province"
    },
    {
      "place_name": "Tabbowa",
      "postal_code": "61322",
      "country_code": "LK",
      "latitude": 8.0993,
      "longitude": 79.8684,
      "admin_name1": "North Western Province"
    },
    {
      "place_name": "Kirimundalama",
      "postal_code": "61362",
      "country_code": "LK",
      "latitude": 8.2372,
      "longitude": 79.7628,
      "admin_name1": "North Western Province"
    },
    {
      "place_name": "Malmaduwa",
      "postal_code": "71325",
      "country_code": "LK",
      "latitude": 7.1364,
      "longitude": 80.2738,
      "admin_name1": "Sabaragamuwa Province"
    },
    {
      "place_name": "Opanayaka",
      "postal_code": "70080",
      "country_code": "LK",
      "latitude": 6.6081,
      "longitude": 80.6181,
      "admin_name1": "Sabaragamuwa Province"
    },
    {
      "place_name": "Rassagala",
      "postal_code": "70135",
      "country_code": "LK",
      "latitude": 6.6922,
      "longitude": 80.6385,
      "admin_name1": "Sabaragamuwa Province"
    },
    {
      "place_name": "Hiramadagama",
      "postal_code": "70296",
      "country_code": "LK",
      "latitude": 6.5293,
      "longitude": 80.6085,
      "admin_name1": "Sabaragamuwa Province"
    },
    {
      "place_name": "Kuruwita",
      "postal_code": "70500",
      "country_code": "LK",
      "latitude": 6.7765,
      "longitude": 80.3621,
      "admin_name1": "Sabaragamuwa Province"
    },
    {
      "place_name": "Panawala",
      "postal_code": "70612",
      "country_code": "LK",
      "latitude": 6.8867,
      "longitude": 80.2716,
      "admin_name1": "Sabaragamuwa Province"
    },
    {
      "place_name": "Getahetta",
      "postal_code": "70620",
      "country_code": "LK",
      "latitude": 6.9052,
      "longitude": 80.2193,
      "admin_name1": "Sabaragamuwa Province"
    },
    {
      "place_name": "Akmeemana",
      "postal_code": "80090",
      "country_code": "LK",
      "latitude": 6.1818,
      "longitude": 80.3036,
      "admin_name1": "Southern Province"
    },
    {
      "place_name": "Godahena",
      "postal_code": "80302",
      "country_code": "LK",
      "latitude": 6.2393,
      "longitude": 80.0752,
      "admin_name1": "Southern Province"
    },
    {
      "place_name": "Nindana",
      "postal_code": "80318",
      "country_code": "LK",
      "latitude": 6.2033,
      "longitude": 80.103,
      "admin_name1": "Southern Province"
    },
    {
      "place_name": "Uragasmanhandiya",
      "postal_code": "80350",
      "country_code": "LK",
      "latitude": 6.3429,
      "longitude": 80.0927,
      "admin_name1": "Southern Province"
    },
    {
      "place_name": "Haburugala",
      "postal_code": "80506",
      "country_code": "LK",
      "latitude": 6.4001,
      "longitude": 80.0361,
      "admin_name1": "Southern Province"
    },
    {
      "place_name": "Pahala Andarawewa",
      "postal_code": "82008",
      "country_code": "LK",
      "latitude": 6.1903,
      "longitude": 81.1721,
      "admin_name1": "Southern Province"
    },
    {
      "place_name": "Kariyamaditta",
      "postal_code": "82274",
      "country_code": "LK",
      "latitude": 6.2554,
      "longitude": 80.8254,
      "admin_name1": "Southern Province"
    },
    {
      "place_name": "Horewelagoda",
      "postal_code": "82456",
      "country_code": "LK",
      "latitude": 6.3047,
      "longitude": 80.7064,
      "admin_name1": "Southern Province"
    },
    {
      "place_name": "Weerawila NewTown",
      "postal_code": "82615",
      "country_code": "LK",
      "latitude": 6.2782,
      "longitude": 81.2872,
      "admin_name1": "Southern Province"
    },
    {
      "place_name": "Naimana",
      "postal_code": "81017",
      "country_code": "LK",
      "latitude": 6.0249,
      "longitude": 80.5641,
      "admin_name1": "Southern Province"
    },
    {
      "place_name": "Devinuwara (Dondra)",
      "postal_code": "81160",
      "country_code": "LK",
      "latitude": 5.9319,
      "longitude": 80.6069,
      "admin_name1": "Southern Province"
    },
    {
      "place_name": "Maramba",
      "postal_code": "81416",
      "country_code": "LK",
      "latitude": 6.1563,
      "longitude": 80.5011,
      "admin_name1": "Southern Province"
    },
    {
      "place_name": "Spring Valley",
      "postal_code": "90028",
      "country_code": "LK",
      "latitude": 7.1089,
      "longitude": 81.0089,
      "admin_name1": "Province of Uva"
    },
    {
      "place_name": "Ballaketuwa",
      "postal_code": "90092",
      "country_code": "LK",
      "latitude": 6.8667,
      "longitude": 81.1,
      "admin_name1": "Province of Uva"
    },
    {
      "place_name": "Fort",
      "postal_code": "00100",
      "country_code": "LK",
      "latitude": 6.9392,
      "longitude": 79.8436,
      "admin_name1": "Western Province"
    },
    {
      "place_name": "Slave Island",
      "postal_code": "00200",
      "country_code": "LK",
      "latitude": 6.9167,
      "longitude": 79.85,
      "admin_name1": "Western Province"
    },
    {
      "place_name": "Mullegama",
      "postal_code": "10202",
      "country_code": "LK",
      "latitude": 6.8796,
      "longitude": 80.0131,
      "admin_name1": "Western Province"
    },
    {
      "place_name": "Piliyandala",
      "postal_code": "10300",
      "country_code": "LK",
      "latitude": 6.7999,
      "longitude": 79.9249,
      "admin_name1": "Western Province"
    },
    {
      "place_name": "Mount Lavinia",
      "postal_code": "10370",
      "country_code": "LK",
      "latitude": 6.8339,
      "longitude": 79.8644,
      "admin_name1": "Western Province"
    },
    {
      "place_name": "Gampaha",
      "postal_code": "11000",
      "country_code": "LK",
      "latitude": 7.0897,
      "longitude": 79.9925,
      "admin_name1": "Western Province"
    },
    {
      "place_name": "Kitalawalana",
      "postal_code": "11206",
      "country_code": "LK",
      "latitude": 7.2965,
      "longitude": 80.1001,
      "admin_name1": "Western Province"
    },
    {
      "place_name": "Makewita",
      "postal_code": "11358",
      "country_code": "LK",
      "latitude": 7.1023,
      "longitude": 79.9313,
      "admin_name1": "Western Province"
    },
    {
      "place_name": "Dompe",
      "postal_code": "11680",
      "country_code": "LK",
      "latitude": 6.9503,
      "longitude": 80.051,
      "admin_name1": "Western Province"
    },
    {
      "place_name": "Demalagama",
      "postal_code": "11692",
      "country_code": "LK",
      "latitude": 6.9879,
      "longitude": 80.0483,
      "admin_name1": "Western Province"
    },
    {
      "place_name": "Pasyala",
      "postal_code": "11890",
      "country_code": "LK",
      "latitude": 7.1666,
      "longitude": 80.1219,
      "admin_name1": "Western Province"
    },
    {
      "place_name": "Ittapana",
      "postal_code": "12116",
      "country_code": "LK",
      "latitude": 6.4217,
      "longitude": 80.0884,
      "admin_name1": "Western Province"
    },
    {
      "place_name": "Halwala",
      "postal_code": "12118",
      "country_code": "LK",
      "latitude": 6.4137,
      "longitude": 80.1097,
      "admin_name1": "Western Province"
    },
    {
      "place_name": "Kelinkanda",
      "postal_code": "12218",
      "country_code": "LK",
      "latitude": 6.5777,
      "longitude": 80.2969,
      "admin_name1": "Western Province"
    },
    {
      "place_name": "Govinna",
      "postal_code": "12310",
      "country_code": "LK",
      "latitude": 6.6743,
      "longitude": 80.1159,
      "admin_name1": "Western Province"
    },
    {
      "place_name": "Miwanapalana",
      "postal_code": "12424",
      "country_code": "LK",
      "latitude": 6.7448,
      "longitude": 80.0922,
      "admin_name1": "Western Province"
    },
    {
      "place_name": "Waskaduwa",
      "postal_code": "12580",
      "country_code": "LK",
      "latitude": 6.6355,
      "longitude": 79.9472,
      "admin_name1": "Western Province"
    },
    {
      "place_name": "Panama",
      "postal_code": "32508",
      "country_code": "LK",
      "latitude": 6.7552,
      "longitude": 81.8036,
      "admin_name1": "Eastern Province"
    },
    {
      "place_name": "Kokkaddichcholai",
      "postal_code": "30160",
      "country_code": "LK",
      "latitude": 7.624,
      "longitude": 81.7599,
      "admin_name1": "Eastern Province"
    },
    {
      "place_name": "Panichankemi",
      "postal_code": "30444",
      "country_code": "LK",
      "latitude": 7.9574,
      "longitude": 81.4805,
      "admin_name1": "Eastern Province"
    },
    {
      "place_name": "Mallikativu",
      "postal_code": "31224",
      "country_code": "LK",
      "latitude": 8.4477,
      "longitude": 81.2874,
      "admin_name1": "Eastern Province"
    },
    {
      "place_name": "Kantalai Sugar Factory",
      "postal_code": "31306",
      "country_code": "LK",
      "latitude": 8.3466,
      "longitude": 81.0037,
      "admin_name1": "Eastern Province"
    },
    {
      "place_name": "Rambukwella",
      "postal_code": "20128",
      "country_code": "LK",
      "latitude": 7.3,
      "longitude": 80.7833,
      "admin_name1": "Central Province"
    },
    {
      "place_name": "Alawatugoda",
      "postal_code": "20140",
      "country_code": "LK",
      "latitude": 7.4042,
      "longitude": 80.6087,
      "admin_name1": "Central Province"
    },
    {
      "place_name": "Galhinna",
      "postal_code": "20152",
      "country_code": "LK",
      "latitude": 7.4162,
      "longitude": 80.5639,
      "admin_name1": "Central Province"
    },
    {
      "place_name": "Megoda Kalugamuwa",
      "postal_code": "20409",
      "country_code": "LK",
      "latitude": 7.2622,
      "longitude": 80.5841,
      "admin_name1": "Central Province"
    },
    {
      "place_name": "Galaha",
      "postal_code": "20420",
      "country_code": "LK",
      "latitude": 7.1979,
      "longitude": 80.6645,
      "admin_name1": "Central Province"
    },
    {
      "place_name": "Leemagahakotuwa",
      "postal_code": "20482",
      "country_code": "LK",
      "latitude": 7.2333,
      "longitude": 80.5833,
      "admin_name1": "Central Province"
    },
    {
      "place_name": "Hasalaka",
      "postal_code": "20960",
      "country_code": "LK",
      "latitude": 7.2879,
      "longitude": 80.9616,
      "admin_name1": "Central Province"
    },
    {
      "place_name": "Nalanda",
      "postal_code": "21082",
      "country_code": "LK",
      "latitude": 7.6606,
      "longitude": 80.6424,
      "admin_name1": "Central Province"
    },
    {
      "place_name": "Millawana",
      "postal_code": "21154",
      "country_code": "LK",
      "latitude": 7.6503,
      "longitude": 80.5772,
      "admin_name1": "Central Province"
    },
    {
      "place_name": "Wahacotte",
      "postal_code": "21160",
      "country_code": "LK",
      "latitude": 7.7142,
      "longitude": 80.5972,
      "admin_name1": "Central Province"
    },
    {
      "place_name": "Bambaragaswewa",
      "postal_code": "21212",
      "country_code": "LK",
      "latitude": 7.7833,
      "longitude": 80.5333,
      "admin_name1": "Central Province"
    },
    {
      "place_name": "Talawakele",
      "postal_code": "22100",
      "country_code": "LK",
      "latitude": 6.9371,
      "longitude": 80.6581,
      "admin_name1": "Central Province"
    },
    {
      "place_name": "Kandapola",
      "postal_code": "22220",
      "country_code": "LK",
      "latitude": 6.9894,
      "longitude": 80.8127,
      "admin_name1": "Central Province"
    },
    {
      "place_name": "Pandukabayapura",
      "postal_code": "50448",
      "country_code": "LK",
      "latitude": 8.4661,
      "longitude": 80.5484,
      "admin_name1": "North Central Province"
    },
    {
      "place_name": "Wahalkada",
      "postal_code": "50564",
      "country_code": "LK",
      "latitude": 8.3807,
      "longitude": 80.4436,
      "admin_name1": "North Central Province"
    },
    {
      "place_name": "Dimbulagala",
      "postal_code": "51031",
      "country_code": "LK",
      "latitude": 7.9167,
      "longitude": 80.55,
      "admin_name1": "North Central Province"
    },
    {
      "place_name": "Maha Ambagaswewa",
      "postal_code": "51518",
      "country_code": "LK",
      "latitude": 7.9,
      "longitude": 80.4833,
      "admin_name1": "North Central Province"
    },
    {
      "place_name": "Ihala Katugampala",
      "postal_code": "60135",
      "country_code": "LK",
      "latitude": 7.3633,
      "longitude": 80.1653,
      "admin_name1": "North Western Province"
    },
    {
      "place_name": "Wadumunnegedara",
      "postal_code": "60204",
      "country_code": "LK",
      "latitude": 7.4073,
      "longitude": 79.9731,
      "admin_name1": "North Western Province"
    },
    {
      "place_name": "Panadaragama",
      "postal_code": "60348",
      "country_code": "LK",
      "latitude": 7.8667,
      "longitude": 80.2167,
      "admin_name1": "North Western Province"
    },
    {
      "place_name": "Maho",
      "postal_code": "60600",
      "country_code": "LK",
      "latitude": 7.8228,
      "longitude": 80.2778,
      "admin_name1": "North Western Province"
    },
    {
      "place_name": "Chilaw",
      "postal_code": "61000",
      "country_code": "LK",
      "latitude": 7.5758,
      "longitude": 79.7953,
      "admin_name1": "North Western Province"
    },
    {
      "place_name": "Yogiyana",
      "postal_code": "61144",
      "country_code": "LK",
      "latitude": 7.2915,
      "longitude": 79.9212,
      "admin_name1": "North Western Province"
    },
    {
      "place_name": "Pothuwatawana",
      "postal_code": "61162",
      "country_code": "LK",
      "latitude": 7.4921,
      "longitude": 79.9109,
      "admin_name1": "North Western Province"
    },
    {
      "place_name": "Attawilluwa",
      "postal_code": "61328",
      "country_code": "LK",
      "latitude": 8.0993,
      "longitude": 79.8684,
      "admin_name1": "North Western Province"
    },
    {
      "place_name": "Norachcholai",
      "postal_code": "61342",
      "country_code": "LK",
      "latitude": 7.9991,
      "longitude": 79.7391,
      "admin_name1": "North Western Province"
    },
    {
      "place_name": "Helamada",
      "postal_code": "71046",
      "country_code": "LK",
      "latitude": 7.3073,
      "longitude": 80.3043,
      "admin_name1": "Sabaragamuwa Province"
    },
    {
      "place_name": "Lewangama",
      "postal_code": "71315",
      "country_code": "LK",
      "latitude": 7.0494,
      "longitude": 80.2324,
      "admin_name1": "Sabaragamuwa Province"
    },
    {
      "place_name": "Kondeniya",
      "postal_code": "71501",
      "country_code": "LK",
      "latitude": 7.265,
      "longitude": 80.433,
      "admin_name1": "Sabaragamuwa Province"
    },
    {
      "place_name": "Udumulla",
      "postal_code": "71521",
      "country_code": "LK",
      "latitude": 7.454,
      "longitude": 80.3993,
      "admin_name1": "Sabaragamuwa Province"
    },
    {
      "place_name": "Migastenna Sabara",
      "postal_code": "71716",
      "country_code": "LK",
      "latitude": 7.0281,
      "longitude": 80.3348,
      "admin_name1": "Sabaragamuwa Province"
    },
    {
      "place_name": "Morahela",
      "postal_code": "70129",
      "country_code": "LK",
      "latitude": 6.6878,
      "longitude": 80.689,
      "admin_name1": "Sabaragamuwa Province"
    },
    {
      "place_name": "Bolthumbe",
      "postal_code": "70131",
      "country_code": "LK",
      "latitude": 6.71,
      "longitude": 80.6398,
      "admin_name1": "Sabaragamuwa Province"
    },
    {
      "place_name": "Udaha Hawupe",
      "postal_code": "70154",
      "country_code": "LK",
      "latitude": 6.5393,
      "longitude": 80.5484,
      "admin_name1": "Sabaragamuwa Province"
    },
    {
      "place_name": "Doloswalakanda",
      "postal_code": "70404",
      "country_code": "LK",
      "latitude": 6.5573,
      "longitude": 80.467,
      "admin_name1": "Sabaragamuwa Province"
    },
    {
      "place_name": "Batatota",
      "postal_code": "70504",
      "country_code": "LK",
      "latitude": 6.8267,
      "longitude": 80.3673,
      "admin_name1": "Sabaragamuwa Province"
    },
    {
      "place_name": "Ellawala",
      "postal_code": "70606",
      "country_code": "LK",
      "latitude": 6.8092,
      "longitude": 80.2699,
      "admin_name1": "Sabaragamuwa Province"
    },
    {
      "place_name": "Udalamatta",
      "postal_code": "80108",
      "country_code": "LK",
      "latitude": 6.1828,
      "longitude": 80.2952,
      "admin_name1": "Southern Province"
    },
    {
      "place_name": "lmaduwa",
      "postal_code": "80130",
      "country_code": "LK",
      "latitude": 6.1265,
      "longitude": 80.4898,
      "admin_name1": "Southern Province"
    },
    {
      "place_name": "lnduruwa",
      "postal_code": "80510",
      "country_code": "LK",
      "latitude": 6.3557,
      "longitude": 80.0304,
      "admin_name1": "Southern Province"
    },
    {
      "place_name": "Migahajandur",
      "postal_code": "82014",
      "country_code": "LK",
      "latitude": 6.1903,
      "longitude": 81.1721,
      "admin_name1": "Southern Province"
    },
    {
      "place_name": "Goda Koggalla",
      "postal_code": "82401",
      "country_code": "LK",
      "latitude": 6.0496,
      "longitude": 80.7325,
      "admin_name1": "Southern Province"
    },
    {
      "place_name": "Ranakeliya",
      "postal_code": "82612",
      "country_code": "LK",
      "latitude": 6.2187,
      "longitude": 81.322,
      "admin_name1": "Southern Province"
    },
    {
      "place_name": "Walasgala",
      "postal_code": "81220",
      "country_code": "LK",
      "latitude": 5.9911,
      "longitude": 80.7019,
      "admin_name1": "Southern Province"
    },
    {
      "place_name": "Miella",
      "postal_code": "81312",
      "country_code": "LK",
      "latitude": 6.1175,
      "longitude": 80.6797,
      "admin_name1": "Southern Province"
    },
    {
      "place_name": "Kalubowitiyana",
      "postal_code": "81478",
      "country_code": "LK",
      "latitude": 6.3167,
      "longitude": 80.4,
      "admin_name1": "Southern Province"
    },
    {
      "place_name": "Hali Ela",
      "postal_code": "90060",
      "country_code": "LK",
      "latitude": 6.9536,
      "longitude": 81.0299,
      "admin_name1": "Province of Uva"
    },
    {
      "place_name": "Liyangahawela",
      "postal_code": "90106",
      "country_code": "LK",
      "latitude": 6.9251,
      "longitude": 80.9389,
      "admin_name1": "Province of Uva"
    },
    {
      "place_name": "Uva Tenna",
      "postal_code": "90188",
      "country_code": "LK",
      "latitude": 6.8294,
      "longitude": 80.8806,
      "admin_name1": "Province of Uva"
    },
    {
      "place_name": "Medawela Udukinda",
      "postal_code": "90218",
      "country_code": "LK",
      "latitude": 6.8481,
      "longitude": 80.9259,
      "admin_name1": "Province of Uva"
    },
    {
      "place_name": "Bibilegama",
      "postal_code": "90502",
      "country_code": "LK",
      "latitude": 6.8945,
      "longitude": 81.1361,
      "admin_name1": "Province of Uva"
    },
    {
      "place_name": "Pelagahatenna",
      "postal_code": "90522",
      "country_code": "LK",
      "latitude": 6.9644,
      "longitude": 81.1584,
      "admin_name1": "Province of Uva"
    },
    {
      "place_name": "Dambana",
      "postal_code": "90714",
      "country_code": "LK",
      "latitude": 7.3583,
      "longitude": 81.1083,
      "admin_name1": "Province of Uva"
    },
    {
      "place_name": "Inginiyagala",
      "postal_code": "91040",
      "country_code": "LK",
      "latitude": 7.2233,
      "longitude": 81.541,
      "admin_name1": "Province of Uva"
    },
    {
      "place_name": "Wellawaya",
      "postal_code": "91200",
      "country_code": "LK",
      "latitude": 6.7264,
      "longitude": 81.1046,
      "admin_name1": "Province of Uva"
    },
    {
      "place_name": "Hambegamuwa",
      "postal_code": "91308",
      "country_code": "LK",
      "latitude": 6.5331,
      "longitude": 80.9568,
      "admin_name1": "Province of Uva"
    },
    {
      "place_name": "Malabe",
      "postal_code": "10115",
      "country_code": "LK",
      "latitude": 6.9083,
      "longitude": 79.9649,
      "admin_name1": "Western Province"
    },
    {
      "place_name": "Talawatugoda",
      "postal_code": "10116",
      "country_code": "LK",
      "latitude": 6.8738,
      "longitude": 79.9378,
      "admin_name1": "Western Province"
    },
    {
      "place_name": "Habarakada",
      "postal_code": "10204",
      "country_code": "LK",
      "latitude": 6.8708,
      "longitude": 80.0092,
      "admin_name1": "Western Province"
    },
    {
      "place_name": "Pannipitiya",
      "postal_code": "10230",
      "country_code": "LK",
      "latitude": 6.8462,
      "longitude": 79.9448,
      "admin_name1": "Western Province"
    },
    {
      "place_name": "Udugampola",
      "postal_code": "11030",
      "country_code": "LK",
      "latitude": 7.1167,
      "longitude": 79.9833,
      "admin_name1": "Western Province"
    },
    {
      "place_name": "Badalgama",
      "postal_code": "11538",
      "country_code": "LK",
      "latitude": 7.2976,
      "longitude": 79.9844,
      "admin_name1": "Western Province"
    },
    {
      "place_name": "Hiswella",
      "postal_code": "11734",
      "country_code": "LK",
      "latitude": 7.0417,
      "longitude": 80.1282,
      "admin_name1": "Western Province"
    },
    {
      "place_name": "Peliyagoda",
      "postal_code": "11830",
      "country_code": "LK",
      "latitude": 6.9685,
      "longitude": 79.8836,
      "admin_name1": "Western Province"
    },
    {
      "place_name": "Polgampola",
      "postal_code": "12136",
      "country_code": "LK",
      "latitude": 6.4681,
      "longitude": 80.1924,
      "admin_name1": "Western Province"
    },
    {
      "place_name": "Delmella",
      "postal_code": "12304",
      "country_code": "LK",
      "latitude": 6.6881,
      "longitude": 80.2057,
      "admin_name1": "Western Province"
    },
    {
      "place_name": "Padiyatalawa",
      "postal_code": "32100",
      "country_code": "LK",
      "latitude": 7.4002,
      "longitude": 81.2428,
      "admin_name1": "Eastern Province"
    },
    {
      "place_name": "Palamunai",
      "postal_code": "32354",
      "country_code": "LK",
      "latitude": 7.2667,
      "longitude": 81.85,
      "admin_name1": "Eastern Province"
    },
    {
      "place_name": "Tirukovil",
      "postal_code": "32420",
      "country_code": "LK",
      "latitude": 7.1203,
      "longitude": 81.849,
      "admin_name1": "Eastern Province"
    },
    {
      "place_name": "Kattankudi",
      "postal_code": "30100",
      "country_code": "LK",
      "latitude": 7.6824,
      "longitude": 81.7334,
      "admin_name1": "Eastern Province"
    },
    {
      "place_name": "Kaluwanchikudi",
      "postal_code": "30200",
      "country_code": "LK",
      "latitude": 7.5167,
      "longitude": 81.7833,
      "admin_name1": "Eastern Province"
    },
    {
      "place_name": "Menikhinna",
      "postal_code": "20170",
      "country_code": "LK",
      "latitude": 7.3184,
      "longitude": 80.6995,
      "admin_name1": "Central Province"
    },
    {
      "place_name": "Pilawala",
      "postal_code": "20196",
      "country_code": "LK",
      "latitude": 7.3022,
      "longitude": 80.6762,
      "admin_name1": "Central Province"
    },
    {
      "place_name": "Deltota",
      "postal_code": "20430",
      "country_code": "LK",
      "latitude": 7.1944,
      "longitude": 80.6917,
      "admin_name1": "Central Province"
    },
    {
      "place_name": "Mailapitiya",
      "postal_code": "20702",
      "country_code": "LK",
      "latitude": 7.1998,
      "longitude": 80.7552,
      "admin_name1": "Central Province"
    },
    {
      "place_name": "Selagama",
      "postal_code": "21058",
      "country_code": "LK",
      "latitude": 7.5916,
      "longitude": 80.5899,
      "admin_name1": "Central Province"
    },
    {
      "place_name": "Sigiriya",
      "postal_code": "21120",
      "country_code": "LK",
      "latitude": 7.9518,
      "longitude": 80.7426,
      "admin_name1": "Central Province"
    },
    {
      "place_name": "Wilgamuwa",
      "postal_code": "21530",
      "country_code": "LK",
      "latitude": 7.6622,
      "longitude": 80.7728,
      "admin_name1": "Central Province"
    },
    {
      "place_name": "Horiwila",
      "postal_code": "50222",
      "country_code": "LK",
      "latitude": 8.1929,
      "longitude": 80.1457,
      "admin_name1": "North Central Province"
    },
    {
      "place_name": "Padavi Sritissapura",
      "postal_code": "50588",
      "country_code": "LK",
      "latitude": 8.4941,
      "longitude": 80.4801,
      "admin_name1": "North Central Province"
    },
    {
      "place_name": "Giritale",
      "postal_code": "51026",
      "country_code": "LK",
      "latitude": 7.9833,
      "longitude": 80.9333,
      "admin_name1": "North Central Province"
    },
    {
      "place_name": "Orubendi Siyambalawa",
      "postal_code": "51256",
      "country_code": "LK",
      "latitude": 7.7539,
      "longitude": 80.8025,
      "admin_name1": "North Central Province"
    },
    {
      "place_name": "Galoya Junction",
      "postal_code": "51375",
      "country_code": "LK",
      "latitude": 7.8912,
      "longitude": 80.7957,
      "admin_name1": "North Central Province"
    },
    {
      "place_name": "Yodaela",
      "postal_code": "51422",
      "country_code": "LK",
      "latitude": 7.5781,
      "longitude": 79.8681,
      "admin_name1": "North Central Province"
    },
    {
      "place_name": "Pilessa",
      "postal_code": "60058",
      "country_code": "LK",
      "latitude": 7.4546,
      "longitude": 80.4141,
      "admin_name1": "North Western Province"
    },
    {
      "place_name": "Wewagama",
      "postal_code": "60195",
      "country_code": "LK",
      "latitude": 7.4167,
      "longitude": 80.1,
      "admin_name1": "North Western Province"
    },
    {
      "place_name": "Bujjomuwa",
      "postal_code": "60291",
      "country_code": "LK",
      "latitude": 7.4558,
      "longitude": 80.0511,
      "admin_name1": "North Western Province"
    },
    {
      "place_name": "Sunandapura",
      "postal_code": "60436",
      "country_code": "LK",
      "latitude": 7.6377,
      "longitude": 80.0637,
      "admin_name1": "North Western Province"
    },
    {
      "place_name": "Hulugalla",
      "postal_code": "60477",
      "country_code": "LK",
      "latitude": 7.7825,
      "longitude": 80.1378,
      "admin_name1": "North Western Province"
    },
    {
      "place_name": "Kumbukwewa",
      "postal_code": "60506",
      "country_code": "LK",
      "latitude": 7.6342,
      "longitude": 80.4333,
      "admin_name1": "North Western Province"
    },
    {
      "place_name": "Maduragoda",
      "postal_code": "60532",
      "country_code": "LK",
      "latitude": 7.5729,
      "longitude": 80.5377,
      "admin_name1": "North Western Province"
    },
    {
      "place_name": "Ambanpola",
      "postal_code": "60650",
      "country_code": "LK",
      "latitude": 7.6214,
      "longitude": 80.4958,
      "admin_name1": "North Western Province"
    },
    {
      "place_name": "Karawitagara",
      "postal_code": "61022",
      "country_code": "LK",
      "latitude": 7.5303,
      "longitude": 79.7929,
      "admin_name1": "North Western Province"
    },
    {
      "place_name": "Mukkutoduwawa",
      "postal_code": "61274",
      "country_code": "LK",
      "latitude": 7.901,
      "longitude": 79.7534,
      "admin_name1": "North Western Province"
    },
    {
      "place_name": "Pothukoladeniya",
      "postal_code": "71039",
      "country_code": "LK",
      "latitude": 7.1822,
      "longitude": 80.3795,
      "admin_name1": "Sabaragamuwa Province"
    },
    {
      "place_name": "Hewadiwela",
      "postal_code": "71108",
      "country_code": "LK",
      "latitude": 7.3858,
      "longitude": 80.3878,
      "admin_name1": "Sabaragamuwa Province"
    },
    {
      "place_name": "Galatara",
      "postal_code": "71505",
      "country_code": "LK",
      "latitude": 7.2167,
      "longitude": 80.4167,
      "admin_name1": "Sabaragamuwa Province"
    },
    {
      "place_name": "Ambalakanda",
      "postal_code": "71546",
      "country_code": "LK",
      "latitude": 7.1366,
      "longitude": 80.4524,
      "admin_name1": "Sabaragamuwa Province"
    },
    {
      "place_name": "Sri Palabaddala",
      "postal_code": "70004",
      "country_code": "LK",
      "latitude": 6.7838,
      "longitude": 80.4462,
      "admin_name1": "Sabaragamuwa Province"
    },
    {
      "place_name": "Kahangama",
      "postal_code": "70016",
      "country_code": "LK",
      "latitude": 6.6983,
      "longitude": 80.3688,
      "admin_name1": "Sabaragamuwa Province"
    },
    {
      "place_name": "Pinnawala",
      "postal_code": "70130",
      "country_code": "LK",
      "latitude": 6.7087,
      "longitude": 80.6789,
      "admin_name1": "Sabaragamuwa Province"
    },
    {
      "place_name": "Kolombugama",
      "postal_code": "70403",
      "country_code": "LK",
      "latitude": 6.5681,
      "longitude": 80.4947,
      "admin_name1": "Sabaragamuwa Province"
    },
    {
      "place_name": "Godagampola",
      "postal_code": "70556",
      "country_code": "LK",
      "latitude": 6.8848,
      "longitude": 80.3119,
      "admin_name1": "Sabaragamuwa Province"
    },