[
  [
    {
      "place_name": "Paviešinčio k.",
      "postal_code": "40033",
      "country_code": "LT",
      "latitude": 55.7333,
      "longitude": 24.7833,
      "admin_name1": "Panevėžys"
    },
    {
      "place_name": "Vėveliškio k.",
      "postal_code": "40033",
      "country_code": "LT",
      "latitude": 55.7333,
      "longitude": 24.7833,
      "admin_name1": "Panevėžys"
    },
    {
      "place_name": "Skverbų k.",
      "postal_code": "40033",
      "country_code": "LT",
      "latitude": 55.7333,
      "longitude": 24.7833,
      "admin_name1": "Panevėžys"
    },
    {
      "place_name": "Kantrimiškio k.",
      "postal_code": "40033",
      "country_code": "LT",
      "latitude": 55.7333,
      "longitude": 24.7833,
      "admin_name1": "Panevėžys"
    },
    {
      "place_name": "Rudiškių k.",
      "postal_code": "40033",
      "country_code": "LT",
      "latitude": 55.7333,
      "longitude": 24.7833,
      "admin_name1": "Panevėžys"
    },
    {
      "place_name": "Kreipšių k.",
      "postal_code": "40049",
      "country_code": "LT",
      "latitude": 55.8833,
      "longitude": 25.2,
      "admin_name1": "Panevėžys"
    },
    {
      "place_name": "Švedukalnio k.",
      "postal_code": "40049",
      "country_code": "LT",
      "latitude": 55.8833,
      "longitude": 25.2,
      "admin_name1": "Panevėžys"
    },
    {
      "place_name": "Mičiūnų k.",
      "postal_code": "40055",
      "country_code": "LT",
      "latitude": 55.9333,
      "longitude": 24.9,
      "admin_name1": "Panevėžys"
    },
    {
      "place_name": "Girvalakių k.",
      "postal_code": "40055",
      "country_code": "LT",
      "latitude": 55.9333,
      "longitude": 24.9,
      "admin_name1": "Panevėžys"
    },
    {
      "place_name": "Keginių k.",
      "postal_code": "40055",
      "country_code": "LT",
      "latitude": 55.9333,
      "longitude": 24.9,
      "admin_name1": "Panevėžys"
    },
    {
      "place_name": "Šileikių k.",
      "postal_code": "40055",
      "country_code": "LT",
      "latitude": 55.9333,
      "longitude": 24.9,
      "admin_name1": "Panevėžys"
    },
    {
      "place_name": "Palėvenėlės k.",
      "postal_code": "40056",
      "country_code": "LT",
      "latitude": 55.9333,
      "longitude": 24.9,
      "admin_name1": "Panevėžys"
    },
    {
      "place_name": "Žaidelių k.",
      "postal_code": "40056",
      "country_code": "LT",
      "latitude": 55.9333,
      "longitude": 24.9,
      "admin_name1": "Panevėžys"
    },
    {
      "place_name": "Tebešiūnų k.",
      "postal_code": "40056",
      "country_code": "LT",
      "latitude": 55.9333,
      "longitude": 24.9,
      "admin_name1": "Panevėžys"
    },
    {
      "place_name": "Paliepių k.",
      "postal_code": "40056",
      "country_code": "LT",
      "latitude": 55.9333,
      "longitude": 24.9,
      "admin_name1": "Panevėžys"
    },
    {
      "place_name": "Duorpių k.",
      "postal_code": "40056",
      "country_code": "LT",
      "latitude": 55.9333,
      "longitude": 24.9,
      "admin_name1": "Panevėžys"
    },
    {
      "place_name": "Miežiškių k.",
      "postal_code": "35001",
      "country_code": "LT",
      "latitude": 55.7083,
      "longitude": 24.4417,
      "admin_name1": "Panevėžys"
    },
    {
      "place_name": "Joskildų k.",
      "postal_code": "35001",
      "country_code": "LT",
      "latitude": 55.7083,
      "longitude": 24.4417,
      "admin_name1": "Panevėžys"
    },
    {
      "place_name": "Vainiškių k.",
      "postal_code": "35001",
      "country_code": "LT",
      "latitude": 55.7083,
      "longitude": 24.4417,
      "admin_name1": "Panevėžys"
    },
    {
      "place_name": "Stebeikių k.",
      "postal_code": "35001",
      "country_code": "LT",
      "latitude": 55.7083,
      "longitude": 24.4417,
      "admin_name1": "Panevėžys"
    },
    {
      "place_name": "Vyčių k.",
      "postal_code": "38007",
      "country_code": "LT",
      "latitude": 55.7333,
      "longitude": 24.35,
      "admin_name1": "Panevėžys"
    },
    {
      "place_name": "Klepšių k.",
      "postal_code": "38007",
      "country_code": "LT",
      "latitude": 55.7333,
      "longitude": 24.35,
      "admin_name1": "Panevėžys"
    },
    {
      "place_name": "Domažiškio k.",
      "postal_code": "38007",
      "country_code": "LT",
      "latitude": 55.7333,
      "longitude": 24.35,
      "admin_name1": "Panevėžys"
    },
    {
      "place_name": "Simoliškio k.",
      "postal_code": "38010",
      "country_code": "LT",
      "latitude": 55.5167,
      "longitude": 24.5667,
      "admin_name1": "Panevėžys"
    },
    {
      "place_name": "Rimiškių k.",
      "postal_code": "38055",
      "country_code": "LT",
      "latitude": 55.65,
      "longitude": 24.6,
      "admin_name1": "Panevėžys"
    },
    {
      "place_name": "Teberešiškių k.",
      "postal_code": "38067",
      "country_code": "LT",
      "latitude": 55.6348,
      "longitude": 24.4182,
      "admin_name1": "Panevėžys"
    },
    {
      "place_name": "Sendvario k.",
      "postal_code": "38067",
      "country_code": "LT",
      "latitude": 55.6348,
      "longitude": 24.4182,
      "admin_name1": "Panevėžys"
    },
    {
      "place_name": "Klimbalės k.",
      "postal_code": "38070",
      "country_code": "LT",
      "latitude": 55.8333,
      "longitude": 24.7,
      "admin_name1": "Panevėžys"
    },
    {
      "place_name": "Dikonių k.",
      "postal_code": "38082",
      "country_code": "LT",
      "latitude": 55.7333,
      "longitude": 24.35,
      "admin_name1": "Panevėžys"
    },
    {
      "place_name": "Medikonių k.",
      "postal_code": "38082",
      "country_code": "LT",
      "latitude": 55.7333,
      "longitude": 24.35,
      "admin_name1": "Panevėžys"
    },
    {
      "place_name": "Uliūnų k.",
      "postal_code": "38082",
      "country_code": "LT",
      "latitude": 55.7333,
      "longitude": 24.35,
      "admin_name1": "Panevėžys"
    },
    {
      "place_name": "Mitrišiūnų k.",
      "postal_code": "39001",
      "country_code": "LT",
      "latitude": 56.0594,
      "longitude": 24.4036,
      "admin_name1": "Panevėžys"
    },
    {
      "place_name": "Ąžuolynės k.",
      "postal_code": "39001",
      "country_code": "LT",
      "latitude": 56.0594,
      "longitude": 24.4036,
      "admin_name1": "Panevėžys"
    },
    {
      "place_name": "Žadeikėlių k.",
      "postal_code": "39001",
      "country_code": "LT",
      "latitude": 56.0594,
      "longitude": 24.4036,
      "admin_name1": "Panevėžys"
    },
    {
      "place_name": "Mikėnų k.",
      "postal_code": "39006",
      "country_code": "LT",
      "latitude": 55.9667,
      "longitude": 24.5167,
      "admin_name1": "Panevėžys"
    },
    {
      "place_name": "Bartkūnų k.",
      "postal_code": "39012",
      "country_code": "LT",
      "latitude": 55.9167,
      "longitude": 24.4,
      "admin_name1": "Panevėžys"
    },
    {
      "place_name": "Dūdiškių k.",
      "postal_code": "39012",
      "country_code": "LT",
      "latitude": 55.9167,
      "longitude": 24.4,
      "admin_name1": "Panevėžys"
    },
    {
      "place_name": "Valmonių k.",
      "postal_code": "39015",
      "country_code": "LT",
      "latitude": 55.9167,
      "longitude": 24.25,
      "admin_name1": "Panevėžys"
    },
    {
      "place_name": "Austakynės k.",
      "postal_code": "39027",
      "country_code": "LT",
      "latitude": 56.0253,
      "longitude": 24.1689,
      "admin_name1": "Panevėžys"
    },
    {
      "place_name": "Nakiškių k.",
      "postal_code": "39027",
      "country_code": "LT",
      "latitude": 56.0253,
      "longitude": 24.1689,
      "admin_name1": "Panevėžys"
    },
    {
      "place_name": "Lukštynės k.",
      "postal_code": "39027",
      "country_code": "LT",
      "latitude": 56.0253,
      "longitude": 24.1689,
      "admin_name1": "Panevėžys"
    },
    {
      "place_name": "Daičiūnų k.",
      "postal_code": "39034",
      "country_code": "LT",
      "latitude": 56.1667,
      "longitude": 24.2108,
      "admin_name1": "Panevėžys"
    },
    {
      "place_name": "Bejėnų k.",
      "postal_code": "39034",
      "country_code": "LT",
      "latitude": 56.1667,
      "longitude": 24.2108,
      "admin_name1": "Panevėžys"
    },
    {
      "place_name": "Saudogalos k.",
      "postal_code": "39049",
      "country_code": "LT",
      "latitude": 56.2278,
      "longitude": 24.4106,
      "admin_name1": "Panevėžys"
    },
    {
      "place_name": "Berčiūnų k.",
      "postal_code": "39058",
      "country_code": "LT",
      "latitude": 56.0831,
      "longitude": 24.5256,
      "admin_name1": "Panevėžys"
    },
    {
      "place_name": "Kurkliečių k.",
      "postal_code": "42001",
      "country_code": "LT",
      "latitude": 55.9667,
      "longitude": 25.5833,
      "admin_name1": "Panevėžys"
    },
    {
      "place_name": "Diliškių k.",
      "postal_code": "42001",
      "country_code": "LT",
      "latitude": 55.9667,
      "longitude": 25.5833,
      "admin_name1": "Panevėžys"
    },
    {
      "place_name": "Visdievų k.",
      "postal_code": "42006",
      "country_code": "LT",
      "latitude": 55.9333,
      "longitude": 25.8,
      "admin_name1": "Panevėžys"
    },
    {
      "place_name": "Razalinavos k.",
      "postal_code": "42006",
      "country_code": "LT",
      "latitude": 55.9333,
      "longitude": 25.8,
      "admin_name1": "Panevėžys"
    },
    {
      "place_name": "Kuprių k.",
      "postal_code": "42006",
      "country_code": "LT",
      "latitude": 55.9333,
      "longitude": 25.8,
      "admin_name1": "Panevėžys"
    },
    {
      "place_name": "Bučelių k.",
      "postal_code": "42006",
      "country_code": "LT",
      "latitude": 55.9333,
      "longitude": 25.8,
      "admin_name1": "Panevėžys"
    },
    {
      "place_name": "Bobriškio k.",
      "postal_code": "42013",
      "country_code": "LT",
      "latitude": 55.7833,
      "longitude": 25.6833,
      "admin_name1": "Panevėžys"
    },
    {
      "place_name": "Dagilių k.",
      "postal_code": "42013",
      "country_code": "LT",
      "latitude": 55.7833,
      "longitude": 25.6833,
      "admin_name1": "Panevėžys"
    },
    {
      "place_name": "Gačionių k.",
      "postal_code": "42016",
      "country_code": "LT",
      "latitude": 55.7833,
      "longitude": 25.6833,
      "admin_name1": "Panevėžys"
    },
    {
      "place_name": "Giriūnų k.",
      "postal_code": "42016",
      "country_code": "LT",
      "latitude": 55.7833,
      "longitude": 25.6833,
      "admin_name1": "Panevėžys"
    },
    {
      "place_name": "Raugų k.",
      "postal_code": "42016",
      "country_code": "LT",
      "latitude": 55.7833,
      "longitude": 25.6833,
      "admin_name1": "Panevėžys"
    },
    {
      "place_name": "Kuosių k.",
      "postal_code": "42022",
      "country_code": "LT",
      "latitude": 55.8167,
      "longitude": 25.5,
      "admin_name1": "Panevėžys"
    },
    {
      "place_name": "Kremesiškių k.",
      "postal_code": "42022",
      "country_code": "LT",
      "latitude": 55.8167,
      "longitude": 25.5,
      "admin_name1": "Panevėžys"
    },
    {
      "place_name": "Trakinės k.",
      "postal_code": "42025",
      "country_code": "LT",
      "latitude": 55.75,
      "longitude": 25.5167,
      "admin_name1": "Panevėžys"
    },
    {
      "place_name": "Petrošiškio k.",
      "postal_code": "42028",
      "country_code": "LT",
      "latitude": 55.8167,
      "longitude": 25.3667,
      "admin_name1": "Panevėžys"
    },
    {
      "place_name": "Panemunėlio glžk. st.",
      "postal_code": "42031",
      "country_code": "LT",
      "latitude": 55.9167,
      "longitude": 25.4833,
      "admin_name1": "Panevėžys"
    },
    {
      "place_name": "Joneliškių k.",
      "postal_code": "42031",
      "country_code": "LT",
      "latitude": 55.9167,
      "longitude": 25.4833,
      "admin_name1": "Panevėžys"
    },
    {
      "place_name": "Bernotiškio k.",
      "postal_code": "42031",
      "country_code": "LT",
      "latitude": 55.9167,
      "longitude": 25.4833,
      "admin_name1": "Panevėžys"
    },
    {
      "place_name": "Kavolių k.",
      "postal_code": "42031",
      "country_code": "LT",
      "latitude": 55.9167,
      "longitude": 25.4833,
      "admin_name1": "Panevėžys"
    },
    {
      "place_name": "Gudelių k.",
      "postal_code": "42041",
      "country_code": "LT",
      "latitude": 56.0167,
      "longitude": 25.2167,
      "admin_name1": "Panevėžys"
    },
    {
      "place_name": "Latvelių k.",
      "postal_code": "42041",
      "country_code": "LT",
      "latitude": 56.0167,
      "longitude": 25.2167,
      "admin_name1": "Panevėžys"
    },
    {
      "place_name": "Lauciūnų k.",
      "postal_code": "42063",
      "country_code": "LT",
      "latitude": 56.0833,
      "longitude": 25.6167,
      "admin_name1": "Panevėžys"
    },
    {
      "place_name": "Bliudės k.",
      "postal_code": "42063",
      "country_code": "LT",
      "latitude": 56.0833,
      "longitude": 25.6167,
      "admin_name1": "Panevėžys"
    },
    {
      "place_name": "Trumpiškių k.",
      "postal_code": "42069",
      "country_code": "LT",
      "latitude": 56.1022,
      "longitude": 25.3255,
      "admin_name1": "Panevėžys"
    },
    {
      "place_name": "Ažusienių k.",
      "postal_code": "42069",
      "country_code": "LT",
      "latitude": 56.1022,
      "longitude": 25.3255,
      "admin_name1": "Panevėžys"
    },
    {
      "place_name": "Vilkų k.",
      "postal_code": "42069",
      "country_code": "LT",
      "latitude": 56.1022,
      "longitude": 25.3255,
      "admin_name1": "Panevėžys"
    },
    {
      "place_name": "Vilėmiškio k.",
      "postal_code": "42069",
      "country_code": "LT",
      "latitude": 56.1022,
      "longitude": 25.3255,
      "admin_name1": "Panevėžys"
    },
    {
      "place_name": "Panemunio k.",
      "postal_code": "42069",
      "country_code": "LT",
      "latitude": 56.1022,
      "longitude": 25.3255,
      "admin_name1": "Panevėžys"
    },
    {
      "place_name": "Radžiūnėlių k.",
      "postal_code": "42069",
      "country_code": "LT",
      "latitude": 56.1022,
      "longitude": 25.3255,
      "admin_name1": "Panevėžys"
    },
    {
      "place_name": "Šilagalio k.",
      "postal_code": "42069",
      "country_code": "LT",
      "latitude": 56.1022,
      "longitude": 25.3255,
      "admin_name1": "Panevėžys"
    },
    {
      "place_name": "Mitragalio k.",
      "postal_code": "42069",
      "country_code": "LT",
      "latitude": 56.1022,
      "longitude": 25.3255,
      "admin_name1": "Panevėžys"
    },
    {
      "place_name": "Raudžių k.",
      "postal_code": "85001",
      "country_code": "LT",
      "latitude": 56.3167,
      "longitude": 22.9,
      "admin_name1": "Šiauliai County"
    },
    {
      "place_name": "Adomiškių k.",
      "postal_code": "85022",
      "country_code": "LT",
      "latitude": 56.25,
      "longitude": 22.75,
      "admin_name1": "Šiauliai County"
    },
    {
      "place_name": "Dabikinės k.",
      "postal_code": "85022",
      "country_code": "LT",
      "latitude": 56.25,
      "longitude": 22.75,
      "admin_name1": "Šiauliai County"
    },
    {
      "place_name": "Mantartiškių k.",
      "postal_code": "85022",
      "country_code": "LT",
      "latitude": 56.25,
      "longitude": 22.75,
      "admin_name1": "Šiauliai County"
    },
    {
      "place_name": "SB „Atžalynas“",
      "postal_code": "84001",
      "country_code": "LT",
      "latitude": 56.2403,
      "longitude": 23.6153,
      "admin_name1": "Šiauliai County"
    },
    {
      "place_name": "Tausėnų k.",
      "postal_code": "84001",
      "country_code": "LT",
      "latitude": 56.2403,
      "longitude": 23.6153,
      "admin_name1": "Šiauliai County"
    },
    {
      "place_name": "Mielaičių k.",
      "postal_code": "84001",
      "country_code": "LT",
      "latitude": 56.2403,
      "longitude": 23.6153,
      "admin_name1": "Šiauliai County"
    },
    {
      "place_name": "Kyburių k.",
      "postal_code": "84025",
      "country_code": "LT",
      "latitude": 56.3072,
      "longitude": 23.3861,
      "admin_name1": "Šiauliai County"
    },
    {
      "place_name": "Pikcevičių k.",
      "postal_code": "84037",
      "country_code": "LT",
      "latitude": 56.2983,
      "longitude": 23.8206,
      "admin_name1": "Šiauliai County"
    },
    {
      "place_name": "Veikšių k.",
      "postal_code": "84037",
      "country_code": "LT",
      "latitude": 56.2983,
      "longitude": 23.8206,
      "admin_name1": "Šiauliai County"
    },
    {
      "place_name": "Šaltenių k.",
      "postal_code": "86001",
      "country_code": "LT",
      "latitude": 55.6339,
      "longitude": 22.9342,
      "admin_name1": "Šiauliai County"
    },
    {
      "place_name": "Gineikių k.",
      "postal_code": "86001",
      "country_code": "LT",
      "latitude": 55.6339,
      "longitude": 22.9342,
      "admin_name1": "Šiauliai County"
    },
    {
      "place_name": "Juodlaukio k.",
      "postal_code": "86017",
      "country_code": "LT",
      "latitude": 55.5667,
      "longitude": 22.95,
      "admin_name1": "Šiauliai County"
    },
    {
      "place_name": "Einikių k.",
      "postal_code": "86017",
      "country_code": "LT",
      "latitude": 55.5667,
      "longitude": 22.95,
      "admin_name1": "Šiauliai County"
    },
    {
      "place_name": "Drupiškės k.",
      "postal_code": "86017",
      "country_code": "LT",
      "latitude": 55.5667,
      "longitude": 22.95,
      "admin_name1": "Šiauliai County"
    },
    {
      "place_name": "Petrališkės k.",
      "postal_code": "86026",
      "country_code": "LT",
      "latitude": 55.6031,
      "longitude": 22.6903,
      "admin_name1": "Šiauliai County"
    },
    {
      "place_name": "Adampolės k.",
      "postal_code": "86026",
      "country_code": "LT",
      "latitude": 55.6031,
      "longitude": 22.6903,
      "admin_name1": "Šiauliai County"
    },
    {
      "place_name": "Kražiai",
      "postal_code": "86026",
      "country_code": "LT",
      "latitude": 55.6031,
      "longitude": 22.6903,
      "admin_name1": "Šiauliai County"
    },
    {
      "place_name": "Dausyniškės k.",
      "postal_code": "86026",
      "country_code": "LT",
      "latitude": 55.6031,
      "longitude": 22.6903,
      "admin_name1": "Šiauliai County"
    },
    {
      "place_name": "Zvirgždelių k.",
      "postal_code": "86026",
      "country_code": "LT",
      "latitude": 55.6031,
      "longitude": 22.6903,
      "admin_name1": "Šiauliai County"
    },
    {
      "place_name": "Petrošių k.",
      "postal_code": "86043",
      "country_code": "LT",
      "latitude": 55.8111,
      "longitude": 22.8831,
      "admin_name1": "Šiauliai County"
    },
    {
      "place_name": "Kūjokų k.",
      "postal_code": "86046",
      "country_code": "LT",
      "latitude": 55.8111,
      "longitude": 22.8831,
      "admin_name1": "Šiauliai County"
    },
    {
      "place_name": "Targauskių k.",
      "postal_code": "86052",
      "country_code": "LT",
      "latitude": 55.642,
      "longitude": 22.8365,
      "admin_name1": "Šiauliai County"
    },
    {
      "place_name": "Degučių k.",
      "postal_code": "86052",
      "country_code": "LT",
      "latitude": 55.642,
      "longitude": 22.8365,
      "admin_name1": "Šiauliai County"
    },
    {
      "place_name": "Karauskių k.",
      "postal_code": "86052",
      "country_code": "LT",
      "latitude": 55.642,
      "longitude": 22.8365,
      "admin_name1": "Šiauliai County"
    },
    {
      "place_name": "Lipinų k.",
      "postal_code": "86061",
      "country_code": "LT",
      "latitude": 55.6,
      "longitude": 23.2,
      "admin_name1": "Šiauliai County"
    },
    {
      "place_name": "Leošino k.",
      "postal_code": "86061",
      "country_code": "LT",
      "latitude": 55.6,
      "longitude": 23.2,
      "admin_name1": "Šiauliai County"
    },
    {
      "place_name": "Paliesio k.",
      "postal_code": "86061",
      "country_code": "LT",
      "latitude": 55.6,
      "longitude": 23.2,
      "admin_name1": "Šiauliai County"
    },
    {
      "place_name": "Gedvilaičių k.",
      "postal_code": "86061",
      "country_code": "LT",
      "latitude": 55.6,
      "longitude": 23.2,
      "admin_name1": "Šiauliai County"
    },
    {
      "place_name": "Vaidų k.",
      "postal_code": "83001",
      "country_code": "LT",
      "latitude": 55.9667,
      "longitude": 23.8667,
      "admin_name1": "Šiauliai County"
    },
    {
      "place_name": "Margių k.",
      "postal_code": "83004",
      "country_code": "LT",
      "latitude": 55.9333,
      "longitude": 23.95,
      "admin_name1": "Šiauliai County"
    },
    {
      "place_name": "Sukmedžio k.",
      "postal_code": "83022",
      "country_code": "LT",
      "latitude": 56.0042,
      "longitude": 23.6558,
      "admin_name1": "Šiauliai County"
    },
    {
      "place_name": "Minelgių k.",
      "postal_code": "83022",
      "country_code": "LT",
      "latitude": 56.0042,
      "longitude": 23.6558,
      "admin_name1": "Šiauliai County"
    },
    {
      "place_name": "Draudelių k.",
      "postal_code": "83028",
      "country_code": "LT",
      "latitude": 56.1594,
      "longitude": 23.8161,
      "admin_name1": "Šiauliai County"
    },
    {
      "place_name": "Noriūnų k.",
      "postal_code": "83031",
      "country_code": "LT",
      "latitude": 56.2717,
      "longitude": 24.0,
      "admin_name1": "Šiauliai County"
    },
    {
      "place_name": "Zimbiškių k.",
      "postal_code": "83046",
      "country_code": "LT",
      "latitude": 56.0856,
      "longitude": 23.9725,
      "admin_name1": "Šiauliai County"
    },
    {
      "place_name": "Miciškių k.",
      "postal_code": "83046",
      "country_code": "LT",
      "latitude": 56.0856,
      "longitude": 23.9725,
      "admin_name1": "Šiauliai County"
    },
    {
      "place_name": "Megučionių k.",
      "postal_code": "83046",
      "country_code": "LT",
      "latitude": 56.0856,
      "longitude": 23.9725,
      "admin_name1": "Šiauliai County"
    },
    {
      "place_name": "Gataučių k.",
      "postal_code": "83046",
      "country_code": "LT",
      "latitude": 56.0856,
      "longitude": 23.9725,
      "admin_name1": "Šiauliai County"
    },
    {
      "place_name": "Čičykių k.",
      "postal_code": "83046",
      "country_code": "LT",
      "latitude": 56.0856,
      "longitude": 23.9725,
      "admin_name1": "Šiauliai County"
    },
    {
      "place_name": "Girbutkių k.",
      "postal_code": "83046",
      "country_code": "LT",
      "latitude": 56.0856,
      "longitude": 23.9725,
      "admin_name1": "Šiauliai County"
    },
    {
      "place_name": "Dūčių k.",
      "postal_code": "83046",
      "country_code": "LT",
      "latitude": 56.0856,
      "longitude": 23.9725,
      "admin_name1": "Šiauliai County"
    },
    {
      "place_name": "Čelkių k.",
      "postal_code": "83052",
      "country_code": "LT",
      "latitude": 56.0701,
      "longitude": 23.8769,
      "admin_name1": "Šiauliai County"
    },
    {
      "place_name": "Kalnelių k.",
      "postal_code": "83052",
      "country_code": "LT",
      "latitude": 56.0701,
      "longitude": 23.8769,
      "admin_name1": "Šiauliai County"
    },
    {
      "place_name": "Čiutelių l k.",
      "postal_code": "82001",
      "country_code": "LT",
      "latitude": 55.8417,
      "longitude": 23.5167,
      "admin_name1": "Šiauliai County"
    },
    {
      "place_name": "Areiniškių k.",
      "postal_code": "82007",
      "country_code": "LT",
      "latitude": 55.7,
      "longitude": 23.875,
      "admin_name1": "Šiauliai County"
    },
    {
      "place_name": "Šileikonių k.",
      "postal_code": "82007",
      "country_code": "LT",
      "latitude": 55.7,
      "longitude": 23.875,
      "admin_name1": "Šiauliai County"
    },
    {
      "place_name": "Labos k.",
      "postal_code": "82007",
      "country_code": "LT",
      "latitude": 55.7,
      "longitude": 23.875,
      "admin_name1": "Šiauliai County"
    },
    {
      "place_name": "Pavartyčių k.",
      "postal_code": "82007",
      "country_code": "LT",
      "latitude": 55.7,
      "longitude": 23.875,
      "admin_name1": "Šiauliai County"
    },
    {
      "place_name": "Januškonių k.",
      "postal_code": "82007",
      "country_code": "LT",
      "latitude": 55.7,
      "longitude": 23.875,
      "admin_name1": "Šiauliai County"
    },
    {
      "place_name": "Dapšionių k.",
      "postal_code": "82007",
      "country_code": "LT",
      "latitude": 55.7,
      "longitude": 23.875,
      "admin_name1": "Šiauliai County"
    },
    {
      "place_name": "Pagojų k.",
      "postal_code": "82025",
      "country_code": "LT",
      "latitude": 55.6333,
      "longitude": 23.7167,
      "admin_name1": "Šiauliai County"
    },
    {
      "place_name": "Randžių k.",
      "postal_code": "82025",
      "country_code": "LT",
      "latitude": 55.6333,
      "longitude": 23.7167,
      "admin_name1": "Šiauliai County"
    },
    {
      "place_name": "Burūnų k.",
      "postal_code": "82034",
      "country_code": "LT",
      "latitude": 55.5667,
      "longitude": 23.6333,
      "admin_name1": "Šiauliai County"
    },
    {
      "place_name": "Eitvilių k.",
      "postal_code": "82034",
      "country_code": "LT",
      "latitude": 55.5667,
      "longitude": 23.6333,
      "admin_name1": "Šiauliai County"
    },
    {
      "place_name": "Palonų",
      "postal_code": "82058",
      "country_code": "LT",
      "latitude": 55.65,
      "longitude": 23.8167,
      "admin_name1": "Šiauliai County"
    },
    {
      "place_name": "Ilgviečių k.",
      "postal_code": "76001",
      "country_code": "LT",
      "latitude": 55.9333,
      "longitude": 23.3167,
      "admin_name1": "Šiauliai County"
    },
    {
      "place_name": "Paraudžių k.",
      "postal_code": "76001",
      "country_code": "LT",
      "latitude": 55.9333,
      "longitude": 23.3167,
      "admin_name1": "Šiauliai County"
    },
    {
      "place_name": "Taručių k.",
      "postal_code": "76001",
      "country_code": "LT",
      "latitude": 55.9333,
      "longitude": 23.3167,
      "admin_name1": "Šiauliai County"
    },
    {
      "place_name": "Briešlaukio k.",
      "postal_code": "76001",
      "country_code": "LT",
      "latitude": 55.9333,
      "longitude": 23.3167,
      "admin_name1": "Šiauliai County"
    },
    {
      "place_name": "Karvazų k.",
      "postal_code": "76001",
      "country_code": "LT",
      "latitude": 55.9333,
      "longitude": 23.3167,
      "admin_name1": "Šiauliai County"
    },
    {
      "place_name": "Salduvės k.",
      "postal_code": "76001",
      "country_code": "LT",
      "latitude": 55.9333,
      "longitude": 23.3167,
      "admin_name1": "Šiauliai County"
    },
    {
      "place_name": "SB „Raizgiai“",
      "postal_code": "76001",
      "country_code": "LT",
      "latitude": 55.9333,
      "longitude": 23.3167,
      "admin_name1": "Šiauliai County"
    },
    {
      "place_name": "SB „Švendrelis“",
      "postal_code": "76001",
      "country_code": "LT",
      "latitude": 55.9333,
      "longitude": 23.3167,
      "admin_name1": "Šiauliai County"
    },
    {
      "place_name": "Kairiai",
      "postal_code": "80001",
      "country_code": "LT",
      "latitude": 55.9167,
      "longitude": 23.4333,
      "admin_name1": "Šiauliai County"
    },
    {
      "place_name": "Kirbaičių k.",
      "postal_code": "80001",
      "country_code": "LT",
      "latitude": 55.9167,
      "longitude": 23.4333,
      "admin_name1": "Šiauliai County"
    },
    {
      "place_name": "Kairių k.",
      "postal_code": "80001",
      "country_code": "LT",
      "latitude": 55.9167,
      "longitude": 23.4333,
      "admin_name1": "Šiauliai County"
    },
    {
      "place_name": "Strazdų k.",
      "postal_code": "81001",
      "country_code": "LT",
      "latitude": 56.0032,
      "longitude": 22.9366,
      "admin_name1": "Šiauliai County"
    },
    {
      "place_name": "Baužų k.",
      "postal_code": "81024",
      "country_code": "LT",
      "latitude": 56.074,
      "longitude": 23.2347,
      "admin_name1": "Šiauliai County"
    },
    {
      "place_name": "Norvaišių k.",
      "postal_code": "81024",
      "country_code": "LT",
      "latitude": 56.074,
      "longitude": 23.2347,
      "admin_name1": "Šiauliai County"
    },
    {
      "place_name": "Kreivėnų k.",
      "postal_code": "72028",
      "country_code": "LT",
      "latitude": 55.0933,
      "longitude": 21.8919,
      "admin_name1": "Tauragė County"
    },
    {
      "place_name": "Šakininkų ll k.",
      "postal_code": "72028",
      "country_code": "LT",
      "latitude": 55.0933,
      "longitude": 21.8919,
      "admin_name1": "Tauragė County"
    },
    {
      "place_name": "Skrodlių k.",
      "postal_code": "99014",
      "country_code": "LT",
      "latitude": 55.2867,
      "longitude": 21.8278,
      "admin_name1": "Tauragė County"
    },
    {
      "place_name": "Šilgalių k.",
      "postal_code": "99035",
      "country_code": "LT",
      "latitude": 55.1381,
      "longitude": 21.9089,
      "admin_name1": "Tauragė County"
    },
    {
      "place_name": "Kalpokų k.",
      "postal_code": "72001",
      "country_code": "LT",
      "latitude": 55.2333,
      "longitude": 22.2667,
      "admin_name1": "Tauragė County"
    },
    {
      "place_name": "Rekstukų k.",
      "postal_code": "72001",
      "country_code": "LT",
      "latitude": 55.2333,
      "longitude": 22.2667,
      "admin_name1": "Tauragė County"
    },
    {
      "place_name": "Požerūnų k.",
      "postal_code": "72001",
      "country_code": "LT",
      "latitude": 55.2333,
      "longitude": 22.2667,
      "admin_name1": "Tauragė County"
    },
    {
      "place_name": "Oreliškių k.",
      "postal_code": "72001",
      "country_code": "LT",
      "latitude": 55.2333,
      "longitude": 22.2667,
      "admin_name1": "Tauragė County"
    },
    {
      "place_name": "Sodelio k.",
      "postal_code": "72028",
      "country_code": "LT",
      "latitude": 55.0933,
      "longitude": 21.8919,
      "admin_name1": "Tauragė County"
    },
    {
      "place_name": "Lapynų k.",
      "postal_code": "72028",
      "country_code": "LT",
      "latitude": 55.0933,
      "longitude": 21.8919,
      "admin_name1": "Tauragė County"
    },
    {
      "place_name": "Stirbaičių k.",
      "postal_code": "73001",
      "country_code": "LT",
      "latitude": 55.2436,
      "longitude": 22.4658,
      "admin_name1": "Tauragė County"
    },
    {
      "place_name": "Nemeilų k.",
      "postal_code": "73010",
      "country_code": "LT",
      "latitude": 55.3108,
      "longitude": 22.0308,
      "admin_name1": "Tauragė County"
    },
    {
      "place_name": "Dirvėnų k.",
      "postal_code": "73017",
      "country_code": "LT",
      "latitude": 55.3108,
      "longitude": 22.0308,
      "admin_name1": "Tauragė County"
    },
    {
      "place_name": "Vaitkiškės k.",
      "postal_code": "73017",
      "country_code": "LT",
      "latitude": 55.3108,
      "longitude": 22.0308,
      "admin_name1": "Tauragė County"
    },
    {
      "place_name": "Tamošaičių k.",
      "postal_code": "73021",
      "country_code": "LT",
      "latitude": 55.365,
      "longitude": 22.2328,
      "admin_name1": "Tauragė County"
    },
    {
      "place_name": "Ruibiškės k.",
      "postal_code": "73028",
      "country_code": "LT",
      "latitude": 55.4067,
      "longitude": 22.5842,
      "admin_name1": "Tauragė County"
    },
    {
      "place_name": "Mickiškės k.",
      "postal_code": "73032",
      "country_code": "LT",
      "latitude": 55.3494,
      "longitude": 22.5142,
      "admin_name1": "Tauragė County"
    },
    {
      "place_name": "Batakių glžk. st.",
      "postal_code": "73032",
      "country_code": "LT",
      "latitude": 55.3494,
      "longitude": 22.5142,
      "admin_name1": "Tauragė County"
    },
    {
      "place_name": "Andriejaičių k.",
      "postal_code": "75001",
      "country_code": "LT",
      "latitude": 55.4906,
      "longitude": 22.1814,
      "admin_name1": "Tauragė County"
    },
    {
      "place_name": "Deblių k.",
      "postal_code": "75001",
      "country_code": "LT",
      "latitude": 55.4906,
      "longitude": 22.1814,
      "admin_name1": "Tauragė County"
    },
    {
      "place_name": "Simėnų k.",
      "postal_code": "75011",
      "country_code": "LT",
      "latitude": 55.4492,
      "longitude": 22.445,
      "admin_name1": "Tauragė County"
    },
    {
      "place_name": "Sodalės k.",
      "postal_code": "75026",
      "country_code": "LT",
      "latitude": 55.4672,
      "longitude": 21.9882,
      "admin_name1": "Tauragė County"
    },
    {
      "place_name": "Šakėnų k.",
      "postal_code": "75026",
      "country_code": "LT",
      "latitude": 55.4672,
      "longitude": 21.9882,
      "admin_name1": "Tauragė County"
    },
    {
      "place_name": "Grimzdų k.",
      "postal_code": "75029",
      "country_code": "LT",
      "latitude": 55.5589,
      "longitude": 21.9903,
      "admin_name1": "Tauragė County"
    },
    {
      "place_name": "Gūvainių k.",
      "postal_code": "75029",
      "country_code": "LT",
      "latitude": 55.5589,
      "longitude": 21.9903,
      "admin_name1": "Tauragė County"
    },
    {
      "place_name": "Aukštagirės k.",
      "postal_code": "75038",
      "country_code": "LT",
      "latitude": 55.6269,
      "longitude": 22.1983,
      "admin_name1": "Tauragė County"
    },
    {
      "place_name": "Kaštaunalių k.",
      "postal_code": "75038",
      "country_code": "LT",
      "latitude": 55.6269,
      "longitude": 22.1983,
      "admin_name1": "Tauragė County"
    },
    {
      "place_name": "Gerčalių k.",
      "postal_code": "75044",
      "country_code": "LT",
      "latitude": 55.5639,
      "longitude": 22.4514,
      "admin_name1": "Tauragė County"
    },
    {
      "place_name": "Krūtilės k.",
      "postal_code": "75044",
      "country_code": "LT",
      "latitude": 55.5639,
      "longitude": 22.4514,
      "admin_name1": "Tauragė County"
    },
    {
      "place_name": "Pempės k.",
      "postal_code": "75044",
      "country_code": "LT",
      "latitude": 55.5639,
      "longitude": 22.4514,
      "admin_name1": "Tauragė County"
    },
    {
      "place_name": "Ruskių k.",
      "postal_code": "75044",
      "country_code": "LT",
      "latitude": 55.5639,
      "longitude": 22.4514,
      "admin_name1": "Tauragė County"
    },
    {
      "place_name": "Vidkiemio k.",
      "postal_code": "74009",
      "country_code": "LT",
      "latitude": 55.0756,
      "longitude": 22.5797,
      "admin_name1": "Tauragė County"
    },
    {
      "place_name": "Saukų k.",
      "postal_code": "74015",
      "country_code": "LT",
      "latitude": 55.0742,
      "longitude": 22.3842,
      "admin_name1": "Tauragė County"
    },
    {
      "place_name": "Stiegvilų k.",
      "postal_code": "74021",
      "country_code": "LT",
      "latitude": 55.2631,
      "longitude": 22.7211,
      "admin_name1": "Tauragė County"
    },
    {
      "place_name": "Dūdlaukio k.",
      "postal_code": "74021",
      "country_code": "LT",
      "latitude": 55.2631,
      "longitude": 22.7211,
      "admin_name1": "Tauragė County"
    },
    {
      "place_name": "Lentinės k.",
      "postal_code": "74021",
      "country_code": "LT",
      "latitude": 55.2631,
      "longitude": 22.7211,
      "admin_name1": "Tauragė County"
    },
    {
      "place_name": "Garšvilų k.",
      "postal_code": "74021",
      "country_code": "LT",
      "latitude": 55.2631,
      "longitude": 22.7211,
      "admin_name1": "Tauragė County"
    },
    {
      "place_name": "Skliausčių k.",
      "postal_code": "74027",
      "country_code": "LT",
      "latitude": 55.2631,
      "longitude": 22.7211,
      "admin_name1": "Tauragė County"
    },
    {
      "place_name": "Aukštrakių k.",
      "postal_code": "74030",
      "country_code": "LT",
      "latitude": 55.2553,
      "longitude": 22.9189,
      "admin_name1": "Tauragė County"
    },
    {
      "place_name": "Naukaimio III k.",
      "postal_code": "74033",
      "country_code": "LT",
      "latitude": 55.2303,
      "longitude": 22.9947,
      "admin_name1": "Tauragė County"
    },
    {
      "place_name": "Zagriaužio k.",
      "postal_code": "74039",
      "country_code": "LT",
      "latitude": 55.223,
      "longitude": 22.999,
      "admin_name1": "Tauragė County"
    },
    {
      "place_name": "Peldžiūnų ll k.",
      "postal_code": "74039",
      "country_code": "LT",
      "latitude": 55.223,
      "longitude": 22.999,
      "admin_name1": "Tauragė County"
    },
    {
      "place_name": "Stačiūnų k.",
      "postal_code": "74048",
      "country_code": "LT",
      "latitude": 54.9419,
      "longitude": 22.9953,
      "admin_name1": "Tauragė County"
    },
    {
      "place_name": "Spruktų k.",
      "postal_code": "74048",
      "country_code": "LT",
      "latitude": 54.9419,
      "longitude": 22.9953,
      "admin_name1": "Tauragė County"
    },
    {
      "place_name": "Gystenų k.",
      "postal_code": "74054",
      "country_code": "LT",
      "latitude": 55.0833,
      "longitude": 23.2833,
      "admin_name1": "Tauragė County"
    },
    {
      "place_name": "Skirsnemuniškių ll k.",
      "postal_code": "74063",
      "country_code": "LT",
      "latitude": 55.1252,
      "longitude": 22.9318,
      "admin_name1": "Tauragė County"
    },
    {
      "place_name": "Kušlėnų k.",
      "postal_code": "89021",
      "country_code": "LT",
      "latitude": 56.35,
      "longitude": 22.2917,
      "admin_name1": "Telšių apskritis"
    },
    {
      "place_name": "Tirkšlių k.",
      "postal_code": "89031",
      "country_code": "LT",
      "latitude": 56.2667,
      "longitude": 22.3167,
      "admin_name1": "Telšių apskritis"
    },
    {
      "place_name": "Pikeliai",
      "postal_code": "89079",
      "country_code": "LT",
      "latitude": 56.4176,
      "longitude": 22.1103,
      "admin_name1": "Telšių apskritis"
    },
    {
      "place_name": "Laižuva",
      "postal_code": "89085",
      "country_code": "LT",
      "latitude": 56.3813,
      "longitude": 22.5637,
      "admin_name1": "Telšių apskritis"
    },
    {
      "place_name": "Žibikų k.",
      "postal_code": "89094",
      "country_code": "LT",
      "latitude": 56.2333,
      "longitude": 22.5167,
      "admin_name1": "Telšių apskritis"
    },
    {
      "place_name": "Pakalupio k.",
      "postal_code": "89094",
      "country_code": "LT",
      "latitude": 56.2333,
      "longitude": 22.5167,
      "admin_name1": "Telšių apskritis"
    },
    {
      "place_name": "Tučių l k.",
      "postal_code": "89097",
      "country_code": "LT",
      "latitude": 56.2333,
      "longitude": 22.5167,
      "admin_name1": "Telšių apskritis"
    },
    {
      "place_name": "Grūstės k.",
      "postal_code": "89097",
      "country_code": "LT",
      "latitude": 56.2333,
      "longitude": 22.5167,
      "admin_name1": "Telšių apskritis"
    },
    {
      "place_name": "Noriškių k.",
      "postal_code": "90001",
      "country_code": "LT",
      "latitude": 55.9114,
      "longitude": 21.8442,
      "admin_name1": "Telšių apskritis"
    },
    {
      "place_name": "SB „Gandinga“",
      "postal_code": "90001",
      "country_code": "LT",
      "latitude": 55.9114,
      "longitude": 21.8442,
      "admin_name1": "Telšių apskritis"
    },
    {
      "place_name": "Jėrubaičių k.",
      "postal_code": "90009",
      "country_code": "LT",
      "latitude": 55.9114,
      "longitude": 21.8442,
      "admin_name1": "Telšių apskritis"
    },
    {
      "place_name": "Kalniškių k.",
      "postal_code": "90021",
      "country_code": "LT",
      "latitude": 55.8,
      "longitude": 21.65,
      "admin_name1": "Telšių apskritis"
    },
    {
      "place_name": "Dyburių k.",
      "postal_code": "90027",
      "country_code": "LT",
      "latitude": 55.8,
      "longitude": 21.65,
      "admin_name1": "Telšių apskritis"
    },
    {
      "place_name": "Medsėdžių k.",
      "postal_code": "90036",
      "country_code": "LT",
      "latitude": 56.05,
      "longitude": 21.8167,
      "admin_name1": "Telšių apskritis"
    },
    {
      "place_name": "Dargaičių k.",
      "postal_code": "90039",
      "country_code": "LT",
      "latitude": 56.1167,
      "longitude": 22.0167,
      "admin_name1": "Telšių apskritis"
    },
    {
      "place_name": "Paplatelės k.",
      "postal_code": "90039",
      "country_code": "LT",
      "latitude": 56.1167,
      "longitude": 22.0167,
      "admin_name1": "Telšių apskritis"
    },
    {
      "place_name": "Raišaičių k.",
      "postal_code": "90045",
      "country_code": "LT",
      "latitude": 56.0333,
      "longitude": 22.05,
      "admin_name1": "Telšių apskritis"
    },
    {
      "place_name": "Juodeikių k.",
      "postal_code": "90045",
      "country_code": "LT",
      "latitude": 56.0333,
      "longitude": 22.05,
      "admin_name1": "Telšių apskritis"
    },
    {
      "place_name": "Trejokų k.",
      "postal_code": "90015",
      "country_code": "LT",
      "latitude": 55.7194,
      "longitude": 21.9311,
      "admin_name1": "Telšių apskritis"
    },
    {
      "place_name": "Skaborų k.",
      "postal_code": "90015",
      "country_code": "LT",
      "latitude": 55.7194,
      "longitude": 21.9311,
      "admin_name1": "Telšių apskritis"
    },
    {
      "place_name": "Giliogirio k.",
      "postal_code": "90018",
      "country_code": "LT",
      "latitude": 55.7194,
      "longitude": 21.9311,
      "admin_name1": "Telšių apskritis"
    },
    {
      "place_name": "Vatušių k.",
      "postal_code": "90018",
      "country_code": "LT",
      "latitude": 55.7194,
      "longitude": 21.9311,
      "admin_name1": "Telšių apskritis"
    },
    {
      "place_name": "Jonauskių k.",
      "postal_code": "87001",
      "country_code": "LT",
      "latitude": 55.9814,
      "longitude": 22.2472,
      "admin_name1": "Telšių apskritis"
    },
    {
      "place_name": "Užgirių k.",
      "postal_code": "87001",
      "country_code": "LT",
      "latitude": 55.9814,
      "longitude": 22.2472,
      "admin_name1": "Telšių apskritis"
    },
    {
      "place_name": "Kuodžių k.",
      "postal_code": "87001",
      "country_code": "LT",
      "latitude": 55.9814,
      "longitude": 22.2472,
      "admin_name1": "Telšių apskritis"
    },
    {
      "place_name": "Pabalvės k.",
      "postal_code": "88011",
      "country_code": "LT",
      "latitude": 56.0667,
      "longitude": 22.5833,
      "admin_name1": "Telšių apskritis"
    },
    {
      "place_name": "Paškuvėnų k.",
      "postal_code": "88019",
      "country_code": "LT",
      "latitude": 55.8849,
      "longitude": 22.4553,
      "admin_name1": "Telšių apskritis"
    },
    {
      "place_name": "Pėtrikių k.",
      "postal_code": "88033",
      "country_code": "LT",
      "latitude": 55.8947,
      "longitude": 22.5258,
      "admin_name1": "Telšių apskritis"
    },
    {
      "place_name": "Staniškės k.",
      "postal_code": "88033",
      "country_code": "LT",
      "latitude": 55.8947,
      "longitude": 22.5258,
      "admin_name1": "Telšių apskritis"
    },
    {
      "place_name": "Barvydžių k.",
      "postal_code": "88033",
      "country_code": "LT",
      "latitude": 55.8947,
      "longitude": 22.5258,
      "admin_name1": "Telšių apskritis"
    },
    {
      "place_name": "Žylakių k.",
      "postal_code": "88033",
      "country_code": "LT",
      "latitude": 55.8947,
      "longitude": 22.5258,
      "admin_name1": "Telšių apskritis"
    },
    {
      "place_name": "Petraičių k.",
      "postal_code": "88033",
      "country_code": "LT",
      "latitude": 55.8947,
      "longitude": 22.5258,
      "admin_name1": "Telšių apskritis"
    },
    {
      "place_name": "Jonaičių k.",
      "postal_code": "88033",
      "country_code": "LT",
      "latitude": 55.8947,
      "longitude": 22.5258,
      "admin_name1": "Telšių apskritis"
    },
    {
      "place_name": "Klubokų k.",
      "postal_code": "88050",
      "country_code": "LT",
      "latitude": 55.7406,
      "longitude": 22.3644,
      "admin_name1": "Telšių apskritis"
    },
    {
      "place_name": "Pluotinės k.",
      "postal_code": "88061",
      "country_code": "LT",
      "latitude": 55.8394,
      "longitude": 22.2056,
      "admin_name1": "Telšių apskritis"
    },
    {
      "place_name": "Pakapių k.",
      "postal_code": "88068",
      "country_code": "LT",
      "latitude": 55.8394,
      "longitude": 22.2056,
      "admin_name1": "Telšių apskritis"
    },
    {
      "place_name": "Ringailių k.",
      "postal_code": "88068",
      "country_code": "LT",
      "latitude": 55.8394,
      "longitude": 22.2056,
      "admin_name1": "Telšių apskritis"
    },
    {
      "place_name": "Buožėnų k.",
      "postal_code": "88075",
      "country_code": "LT",
      "latitude": 56.0667,
      "longitude": 22.2167,
      "admin_name1": "Telšių apskritis"
    },
    {
      "place_name": "Sarakų l k.",
      "postal_code": "88075",
      "country_code": "LT",
      "latitude": 56.0667,
      "longitude": 22.2167,
      "admin_name1": "Telšių apskritis"
    },
    {
      "place_name": "Morkiškių k.",
      "postal_code": "88085",
      "country_code": "LT",
      "latitude": 56.1,
      "longitude": 22.2833,
      "admin_name1": "Telšių apskritis"
    },
    {
      "place_name": "Nagurkiškių k.",
      "postal_code": "29001",
      "country_code": "LT",
      "latitude": 55.5256,
      "longitude": 25.1026,
      "admin_name1": "Utena County"
    },
    {
      "place_name": "Skapiškio k.",
      "postal_code": "29001",
      "country_code": "LT",
      "latitude": 55.5256,
      "longitude": 25.1026,
      "admin_name1": "Utena County"
    },
    {
      "place_name": "Puntuko k.",
      "postal_code": "29001",
      "country_code": "LT",
      "latitude": 55.5256,
      "longitude": 25.1026,
      "admin_name1": "Utena County"
    },
    {
      "place_name": "Grūdeliškio k.",
      "postal_code": "29006",
      "country_code": "LT",
      "latitude": 55.5256,
      "longitude": 25.1026,
      "admin_name1": "Utena County"
    },
    {
      "place_name": "Kryžokų k.",
      "postal_code": "29015",
      "country_code": "LT",
      "latitude": 55.4167,
      "longitude": 25.1167,
      "admin_name1": "Utena County"
    },
    {
      "place_name": "Gudonių k.",
      "postal_code": "29018",
      "country_code": "LT",
      "latitude": 55.4167,
      "longitude": 25.1917,
      "admin_name1": "Utena County"
    },
    {
      "place_name": "Malgažatavos k.",
      "postal_code": "29021",
      "country_code": "LT",
      "latitude": 55.4333,
      "longitude": 24.9167,
      "admin_name1": "Utena County"
    },
    {
      "place_name": "Mariniškių k.",
      "postal_code": "29021",
      "country_code": "LT",
      "latitude": 55.4333,
      "longitude": 24.9167,
      "admin_name1": "Utena County"
    },
    {
      "place_name": "Šovenių k.",
      "postal_code": "29021",
      "country_code": "LT",
      "latitude": 55.4333,
      "longitude": 24.9167,
      "admin_name1": "Utena County"
    },
    {
      "place_name": "Dambuvkos k.",
      "postal_code": "29021",
      "country_code": "LT",
      "latitude": 55.4333,
      "longitude": 24.9167,
      "admin_name1": "Utena County"
    },
    {
      "place_name": "Budrių k.",
      "postal_code": "29021",
      "country_code": "LT",
      "latitude": 55.4333,
      "longitude": 24.9167,
      "admin_name1": "Utena County"
    },
    {
      "place_name": "Pakalnių k.",
      "postal_code": "29021",
      "country_code": "LT",
      "latitude": 55.4333,
      "longitude": 24.9167,
      "admin_name1": "Utena County"
    },
    {
      "place_name": "Klaibūnų k.",
      "postal_code": "29030",
      "country_code": "LT",
      "latitude": 55.5167,
      "longitude": 24.75,
      "admin_name1": "Utena County"
    },
    {
      "place_name": "Antalinos k.",
      "postal_code": "29036",
      "country_code": "LT",
      "latitude": 55.6667,
      "longitude": 24.8167,
      "admin_name1": "Utena County"
    },
    {
      "place_name": "Vazdėlių k.",
      "postal_code": "29036",
      "country_code": "LT",
      "latitude": 55.6667,
      "longitude": 24.8167,
      "admin_name1": "Utena County"
    },
    {
      "place_name": "Maželių k.",
      "postal_code": "29042",
      "country_code": "LT",
      "latitude": 55.6,
      "longitude": 25.05,
      "admin_name1": "Utena County"
    },
    {
      "place_name": "Didžiuliškių k.",
      "postal_code": "29042",
      "country_code": "LT",
      "latitude": 55.6,
      "longitude": 25.05,
      "admin_name1": "Utena County"
    },
    {
      "place_name": "Miškinių k.",
      "postal_code": "29045",
      "country_code": "LT",
      "latitude": 55.6833,
      "longitude": 25.3667,
      "admin_name1": "Utena County"
    },
    {
      "place_name": "Bernatkų k.",
      "postal_code": "32001",
      "country_code": "LT",
      "latitude": 55.7333,
      "longitude": 26.25,
      "admin_name1": "Utena County"
    },
    {
      "place_name": "Smėlynės k.",
      "postal_code": "32001",
      "country_code": "LT",
      "latitude": 55.7333,
      "longitude": 26.25,
      "admin_name1": "Utena County"
    },
    {
      "place_name": "Blyniškių k.",
      "postal_code": "32001",
      "country_code": "LT",
      "latitude": 55.7333,
      "longitude": 26.25,
      "admin_name1": "Utena County"
    },
    {
      "place_name": "Burnių k.",
      "postal_code": "32004",
      "country_code": "LT",
      "latitude": 55.7,
      "longitude": 26.45,
      "admin_name1": "Utena County"
    },
    {
      "place_name": "Brusovankos k.",
      "postal_code": "32004",
      "country_code": "LT",
      "latitude": 55.7,
      "longitude": 26.45,
      "admin_name1": "Utena County"
    },
    {
      "place_name": "Vartiškių k.",
      "postal_code": "32010",
      "country_code": "LT",
      "latitude": 55.6667,
      "longitude": 25.85,
      "admin_name1": "Utena County"
    },
    {
      "place_name": "Maderų k.",
      "postal_code": "32013",
      "country_code": "LT",
      "latitude": 55.6667,
      "longitude": 25.85,
      "admin_name1": "Utena County"
    },
    {
      "place_name": "Mierkiškių k.",
      "postal_code": "32016",
      "country_code": "LT",
      "latitude": 55.6667,
      "longitude": 25.85,
      "admin_name1": "Utena County"
    },
    {
      "place_name": "Dumblynės k.",
      "postal_code": "32019",
      "country_code": "LT",
      "latitude": 55.6667,
      "longitude": 25.85,
      "admin_name1": "Utena County"
    },
    {
      "place_name": "Upiškių k.",
      "postal_code": "32022",
      "country_code": "LT",
      "latitude": 55.75,
      "longitude": 25.85,
      "admin_name1": "Utena County"
    },
    {
      "place_name": "Degutiškių k.",
      "postal_code": "32028",
      "country_code": "LT",
      "latitude": 55.75,
      "longitude": 25.85,
      "admin_name1": "Utena County"
    },
    {
      "place_name": "Breidokiškių k.",
      "postal_code": "32028",
      "country_code": "LT",
      "latitude": 55.75,
      "longitude": 25.85,
      "admin_name1": "Utena County"
    },
    {
      "place_name": "Juljanavos k.",
      "postal_code": "32028",
      "country_code": "LT",
      "latitude": 55.75,
      "longitude": 25.85,
      "admin_name1": "Utena County"
    },
    {
      "place_name": "Avilių ll k.",
      "postal_code": "32028",
      "country_code": "LT",
      "latitude": 55.75,
      "longitude": 25.85,
      "admin_name1": "Utena County"
    },
    {
      "place_name": "Feklistaukos k.",
      "postal_code": "32028",
      "country_code": "LT",
      "latitude": 55.75,
      "longitude": 25.85,
      "admin_name1": "Utena County"
    },
    {
      "place_name": "Vitriniškių k.",
      "postal_code": "32028",
      "country_code": "LT",
      "latitude": 55.75,
      "longitude": 25.85,
      "admin_name1": "Utena County"
    },
    {
      "place_name": "Veseluškų k.",
      "postal_code": "32029",
      "country_code": "LT",
      "latitude": 55.75,
      "longitude": 25.85,
      "admin_name1": "Utena County"
    },
    {
      "place_name": "Pazadnojos k.",
      "postal_code": "32029",
      "country_code": "LT",
      "latitude": 55.75,
      "longitude": 25.85,
      "admin_name1": "Utena County"
    },
    {
      "place_name": "Butkelių k.",
      "postal_code": "32029",
      "country_code": "LT",
      "latitude": 55.75,
      "longitude": 25.85,
      "admin_name1": "Utena County"
    },
    {
      "place_name": "Paberžės k.",
      "postal_code": "32029",
      "country_code": "LT",
      "latitude": 55.75,
      "longitude": 25.85,
      "admin_name1": "Utena County"
    },
    {
      "place_name": "Mierkių k.",
      "postal_code": "32029",
      "country_code": "LT",
      "latitude": 55.75,
      "longitude": 25.85,
      "admin_name1": "Utena County"
    },
    {
      "place_name": "Bukiškių k.",
      "postal_code": "32032",
      "country_code": "LT",
      "latitude": 55.6867,
      "longitude": 26.1067,
      "admin_name1": "Utena County"
    },
    {
      "place_name": "Uženiškių k.",
      "postal_code": "32032",
      "country_code": "LT",
      "latitude": 55.6867,
      "longitude": 26.1067,
      "admin_name1": "Utena County"
    },
    {
      "place_name": "Kudabiškės k.",
      "postal_code": "30009",
      "country_code": "LT",
      "latitude": 55.3167,
      "longitude": 26.6,
      "admin_name1": "Utena County"
    },
    {
      "place_name": "Kliukų k.",
      "postal_code": "30009",
      "country_code": "LT",
      "latitude": 55.3167,
      "longitude": 26.6,
      "admin_name1": "Utena County"
    },
    {
      "place_name": "Kančiogino k.",
      "postal_code": "30015",
      "country_code": "LT",
      "latitude": 55.25,
      "longitude": 26.4333,
      "admin_name1": "Utena County"
    },
    {
      "place_name": "Totoriškės k.",
      "postal_code": "30015",
      "country_code": "LT",
      "latitude": 55.25,
      "longitude": 26.4333,
      "admin_name1": "Utena County"
    },
    {
      "place_name": "Paragiškės k.",
      "postal_code": "30015",
      "country_code": "LT",
      "latitude": 55.25,
      "longitude": 26.4333,
      "admin_name1": "Utena County"
    },
    {
      "place_name": "Ramutiškės k.",
      "postal_code": "30015",
      "country_code": "LT",
      "latitude": 55.25,
      "longitude": 26.4333,
      "admin_name1": "Utena County"
    },
    {
      "place_name": "Lepšių k.",
      "postal_code": "30015",
      "country_code": "LT",
      "latitude": 55.25,
      "longitude": 26.4333,
      "admin_name1": "Utena County"
    },
    {
      "place_name": "Burkolio k.",
      "postal_code": "30018",
      "country_code": "LT",
      "latitude": 55.25,
      "longitude": 26.4333,
      "admin_name1": "Utena County"
    },
    {
      "place_name": "Mozūriškės k.",
      "postal_code": "30024",
      "country_code": "LT",
      "latitude": 55.3967,
      "longitude": 26.3933,
      "admin_name1": "Utena County"
    },
    {
      "place_name": "Vilkanastrų k.",
      "postal_code": "67027",
      "country_code": "LT",
      "latitude": 54.0909,
      "longitude": 23.8587,
      "admin_name1": "Alytus County"
    },
    {
      "place_name": "Kaziulių k.",
      "postal_code": "67027",
      "country_code": "LT",
      "latitude": 54.0909,
      "longitude": 23.8587,
      "admin_name1": "Alytus County"
    },
    {
      "place_name": "Jurgelianka",
      "postal_code": "62001",
      "country_code": "LT",
      "latitude": 54.4,
      "longitude": 24.05,
      "admin_name1": "Alytus County"
    },
    {
      "place_name": "Mikutiškių k.",
      "postal_code": "62001",
      "country_code": "LT",
      "latitude": 54.4,
      "longitude": 24.05,
      "admin_name1": "Alytus County"
    },
    {
      "place_name": "Putinų vienk.",
      "postal_code": "62014",
      "country_code": "LT",
      "latitude": 54.4,
      "longitude": 24.05,
      "admin_name1": "Alytus County"
    },
    {
      "place_name": "Obelaičių k.",
      "postal_code": "64005",
      "country_code": "LT",
      "latitude": 54.3667,
      "longitude": 24.3333,
      "admin_name1": "Alytus County"
    },
    {
      "place_name": "Vabalių k.",
      "postal_code": "64005",
      "country_code": "LT",
      "latitude": 54.3667,
      "longitude": 24.3333,
      "admin_name1": "Alytus County"
    },
    {
      "place_name": "Slabadėlės k.",
      "postal_code": "64005",
      "country_code": "LT",
      "latitude": 54.3667,
      "longitude": 24.3333,
      "admin_name1": "Alytus County"
    },
    {
      "place_name": "Pagilės k.",
      "postal_code": "64009",
      "country_code": "LT",
      "latitude": 54.3667,
      "longitude": 24.3333,
      "admin_name1": "Alytus County"
    },
    {
      "place_name": "Vaikantonių k.",
      "postal_code": "64009",
      "country_code": "LT",
      "latitude": 54.3667,
      "longitude": 24.3333,
      "admin_name1": "Alytus County"
    },
    {
      "place_name": "Arčiūnų k.",
      "postal_code": "64009",
      "country_code": "LT",
      "latitude": 54.3667,
      "longitude": 24.3333,
      "admin_name1": "Alytus County"
    },
    {
      "place_name": "Slavinčiškių k.",
      "postal_code": "64009",
      "country_code": "LT",
      "latitude": 54.3667,
      "longitude": 24.3333,
      "admin_name1": "Alytus County"
    },
    {
      "place_name": "Galintankos k.",
      "postal_code": "64017",
      "country_code": "LT",
      "latitude": 54.4,
      "longitude": 24.0067,
      "admin_name1": "Alytus County"
    },
    {
      "place_name": "Užupių k.",
      "postal_code": "64021",
      "country_code": "LT",
      "latitude": 54.3,
      "longitude": 24.0333,
      "admin_name1": "Alytus County"
    },
    {
      "place_name": "Krokialaukis",
      "postal_code": "64041",
      "country_code": "LT",
      "latitude": 54.4333,
      "longitude": 23.7667,
      "admin_name1": "Alytus County"
    },
    {
      "place_name": "Eičiūnų k.",
      "postal_code": "64061",
      "country_code": "LT",
      "latitude": 54.5,
      "longitude": 24.25,
      "admin_name1": "Alytus County"
    },
    {
      "place_name": "Mickūnavos k.",
      "postal_code": "64069",
      "country_code": "LT",
      "latitude": 54.5,
      "longitude": 24.25,
      "admin_name1": "Alytus County"
    },
    {
      "place_name": "Vydenių k.",
      "postal_code": "65007",
      "country_code": "LT",
      "latitude": 54.25,
      "longitude": 24.55,
      "admin_name1": "Alytus County"
    },
    {
      "place_name": "Cibonių k.",
      "postal_code": "65007",
      "country_code": "LT",
      "latitude": 54.25,
      "longitude": 24.55,
      "admin_name1": "Alytus County"
    },
    {
      "place_name": "Krūklių k.",
      "postal_code": "65011",
      "country_code": "LT",
      "latitude": 54.2542,
      "longitude": 24.4958,
      "admin_name1": "Alytus County"
    },
    {
      "place_name": "Bingelių k.",
      "postal_code": "65035",
      "country_code": "LT",
      "latitude": 54.1667,
      "longitude": 24.1667,
      "admin_name1": "Alytus County"
    },
    {
      "place_name": "Lankininkų k.",
      "postal_code": "65035",
      "country_code": "LT",
      "latitude": 54.1667,
      "longitude": 24.1667,
      "admin_name1": "Alytus County"
    },
    {
      "place_name": "Merkinės vienk.",
      "postal_code": "65035",
      "country_code": "LT",
      "latitude": 54.1667,
      "longitude": 24.1667,
      "admin_name1": "Alytus County"
    },
    {
      "place_name": "Giraitės k.",
      "postal_code": "65043",
      "country_code": "LT",
      "latitude": 54.2542,
      "longitude": 24.4958,
      "admin_name1": "Alytus County"
    },
    {
      "place_name": "Pamusėlių k.",
      "postal_code": "65051",
      "country_code": "LT",
      "latitude": 54.2542,
      "longitude": 24.4958,
      "admin_name1": "Alytus County"
    },
    {
      "place_name": "Damanonių k.",
      "postal_code": "65055",
      "country_code": "LT",
      "latitude": 54.2542,
      "longitude": 24.4958,
      "admin_name1": "Alytus County"
    },
    {
      "place_name": "Puodžių k.",
      "postal_code": "65059",
      "country_code": "LT",
      "latitude": 54.2542,
      "longitude": 24.4958,
      "admin_name1": "Alytus County"
    },
    {
      "place_name": "Molių k.",
      "postal_code": "65071",
      "country_code": "LT",
      "latitude": 54.25,
      "longitude": 24.55,
      "admin_name1": "Alytus County"
    },
    {
      "place_name": "Paramelio k.",
      "postal_code": "65079",
      "country_code": "LT",
      "latitude": 54.25,
      "longitude": 24.55,
      "admin_name1": "Alytus County"
    },
    {
      "place_name": "Šilinių k.",
      "postal_code": "65079",
      "country_code": "LT",
      "latitude": 54.25,
      "longitude": 24.55,
      "admin_name1": "Alytus County"
    },
    {
      "place_name": "Avižonių k.",
      "postal_code": "67001",
      "country_code": "LT",
      "latitude": 54.2333,
      "longitude": 23.5167,
      "admin_name1": "Alytus County"
    },
    {
      "place_name": "Naujasodžio k.",
      "postal_code": "67019",
      "country_code": "LT",
      "latitude": 54.2333,
      "longitude": 23.8167,
      "admin_name1": "Alytus County"
    },
    {
      "place_name": "Demeniškių k.",
      "postal_code": "67019",
      "country_code": "LT",
      "latitude": 54.2333,
      "longitude": 23.8167,
      "admin_name1": "Alytus County"
    },
    {
      "place_name": "Vidzgailų k.",
      "postal_code": "67055",
      "country_code": "LT",
      "latitude": 54.2134,
      "longitude": 23.6198,
      "admin_name1": "Alytus County"
    },
    {
      "place_name": "Delnicos k.",
      "postal_code": "67067",
      "country_code": "LT",
      "latitude": 54.3667,
      "longitude": 23.4333,
      "admin_name1": "Alytus County"
    },
    {
      "place_name": "Olendrų k.",
      "postal_code": "67071",
      "country_code": "LT",
      "latitude": 54.3833,
      "longitude": 23.55,
      "admin_name1": "Alytus County"
    },
    {
      "place_name": "Švedakampio k.",
      "postal_code": "67083",
      "country_code": "LT",
      "latitude": 54.3,
      "longitude": 23.4333,
      "admin_name1": "Alytus County"
    },
    {
      "place_name": "Metelių k.",
      "postal_code": "67083",
      "country_code": "LT",
      "latitude": 54.3,
      "longitude": 23.4333,
      "admin_name1": "Alytus County"
    },
    {
      "place_name": "Skaistučių k.",
      "postal_code": "67083",
      "country_code": "LT",
      "latitude": 54.3,
      "longitude": 23.4333,
      "admin_name1": "Alytus County"
    },
    {
      "place_name": "Būdų k.",
      "postal_code": "59009",
      "country_code": "LT",
      "latitude": 54.6167,
      "longitude": 24.0333,
      "admin_name1": "Kaunas County"
    },
    {
      "place_name": "Kaunas",
      "postal_code": "48001",
      "country_code": "LT",
      "latitude": 54.9,
      "longitude": 23.9,
      "admin_name1": "Kaunas County"
    },
    {
      "place_name": "Gegutės k.",
      "postal_code": "55001",
      "country_code": "LT",
      "latitude": 55.1,
      "longitude": 24.1333,
      "admin_name1": "Kaunas County"
    },
    {
      "place_name": "Lokenėlių k.",
      "postal_code": "55001",
      "country_code": "LT",
      "latitude": 55.1,
      "longitude": 24.1333,
      "admin_name1": "Kaunas County"
    },
    {
      "place_name": "SB „Žvirgždė“",
      "postal_code": "55041",
      "country_code": "LT",
      "latitude": 55.1167,
      "longitude": 24.2667,
      "admin_name1": "Kaunas County"
    },
    {
      "place_name": "SB „Dailininkų“",
      "postal_code": "55041",
      "country_code": "LT",
      "latitude": 55.1167,
      "longitude": 24.2667,
      "admin_name1": "Kaunas County"
    },
    {
      "place_name": "SB „Inkaras-2“",
      "postal_code": "55041",
      "country_code": "LT",
      "latitude": 55.1167,
      "longitude": 24.2667,
      "admin_name1": "Kaunas County"
    },
    {
      "place_name": "Užusalių k.",
      "postal_code": "55044",
      "country_code": "LT",
      "latitude": 55.1167,
      "longitude": 24.2667,
      "admin_name1": "Kaunas County"
    },
    {
      "place_name": "Barsukynės k.",
      "postal_code": "55052",
      "country_code": "LT",
      "latitude": 55.1833,
      "longitude": 24.4333,
      "admin_name1": "Kaunas County"
    },
    {
      "place_name": "Rukuižų k.",
      "postal_code": "55052",
      "country_code": "LT",
      "latitude": 55.1833,
      "longitude": 24.4333,
      "admin_name1": "Kaunas County"
    },
    {
      "place_name": "Panoteriai",
      "postal_code": "55052",
      "country_code": "LT",
      "latitude": 55.1833,
      "longitude": 24.4333,
      "admin_name1": "Kaunas County"
    },
    {
      "place_name": "Piliakalnių k.",
      "postal_code": "55052",
      "country_code": "LT",
      "latitude": 55.1833,
      "longitude": 24.4333,
      "admin_name1": "Kaunas County"
    },
    {
      "place_name": "Vyšnialaukio k.",
      "postal_code": "55096",
      "country_code": "LT",
      "latitude": 55.1167,
      "longitude": 24.2667,
      "admin_name1": "Kaunas County"
    },
    {
      "place_name": "Bajoriškių k.",
      "postal_code": "55096",
      "country_code": "LT",
      "latitude": 55.1167,
      "longitude": 24.2667,
      "admin_name1": "Kaunas County"
    },
    {
      "place_name": "Pašulių k.",
      "postal_code": "56001",
      "country_code": "LT",
      "latitude": 54.8833,
      "longitude": 24.175,
      "admin_name1": "Kaunas County"
    },
    {
      "place_name": "Butkų k.",
      "postal_code": "56017",
      "country_code": "LT",
      "latitude": 54.8,
      "longitude": 24.45,
      "admin_name1": "Kaunas County"
    },
    {
      "place_name": "Bulotų k.",
      "postal_code": "56017",
      "country_code": "LT",
      "latitude": 54.8,
      "longitude": 24.45,
      "admin_name1": "Kaunas County"
    },
    {
      "place_name": "SB „Puntukas“",
      "postal_code": "56040",
      "country_code": "LT",
      "latitude": 54.8669,
      "longitude": 24.2193,
      "admin_name1": "Kaunas County"
    },
    {
      "place_name": "Lapelės k.",
      "postal_code": "56054",
      "country_code": "LT",
      "latitude": 54.8445,
      "longitude": 24.3088,
      "admin_name1": "Kaunas County"
    },
    {
      "place_name": "Gegužinės k.",
      "postal_code": "56060",
      "country_code": "LT",
      "latitude": 54.8667,
      "longitude": 24.6,
      "admin_name1": "Kaunas County"
    },
    {
      "place_name": "Gečionių k.",
      "postal_code": "56060",
      "country_code": "LT",
      "latitude": 54.8667,
      "longitude": 24.6,
      "admin_name1": "Kaunas County"
    },
    {
      "place_name": "Slajos k.",
      "postal_code": "56060",
      "country_code": "LT",
      "latitude": 54.8667,
      "longitude": 24.6,
      "admin_name1": "Kaunas County"
    },
    {
      "place_name": "Lemučionių k.",
      "postal_code": "56063",
      "country_code": "LT",
      "latitude": 54.8667,
      "longitude": 24.6,
      "admin_name1": "Kaunas County"
    },
    {
      "place_name": "Neravų k.",
      "postal_code": "56063",
      "country_code": "LT",
      "latitude": 54.8667,
      "longitude": 24.6,
      "admin_name1": "Kaunas County"
    },
    {
      "place_name": "SB „Jiesia“",
      "postal_code": "46001",
      "country_code": "LT",
      "latitude": 54.9,
      "longitude": 23.9,
      "admin_name1": "Kaunas County"
    },
    {
      "place_name": "SB „Šaltinis“",
      "postal_code": "53015",
      "country_code": "LT",
      "latitude": 54.9521,
      "longitude": 23.7641,
      "admin_name1": "Kaunas County"
    },
    {
      "place_name": "SB „Saulutė“",
      "postal_code": "53015",
      "country_code": "LT",
      "latitude": 54.9521,
      "longitude": 23.7641,
      "admin_name1": "Kaunas County"
    },
    {
      "place_name": "SB „Šypsena“",
      "postal_code": "53015",
      "country_code": "LT",
      "latitude": 54.9521,
      "longitude": 23.7641,
      "admin_name1": "Kaunas County"
    },
    {
      "place_name": "Leonavo k.",
      "postal_code": "53021",
      "country_code": "LT",
      "latitude": 54.9521,
      "longitude": 23.7641,
      "admin_name1": "Kaunas County"
    },
    {
      "place_name": "Girininkų ll k.",
      "postal_code": "53056",
      "country_code": "LT",
      "latitude": 54.9521,
      "longitude": 23.7641,
      "admin_name1": "Kaunas County"
    },
    {
      "place_name": "Sakalų k.",
      "postal_code": "53067",
      "country_code": "LT",
      "latitude": 55.4,
      "longitude": 23.8667,
      "admin_name1": "Kaunas County"
    },
    {
      "place_name": "Braziūkų k.",
      "postal_code": "53083",
      "country_code": "LT",
      "latitude": 54.9167,
      "longitude": 23.6667,
      "admin_name1": "Kaunas County"
    },
    {
      "place_name": "SB „Netoniai“",
      "postal_code": "54001",
      "country_code": "LT",
      "latitude": 55.0725,
      "longitude": 23.8005,
      "admin_name1": "Kaunas County"
    },
    {
      "place_name": "Raudondvario k.",
      "postal_code": "54001",
      "country_code": "LT",
      "latitude": 55.0725,
      "longitude": 23.8005,
      "admin_name1": "Kaunas County"
    },
    {
      "place_name": "SB „Vija“",
      "postal_code": "54050",
      "country_code": "LT",
      "latitude": 55.1,
      "longitude": 23.8,
      "admin_name1": "Kaunas County"
    },
    {
      "place_name": "SB „Neris“",
      "postal_code": "54066",
      "country_code": "LT",
      "latitude": 55.0725,
      "longitude": 23.8005,
      "admin_name1": "Kaunas County"
    },
    {
      "place_name": "Kovališkių k.",
      "postal_code": "54073",
      "country_code": "LT",
      "latitude": 55.1167,
      "longitude": 23.9667,
      "admin_name1": "Kaunas County"
    },
    {
      "place_name": "Didžiųjų Ibėnų k.",
      "postal_code": "54073",
      "country_code": "LT",
      "latitude": 55.1167,
      "longitude": 23.9667,
      "admin_name1": "Kaunas County"
    },
    {
      "place_name": "SB „Tauraupis“",
      "postal_code": "54078",
      "country_code": "LT",
      "latitude": 54.9741,
      "longitude": 24.0038,
      "admin_name1": "Kaunas County"
    },
    {
      "place_name": "Rokiškio k.",
      "postal_code": "54078",
      "country_code": "LT",
      "latitude": 54.9741,
      "longitude": 24.0038,
      "admin_name1": "Kaunas County"
    },
    {
      "place_name": "Narėpų k.",
      "postal_code": "54085",
      "country_code": "LT",
      "latitude": 54.9667,
      "longitude": 24.0667,
      "admin_name1": "Kaunas County"
    },
    {
      "place_name": "SB „Tiekėjas“",
      "postal_code": "54085",
      "country_code": "LT",
      "latitude": 54.9667,
      "longitude": 24.0667,
      "admin_name1": "Kaunas County"
    },
    {
      "place_name": "SB „Pabiržė“",
      "postal_code": "54093",
      "country_code": "LT",
      "latitude": 55.0725,
      "longitude": 23.8005,
      "admin_name1": "Kaunas County"
    },
    {
      "place_name": "Čirelių k.",
      "postal_code": "57001",
      "country_code": "LT",
      "latitude": 55.2883,
      "longitude": 23.9747,
      "admin_name1": "Kaunas County"
    },
    {
      "place_name": "Kropilų k.",
      "postal_code": "57001",
      "country_code": "LT",
      "latitude": 55.2883,
      "longitude": 23.9747,
      "admin_name1": "Kaunas County"
    },
    {
      "place_name": "Paežerių k.",
      "postal_code": "58005",
      "country_code": "LT",
      "latitude": 55.2833,
      "longitude": 24.25,
      "admin_name1": "Kaunas County"
    },
    {
      "place_name": "Pašėtės ll k.",
      "postal_code": "58005",
      "country_code": "LT",
      "latitude": 55.2833,
      "longitude": 24.25,
      "admin_name1": "Kaunas County"
    },
    {
      "place_name": "Kudžionių k.",
      "postal_code": "58011",
      "country_code": "LT",
      "latitude": 55.25,
      "longitude": 23.8333,
      "admin_name1": "Kaunas County"
    },
    {
      "place_name": "Stašaičių k.",
      "postal_code": "58011",
      "country_code": "LT",
      "latitude": 55.25,
      "longitude": 23.8333,
      "admin_name1": "Kaunas County"
    },
    {
      "place_name": "Šilainių k.",
      "postal_code": "58011",
      "country_code": "LT",
      "latitude": 55.25,
      "longitude": 23.8333,
      "admin_name1": "Kaunas County"
    },
    {
      "place_name": "Serbinų k.",
      "postal_code": "58014",
      "country_code": "LT",
      "latitude": 55.25,
      "longitude": 23.8333,
      "admin_name1": "Kaunas County"
    },
    {
      "place_name": "Medininkų k.",
      "postal_code": "58032",
      "country_code": "LT",
      "latitude": 55.4,
      "longitude": 23.7333,
      "admin_name1": "Kaunas County"
    },
    {
      "place_name": "Čistapolio k.",
      "postal_code": "58032",
      "country_code": "LT",
      "latitude": 55.4,
      "longitude": 23.7333,
      "admin_name1": "Kaunas County"
    },
    {
      "place_name": "Krakės",
      "postal_code": "58032",
      "country_code": "LT",
      "latitude": 55.4,
      "longitude": 23.7333,
      "admin_name1": "Kaunas County"
    },
    {
      "place_name": "Tremtinių k.",
      "postal_code": "58038",
      "country_code": "LT",
      "latitude": 55.5167,
      "longitude": 23.8,
      "admin_name1": "Kaunas County"
    },
    {
      "place_name": "Trakupių k.",
      "postal_code": "58047",
      "country_code": "LT",
      "latitude": 55.45,
      "longitude": 24.0333,
      "admin_name1": "Kaunas County"
    },
    {
      "place_name": "Zacišių k.",
      "postal_code": "58050",
      "country_code": "LT",
      "latitude": 55.375,
      "longitude": 23.8833,
      "admin_name1": "Kaunas County"
    },
    {
      "place_name": "Vainotiškių k.",
      "postal_code": "58053",
      "country_code": "LT",
      "latitude": 55.4,
      "longitude": 23.8667,
      "admin_name1": "Kaunas County"
    },
    {
      "place_name": "Osinaukos k.",
      "postal_code": "58069",
      "country_code": "LT",
      "latitude": 55.4333,
      "longitude": 24.2333,
      "admin_name1": "Kaunas County"
    },
    {
      "place_name": "Bajoriškio k.",
      "postal_code": "58069",
      "country_code": "LT",
      "latitude": 55.4333,
      "longitude": 24.2333,
      "admin_name1": "Kaunas County"
    },
    {
      "place_name": "Klebiškio k.",
      "postal_code": "59001",
      "country_code": "LT",
      "latitude": 54.6444,
      "longitude": 23.9944,
      "admin_name1": "Kaunas County"
    },
    {
      "place_name": "Ašminta",
      "postal_code": "59001",
      "country_code": "LT",
      "latitude": 54.6833,
      "longitude": 24.0,
      "admin_name1": "Kaunas County"
    },
    {
      "place_name": "Būdviečio k.",
      "postal_code": "59027",
      "country_code": "LT",
      "latitude": 54.6458,
      "longitude": 23.9792,
      "admin_name1": "Kaunas County"
    },
    {
      "place_name": "Varnakės k.",
      "postal_code": "59027",
      "country_code": "LT",
      "latitude": 54.6458,
      "longitude": 23.9792,
      "admin_name1": "Kaunas County"
    },
    {
      "place_name": "Grigaliūnų k.",
      "postal_code": "59030",
      "country_code": "LT",
      "latitude": 54.7667,
      "longitude": 23.7167,
      "admin_name1": "Kaunas County"
    },
    {
      "place_name": "Pašiekštupio k.",
      "postal_code": "59030",
      "country_code": "LT",
      "latitude": 54.7667,
      "longitude": 23.7167,
      "admin_name1": "Kaunas County"
    },
    {
      "place_name": "SB „Draugystė“",
      "postal_code": "59030",
      "country_code": "LT",
      "latitude": 54.7667,
      "longitude": 23.7167,
      "admin_name1": "Kaunas County"
    },
    {
      "place_name": "Valengiškių k.",
      "postal_code": "59037",
      "country_code": "LT",
      "latitude": 54.7667,
      "longitude": 23.7167,
      "admin_name1": "Kaunas County"
    },
    {
      "place_name": "Naujųjų Vangų k.",
      "postal_code": "59040",
      "country_code": "LT",
      "latitude": 54.7167,
      "longitude": 24.05,
      "admin_name1": "Kaunas County"
    },
    {
      "place_name": "Kėbliškio k.",
      "postal_code": "59040",
      "country_code": "LT",
      "latitude": 54.7167,
      "longitude": 24.05,
      "admin_name1": "Kaunas County"
    },
    {
      "place_name": "Pramiežių k.",
      "postal_code": "59052",
      "country_code": "LT",
      "latitude": 54.6,
      "longitude": 24.1667,
      "admin_name1": "Kaunas County"
    },
    {
      "place_name": "Gojaus k.",
      "postal_code": "59052",
      "country_code": "LT",
      "latitude": 54.6,
      "longitude": 24.1667,
      "admin_name1": "Kaunas County"
    },
    {
      "place_name": "Želkūnų k.",
      "postal_code": "59055",
      "country_code": "LT",
      "latitude": 54.6,
      "longitude": 24.1667,
      "admin_name1": "Kaunas County"
    },
    {
      "place_name": "Babiagūros k.",
      "postal_code": "59058",
      "country_code": "LT",
      "latitude": 54.6,
      "longitude": 24.1667,
      "admin_name1": "Kaunas County"
    },
    {
      "place_name": "Benčiakiemio k.",
      "postal_code": "59058",
      "country_code": "LT",
      "latitude": 54.6,
      "longitude": 24.1667,
      "admin_name1": "Kaunas County"
    },
    {
      "place_name": "Strazdiškių k.",
      "postal_code": "59058",
      "country_code": "LT",
      "latitude": 54.6,
      "longitude": 24.1667,
      "admin_name1": "Kaunas County"
    },
    {
      "place_name": "Valiūniškių k.",
      "postal_code": "59058",
      "country_code": "LT",
      "latitude": 54.6,
      "longitude": 24.1667,
      "admin_name1": "Kaunas County"
    },
    {
      "place_name": "Vėžionių k.",
      "postal_code": "59058",
      "country_code": "LT",
      "latitude": 54.6,
      "longitude": 24.1667,
      "admin_name1": "Kaunas County"
    },
    {
      "place_name": "Gabšių k.",
      "postal_code": "60001",
      "country_code": "LT",
      "latitude": 55.3736,
      "longitude": 23.1217,
      "admin_name1": "Kaunas County"
    },
    {
      "place_name": "Ramonų k.",
      "postal_code": "60001",
      "country_code": "LT",
      "latitude": 55.3736,
      "longitude": 23.1217,
      "admin_name1": "Kaunas County"
    },
    {
      "place_name": "Kymantų k.",
      "postal_code": "60010",
      "country_code": "LT",
      "latitude": 55.2667,
      "longitude": 23.4667,
      "admin_name1": "Kaunas County"
    },
    {
      "place_name": "Riogliškių k.",
      "postal_code": "60010",
      "country_code": "LT",
      "latitude": 55.2667,
      "longitude": 23.4667,
      "admin_name1": "Kaunas County"
    },
    {
      "place_name": "Daugėliškių k.",
      "postal_code": "60019",
      "country_code": "LT",
      "latitude": 55.2667,
      "longitude": 23.4667,
      "admin_name1": "Kaunas County"
    },
    {
      "place_name": "Jučių k.",
      "postal_code": "60019",
      "country_code": "LT",
      "latitude": 55.2667,
      "longitude": 23.4667,
      "admin_name1": "Kaunas County"
    },
    {
      "place_name": "Girkalnis",
      "postal_code": "60028",
      "country_code": "LT",
      "latitude": 55.3167,
      "longitude": 23.2167,
      "admin_name1": "Kaunas County"
    },
    {
      "place_name": "Valatkiškių k.",
      "postal_code": "60028",
      "country_code": "LT",
      "latitude": 55.3167,
      "longitude": 23.2167,
      "admin_name1": "Kaunas County"
    },
    {
      "place_name": "Skivelių k.",
      "postal_code": "60028",
      "country_code": "LT",
      "latitude": 55.3167,
      "longitude": 23.2167,
      "admin_name1": "Kaunas County"
    },
    {
      "place_name": "Paalsio k.",
      "postal_code": "60034",
      "country_code": "LT",
      "latitude": 55.4031,
      "longitude": 22.8981,
      "admin_name1": "Kaunas County"
    },
    {
      "place_name": "Alaviniškių k.",
      "postal_code": "60037",
      "country_code": "LT",
      "latitude": 55.4031,
      "longitude": 22.8981,
      "admin_name1": "Kaunas County"
    },
    {
      "place_name": "Žvirgždės k.",
      "postal_code": "60040",
      "country_code": "LT",
      "latitude": 55.4289,
      "longitude": 22.7775,
      "admin_name1": "Kaunas County"
    },
    {
      "place_name": "Gradaučiznos k.",
      "postal_code": "60052",
      "country_code": "LT",
      "latitude": 55.5333,
      "longitude": 23.2333,
      "admin_name1": "Kaunas County"
    },
    {
      "place_name": "Pyragių k.",
      "postal_code": "60052",
      "country_code": "LT",
      "latitude": 55.5333,
      "longitude": 23.2333,
      "admin_name1": "Kaunas County"
    },
    {
      "place_name": "Obelkalnio k.",
      "postal_code": "60058",
      "country_code": "LT",
      "latitude": 55.5083,
      "longitude": 23.2833,
      "admin_name1": "Kaunas County"
    },
    {
      "place_name": "Akstinų k.",
      "postal_code": "60058",
      "country_code": "LT",
      "latitude": 55.5083,
      "longitude": 23.2833,
      "admin_name1": "Kaunas County"
    },
    {
      "place_name": "Antanavos k.",
      "postal_code": "60070",
      "country_code": "LT",
      "latitude": 55.4148,
      "longitude": 23.141,
      "admin_name1": "Kaunas County"
    },
    {
      "place_name": "Pakirkšnovio k.",
      "postal_code": "60070",
      "country_code": "LT",
      "latitude": 55.4148,
      "longitude": 23.141,
      "admin_name1": "Kaunas County"
    },
    {
      "place_name": "Rizgių k.",
      "postal_code": "60070",
      "country_code": "LT",
      "latitude": 55.4148,
      "longitude": 23.141,
      "admin_name1": "Kaunas County"
    },
    {
      "place_name": "Verėduvos k.",
      "postal_code": "60070",
      "country_code": "LT",
      "latitude": 55.4148,
      "longitude": 23.141,
      "admin_name1": "Kaunas County"
    },
    {
      "place_name": "Neringa",
      "postal_code": "93012",
      "country_code": "LT",
      "latitude": 55.3719,
      "longitude": 21.0647,
      "admin_name1": "Klaipėda County"
    },
    {
      "place_name": "Glaudėnų k.",
      "postal_code": "91001",
      "country_code": "LT",
      "latitude": 55.7172,
      "longitude": 21.1175,
      "admin_name1": "Klaipėda County"
    },
    {
      "place_name": "Skudžių k.",
      "postal_code": "91001",
      "country_code": "LT",
      "latitude": 55.7172,
      "longitude": 21.1175,
      "admin_name1": "Klaipėda County"
    },
    {
      "place_name": "Kunkių k.",
      "postal_code": "91001",
      "country_code": "LT",
      "latitude": 55.7172,
      "longitude": 21.1175,
      "admin_name1": "Klaipėda County"
    },
    {
      "place_name": "Svencelės k.",
      "postal_code": "91022",
      "country_code": "LT",
      "latitude": 55.7172,
      "longitude": 21.1175,
      "admin_name1": "Klaipėda County"
    },
    {
      "place_name": "Saulažolių k.",
      "postal_code": "96001",
      "country_code": "LT",
      "latitude": 55.7128,
      "longitude": 21.4033,
      "admin_name1": "Klaipėda County"
    },
    {
      "place_name": "Šlapšilės k.",
      "postal_code": "96001",
      "country_code": "LT",
      "latitude": 55.7128,
      "longitude": 21.4033,
      "admin_name1": "Klaipėda County"
    },
    {
      "place_name": "SB „Upelio vingis“",
      "postal_code": "96011",
      "country_code": "LT",
      "latitude": 55.6619,
      "longitude": 21.3572,
      "admin_name1": "Klaipėda County"
    },
    {
      "place_name": "Jucaičių k.",
      "postal_code": "96026",
      "country_code": "LT",
      "latitude": 55.6006,
      "longitude": 21.5969,
      "admin_name1": "Klaipėda County"
    },
    {
      "place_name": "Malagių k.",
      "postal_code": "96026",
      "country_code": "LT",
      "latitude": 55.6006,
      "longitude": 21.5969,
      "admin_name1": "Klaipėda County"
    },
    {
      "place_name": "Žemgulių k.",
      "postal_code": "96035",
      "country_code": "LT",
      "latitude": 55.5833,
      "longitude": 21.8167,
      "admin_name1": "Klaipėda County"
    },
    {
      "place_name": "Lūžgalių k.",
      "postal_code": "96047",
      "country_code": "LT",
      "latitude": 55.5536,
      "longitude": 21.3267,
      "admin_name1": "Klaipėda County"
    },
    {
      "place_name": "SB „Vienybė“",
      "postal_code": "97001",
      "country_code": "LT",
      "latitude": 55.8758,
      "longitude": 21.2508,
      "admin_name1": "Klaipėda County"
    },
    {
      "place_name": "Darataičių k.",
      "postal_code": "97023",
      "country_code": "LT",
      "latitude": 56.0167,
      "longitude": 21.25,
      "admin_name1": "Klaipėda County"
    },
    {
      "place_name": "Lazdininkų k.",
      "postal_code": "97023",
      "country_code": "LT",
      "latitude": 56.0167,
      "longitude": 21.25,
      "admin_name1": "Klaipėda County"
    },
    {
      "place_name": "Kiaupiškių k.",
      "postal_code": "97023",
      "country_code": "LT",
      "latitude": 56.0167,
      "longitude": 21.25,
      "admin_name1": "Klaipėda County"
    },
    {
      "place_name": "Erlėnų k.",
      "postal_code": "97035",
      "country_code": "LT",
      "latitude": 56.0667,
      "longitude": 21.5667,
      "admin_name1": "Klaipėda County"
    },
    {
      "place_name": "Salantai",
      "postal_code": "97035",
      "country_code": "LT",
      "latitude": 56.0667,
      "longitude": 21.5667,
      "admin_name1": "Klaipėda County"
    },
    {
      "place_name": "Kartena",
      "postal_code": "97041",
      "country_code": "LT",
      "latitude": 55.9211,
      "longitude": 21.4769,
      "admin_name1": "Klaipėda County"
    },
    {
      "place_name": "Rubulių k.",
      "postal_code": "97041",
      "country_code": "LT",
      "latitude": 55.9211,
      "longitude": 21.4769,
      "admin_name1": "Klaipėda County"
    },
    {
      "place_name": "Lygnugariškių g.",
      "postal_code": "97041",
      "country_code": "LT",
      "latitude": 55.9211,
      "longitude": 21.4769,
      "admin_name1": "Klaipėda County"
    },
    {
      "place_name": "SB „Pavasaris“",
      "postal_code": "98001",
      "country_code": "LT",
      "latitude": 56.2667,
      "longitude": 21.5333,
      "admin_name1": "Klaipėda County"
    },
    {
      "place_name": "Kulų l k.",
      "postal_code": "98001",
      "country_code": "LT",
      "latitude": 56.2667,
      "longitude": 21.5333,
      "admin_name1": "Klaipėda County"
    },
    {
      "place_name": "Raudonių k.",
      "postal_code": "98008",
      "country_code": "LT",
      "latitude": 56.2667,
      "longitude": 21.5333,
      "admin_name1": "Klaipėda County"
    },
    {
      "place_name": "Kruopių k.",
      "postal_code": "98014",
      "country_code": "LT",
      "latitude": 56.1667,
      "longitude": 21.8667,
      "admin_name1": "Klaipėda County"
    },
    {
      "place_name": "Joteliūnų k.",
      "postal_code": "21063",
      "country_code": "LT",
      "latitude": 54.6091,
      "longitude": 24.7279,
      "admin_name1": "Vilniaus apskritis"
    },
    {
      "place_name": "Mažųjų Lieponių k.",
      "postal_code": "21072",
      "country_code": "LT",
      "latitude": 54.6091,
      "longitude": 24.7279,
      "admin_name1": "Vilniaus apskritis"
    },
    {
      "place_name": "Alaburdiškių k.",
      "postal_code": "21072",
      "country_code": "LT",
      "latitude": 54.6091,
      "longitude": 24.7279,
      "admin_name1": "Vilniaus apskritis"
    },
    {
      "place_name": "Skynimų k.",
      "postal_code": "25001",
      "country_code": "LT",
      "latitude": 54.6696,
      "longitude": 25.1649,
      "admin_name1": "Vilniaus apskritis"
    },
    {
      "place_name": "Stanislavuvkos k.",
      "postal_code": "20001",
      "country_code": "LT",
      "latitude": 55.25,
      "longitude": 24.75,
      "admin_name1": "Vilniaus apskritis"
    },
    {
      "place_name": "Palobio vienk.",
      "postal_code": "20001",
      "country_code": "LT",
      "latitude": 55.25,
      "longitude": 24.75,
      "admin_name1": "Vilniaus apskritis"
    },
    {
      "place_name": "Palaukėnėlių k.",
      "postal_code": "20018",
      "country_code": "LT",
      "latitude": 55.2333,
      "longitude": 24.925,
      "admin_name1": "Vilniaus apskritis"
    },
    {
      "place_name": "Dvareliškių k.",
      "postal_code": "20018",
      "country_code": "LT",
      "latitude": 55.2333,
      "longitude": 24.925,
      "admin_name1": "Vilniaus apskritis"
    },
    {
      "place_name": "Kaspariškių k.",
      "postal_code": "20027",
      "country_code": "LT",
      "latitude": 55.1667,
      "longitude": 24.7667,
      "admin_name1": "Vilniaus apskritis"
    },
    {
      "place_name": "Kelmų k.",
      "postal_code": "20036",
      "country_code": "LT",
      "latitude": 55.15,
      "longitude": 24.5667,
      "admin_name1": "Vilniaus apskritis"
    },
    {
      "place_name": "Dovydiškių k.",
      "postal_code": "20039",
      "country_code": "LT",
      "latitude": 55.15,
      "longitude": 24.5667,
      "admin_name1": "Vilniaus apskritis"
    },
    {
      "place_name": "Gintarų k.",
      "postal_code": "20042",
      "country_code": "LT",
      "latitude": 55.2333,
      "longitude": 24.6667,
      "admin_name1": "Vilniaus apskritis"
    },
    {
      "place_name": "Reniūnų k.",
      "postal_code": "20045",
      "country_code": "LT",
      "latitude": 55.3,
      "longitude": 24.5,
      "admin_name1": "Vilniaus apskritis"
    },
    {
      "place_name": "Bardiškių k.",
      "postal_code": "20045",
      "country_code": "LT",
      "latitude": 55.3,
      "longitude": 24.5,
      "admin_name1": "Vilniaus apskritis"
    },
    {
      "place_name": "Paežerio k.",
      "postal_code": "20054",
      "country_code": "LT",
      "latitude": 55.4,
      "longitude": 24.75,
      "admin_name1": "Vilniaus apskritis"
    },
    {
      "place_name": "Linksmakalnio k.",
      "postal_code": "20057",
      "country_code": "LT",
      "latitude": 55.3,
      "longitude": 24.8667,
      "admin_name1": "Vilniaus apskritis"
    },
    {
      "place_name": "Eimantiškių k.",
      "postal_code": "20057",
      "country_code": "LT",
      "latitude": 55.3,
      "longitude": 24.8667,
      "admin_name1": "Vilniaus apskritis"
    },
    {
      "place_name": "Kazliškių k.",
      "postal_code": "20060",
      "country_code": "LT",
      "latitude": 55.3,
      "longitude": 24.9667,
      "admin_name1": "Vilniaus apskritis"
    },
    {
      "place_name": "Vaivadiškių k.",
      "postal_code": "20066",
      "country_code": "LT",
      "latitude": 55.2833,
      "longitude": 24.9583,
      "admin_name1": "Vilniaus apskritis"
    },
    {
      "place_name": "Tartoko k.",
      "postal_code": "17001",
      "country_code": "LT",
      "latitude": 54.3,
      "longitude": 25.3833,
      "admin_name1": "Vilniaus apskritis"
    },
    {
      "place_name": "SB „Bruknelė“",
      "postal_code": "17001",
      "country_code": "LT",
      "latitude": 54.3,
      "longitude": 25.3833,
      "admin_name1": "Vilniaus apskritis"
    },
    {
      "place_name": "Rimaišių k.",
      "postal_code": "17005",
      "country_code": "LT",
      "latitude": 54.25,
      "longitude": 25.5,
      "admin_name1": "Vilniaus apskritis"
    },
    {
      "place_name": "Narkuškių vienk.",
      "postal_code": "17014",
      "country_code": "LT",
      "latitude": 54.1667,
      "longitude": 25.0,
      "admin_name1": "Vilniaus apskritis"
    },
    {
      "place_name": "Gerviškių k.",
      "postal_code": "17014",
      "country_code": "LT",
      "latitude": 54.1667,
      "longitude": 25.0,
      "admin_name1": "Vilniaus apskritis"
    },
    {
      "place_name": "Dumblės k.",
      "postal_code": "17017",
      "country_code": "LT",
      "latitude": 54.1667,
      "longitude": 25.0,
      "admin_name1": "Vilniaus apskritis"
    },
    {
      "place_name": "Naniškių k.",
      "postal_code": "17017",
      "country_code": "LT",
      "latitude": 54.1667,
      "longitude": 25.0,
      "admin_name1": "Vilniaus apskritis"
    },
    {
      "place_name": "Anciuškių k.",
      "postal_code": "17020",
      "country_code": "LT",
      "latitude": 54.3133,
      "longitude": 25.2933,
      "admin_name1": "Vilniaus apskritis"
    },
    {
      "place_name": "Juršiškių k.",
      "postal_code": "17023",
      "country_code": "LT",
      "latitude": 54.3133,
      "longitude": 25.2933,
      "admin_name1": "Vilniaus apskritis"
    },
    {
      "place_name": "Kubonių k.",
      "postal_code": "17026",
      "country_code": "LT",
      "latitude": 54.3133,
      "longitude": 25.2933,
      "admin_name1": "Vilniaus apskritis"
    },
    {
      "place_name": "Didžiųjų Sėlų k.",
      "postal_code": "17032",
      "country_code": "LT",
      "latitude": 54.45,
      "longitude": 25.2333,
      "admin_name1": "Vilniaus apskritis"
    },
    {
      "place_name": "Bedugnės k.",
      "postal_code": "17044",
      "country_code": "LT",
      "latitude": 54.3133,
      "longitude": 25.2933,
      "admin_name1": "Vilniaus apskritis"
    },
    {
      "place_name": "Akmenynės vienk.",
      "postal_code": "17047",
      "country_code": "LT",
      "latitude": 54.3133,
      "longitude": 25.2933,
      "admin_name1": "Vilniaus apskritis"
    },
    {
      "place_name": "Trudų k.",
      "postal_code": "17047",
      "country_code": "LT",
      "latitude": 54.3133,
      "longitude": 25.2933,
      "admin_name1": "Vilniaus apskritis"
    },
    {
      "place_name": "Trečiūnų k.",
      "postal_code": "18001",
      "country_code": "LT",
      "latitude": 55.15,
      "longitude": 26.1667,
      "admin_name1": "Vilniaus apskritis"
    },
    {
      "place_name": "Poškonių k.",
      "postal_code": "18001",
      "country_code": "LT",
      "latitude": 55.15,
      "longitude": 26.1667,
      "admin_name1": "Vilniaus apskritis"
    },
    {
      "place_name": "Margiškės k.",
      "postal_code": "18001",
      "country_code": "LT",
      "latitude": 55.15,
      "longitude": 26.1667,
      "admin_name1": "Vilniaus apskritis"
    },
    {
      "place_name": "Kūčių k.",
      "postal_code": "18001",
      "country_code": "LT",
      "latitude": 55.15,
      "longitude": 26.1667,
      "admin_name1": "Vilniaus apskritis"
    },
    {
      "place_name": "Gasiuliškės k.",
      "postal_code": "18001",
      "country_code": "LT",
      "latitude": 55.15,
      "longitude": 26.1667,
      "admin_name1": "Vilniaus apskritis"
    },
    {
      "place_name": "Moliniškės vienk.",
      "postal_code": "18001",
      "country_code": "LT",
      "latitude": 55.15,
      "longitude": 26.1667,
      "admin_name1": "Vilniaus apskritis"
    },
    {
      "place_name": "Pliauškių k.",
      "postal_code": "18011",
      "country_code": "LT",
      "latitude": 55.0,
      "longitude": 25.7833,
      "admin_name1": "Vilniaus apskritis"
    },
    {
      "place_name": "Tadarinos k.",
      "postal_code": "18011",
      "country_code": "LT",
      "latitude": 55.0,
      "longitude": 25.7833,
      "admin_name1": "Vilniaus apskritis"
    },
    {
      "place_name": "Šutų k.",
      "postal_code": "18011",
      "country_code": "LT",
      "latitude": 55.0,
      "longitude": 25.7833,
      "admin_name1": "Vilniaus apskritis"
    },
    {
      "place_name": "Sudotos k.",
      "postal_code": "18011",
      "country_code": "LT",
      "latitude": 55.0,
      "longitude": 25.7833,
      "admin_name1": "Vilniaus apskritis"
    },
    {
      "place_name": "Karalinavo vienk.",
      "postal_code": "18014",
      "country_code": "LT",
      "latitude": 55.0,
      "longitude": 25.7833,
      "admin_name1": "Vilniaus apskritis"
    },
    {
      "place_name": "Žaliašilio vienk.",
      "postal_code": "18014",
      "country_code": "LT",
      "latitude": 55.0,
      "longitude": 25.7833,
      "admin_name1": "Vilniaus apskritis"
    },
    {
      "place_name": "Eitūniškės k.",
      "postal_code": "18014",
      "country_code": "LT",
      "latitude": 55.0,
      "longitude": 25.7833,
      "admin_name1": "Vilniaus apskritis"
    },
    {
      "place_name": "Ramutiškės vienk.",
      "postal_code": "18017",
      "country_code": "LT",
      "latitude": 55.0,
      "longitude": 25.7833,
      "admin_name1": "Vilniaus apskritis"
    },
    {
      "place_name": "Sarokpolio k.",
      "postal_code": "18017",
      "country_code": "LT",
      "latitude": 55.0,
      "longitude": 25.7833,
      "admin_name1": "Vilniaus apskritis"
    },
    {
      "place_name": "Purviniškių k.",
      "postal_code": "18017",
      "country_code": "LT",
      "latitude": 55.0,
      "longitude": 25.7833,
      "admin_name1": "Vilniaus apskritis"
    },
    {
      "place_name": "Abejučių k.",
      "postal_code": "18017",
      "country_code": "LT",
      "latitude": 55.0,
      "longitude": 25.7833,
      "admin_name1": "Vilniaus apskritis"
    },
    {
      "place_name": "Liubiškės k.",
      "postal_code": "18022",
      "country_code": "LT",
      "latitude": 55.1667,
      "longitude": 26.0,
      "admin_name1": "Vilniaus apskritis"
    },
    {
      "place_name": "Pempelkos vienk.",
      "postal_code": "18022",
      "country_code": "LT",
      "latitude": 55.1667,
      "longitude": 26.0,
      "admin_name1": "Vilniaus apskritis"
    },
    {
      "place_name": "Labanoro",
      "postal_code": "18025",
      "country_code": "LT",
      "latitude": 55.2667,
      "longitude": 25.7667,
      "admin_name1": "Vilniaus apskritis"
    },
    {
      "place_name": "Vilkasalės k.",
      "postal_code": "18025",
      "country_code": "LT",
      "latitude": 55.2667,
      "longitude": 25.7667,
      "admin_name1": "Vilniaus apskritis"
    },
    {
      "place_name": "Pašekščio l k.",
      "postal_code": "18025",
      "country_code": "LT",
      "latitude": 55.2667,
      "longitude": 25.7667,
      "admin_name1": "Vilniaus apskritis"
    },
    {
      "place_name": "Seniškio k.",
      "postal_code": "18028",
      "country_code": "LT",
      "latitude": 55.2667,
      "longitude": 26.0,
      "admin_name1": "Vilniaus apskritis"
    },
    {
      "place_name": "Girdėnų k.",
      "postal_code": "18036",
      "country_code": "LT",
      "latitude": 55.15,
      "longitude": 26.6,
      "admin_name1": "Vilniaus apskritis"
    },
    {
      "place_name": "Skireliškės k.",
      "postal_code": "18036",
      "country_code": "LT",
      "latitude": 55.15,
      "longitude": 26.6,
      "admin_name1": "Vilniaus apskritis"
    },
    {
      "place_name": "Bliūdelių vienk.",
      "postal_code": "18042",
      "country_code": "LT",
      "latitude": 55.1667,
      "longitude": 26.0528,
      "admin_name1": "Vilniaus apskritis"
    },
    {
      "place_name": "Munčelių k.",
      "postal_code": "18042",
      "country_code": "LT",
      "latitude": 55.1667,
      "longitude": 26.0528,
      "admin_name1": "Vilniaus apskritis"
    },