[
  [
    {
      "place_name": "Bettange-sur-Mess",
      "postal_code": "L-4970",
      "country_code": "LU",
      "latitude": 49.5764,
      "longitude": 5.9949,
      "admin_name1": "Capellen"
    },
    {
      "place_name": "Sprinkange",
      "postal_code": "L-4994",
      "country_code": "LU",
      "latitude": 49.585,
      "longitude": 5.9659,
      "admin_name1": "Capellen"
    },
    {
      "place_name": "Hobscheid",
      "postal_code": "L-8372",
      "country_code": "LU",
      "latitude": 49.6871,
      "longitude": 5.9146,
      "admin_name1": "Capellen"
    },
    {
      "place_name": "Bridel",
      "postal_code": "L-8145",
      "country_code": "LU",
      "latitude": 49.6575,
      "longitude": 6.0783,
      "admin_name1": "Capellen"
    },
    {
      "place_name": "Mamer",
      "postal_code": "L-8263",
      "country_code": "LU",
      "latitude": 49.6273,
      "longitude": 6.0357,
      "admin_name1": "Capellen"
    },
    {
      "place_name": "Capellen",
      "postal_code": "L-8328",
      "country_code": "LU",
      "latitude": 49.6438,
      "longitude": 5.9872,
      "admin_name1": "Capellen"
    },
    {
      "place_name": "Septfontaines",
      "postal_code": "L-8396",
      "country_code": "LU",
      "latitude": 49.6998,
      "longitude": 5.9662,
      "admin_name1": "Capellen"
    },
    {
      "place_name": "Steinfort",
      "postal_code": "L-8416",
      "country_code": "LU",
      "latitude": 49.6589,
      "longitude": 5.9187,
      "admin_name1": "Capellen"
    },
    {
      "place_name": "Bascharage",
      "postal_code": "L-4959",
      "country_code": "LU",
      "latitude": 49.5618,
      "longitude": 5.9309,
      "admin_name1": "Capellen"
    },
    {
      "place_name": "Clemency",
      "postal_code": "L-4964",
      "country_code": "LU",
      "latitude": 49.6025,
      "longitude": 5.8749,
      "admin_name1": "Capellen"
    },
    {
      "place_name": "Fingig",
      "postal_code": "L-4979",
      "country_code": "LU",
      "latitude": 49.6018,
      "longitude": 5.9035,
      "admin_name1": "Capellen"
    },
    {
      "place_name": "Crendal",
      "postal_code": "L-9743",
      "country_code": "LU",
      "latitude": 50.0568,
      "longitude": 5.8968,
      "admin_name1": "Clervaux"
    },
    {
      "place_name": "Clervaux",
      "postal_code": "L-9710",
      "country_code": "LU",
      "latitude": 50.0542,
      "longitude": 6.0307,
      "admin_name1": "Clervaux"
    },
    {
      "place_name": "Beiler",
      "postal_code": "L-9944",
      "country_code": "LU",
      "latitude": 50.1638,
      "longitude": 6.0883,
      "admin_name1": "Clervaux"
    },
    {
      "place_name": "Binsfeld",
      "postal_code": "L-9946",
      "country_code": "LU",
      "latitude": 50.119,
      "longitude": 6.0374,
      "admin_name1": "Clervaux"
    },
    {
      "place_name": "Diekirch",
      "postal_code": "L-9202",
      "country_code": "LU",
      "latitude": 49.8681,
      "longitude": 6.1576,
      "admin_name1": "Diekirch"
    },
    {
      "place_name": "Erpeldange-sur-Sûre",
      "postal_code": "L-9148",
      "country_code": "LU",
      "latitude": 49.8733,
      "longitude": 6.1283,
      "admin_name1": "Diekirch"
    },
    {
      "place_name": "Ettelbruck",
      "postal_code": "L-9053",
      "country_code": "LU",
      "latitude": 49.8489,
      "longitude": 6.1062,
      "admin_name1": "Diekirch"
    },
    {
      "place_name": "Medernach",
      "postal_code": "L-7664",
      "country_code": "LU",
      "latitude": 49.8116,
      "longitude": 6.2195,
      "admin_name1": "Diekirch"
    },
    {
      "place_name": "Dillingen",
      "postal_code": "L-6350",
      "country_code": "LU",
      "latitude": 49.8502,
      "longitude": 6.3184,
      "admin_name1": "Echternach"
    },
    {
      "place_name": "Zittig",
      "postal_code": "L-6255",
      "country_code": "LU",
      "latitude": 49.7445,
      "longitude": 6.3445,
      "admin_name1": "Echternach"
    },
    {
      "place_name": "Consdorf",
      "postal_code": "L-6215",
      "country_code": "LU",
      "latitude": 49.7774,
      "longitude": 6.338,
      "admin_name1": "Echternach"
    },
    {
      "place_name": "Echternach",
      "postal_code": "L-6475",
      "country_code": "LU",
      "latitude": 49.8093,
      "longitude": 6.4145,
      "admin_name1": "Echternach"
    },
    {
      "place_name": "Bettembourg",
      "postal_code": "L-3212",
      "country_code": "LU",
      "latitude": 49.5163,
      "longitude": 6.0947,
      "admin_name1": "Esch-sur-Alzette"
    },
    {
      "place_name": "Fennange",
      "postal_code": "L-3340",
      "country_code": "LU",
      "latitude": 49.5303,
      "longitude": 6.0625,
      "admin_name1": "Esch-sur-Alzette"
    },
    {
      "place_name": "Oberkorn",
      "postal_code": "L-4523",
      "country_code": "LU",
      "latitude": 49.5089,
      "longitude": 5.9011,
      "admin_name1": "Esch-sur-Alzette"
    },
    {
      "place_name": "Differdange",
      "postal_code": "L-4545",
      "country_code": "LU",
      "latitude": 49.5181,
      "longitude": 5.9027,
      "admin_name1": "Esch-sur-Alzette"
    },
    {
      "place_name": "Niederkorn",
      "postal_code": "L-4610",
      "country_code": "LU",
      "latitude": 49.5341,
      "longitude": 5.8866,
      "admin_name1": "Esch-sur-Alzette"
    },
    {
      "place_name": "Dudelange",
      "postal_code": "L-3411",
      "country_code": "LU",
      "latitude": 49.4671,
      "longitude": 6.0825,
      "admin_name1": "Esch-sur-Alzette"
    },
    {
      "place_name": "Esch-sur-Alzette",
      "postal_code": "L-4028",
      "country_code": "LU",
      "latitude": 49.5046,
      "longitude": 5.9822,
      "admin_name1": "Esch-sur-Alzette"
    },
    {
      "place_name": "Aspelt",
      "postal_code": "L-5710",
      "country_code": "LU",
      "latitude": 49.5244,
      "longitude": 6.2245,
      "admin_name1": "Esch-sur-Alzette"
    },
    {
      "place_name": "Frisange",
      "postal_code": "L-5751",
      "country_code": "LU",
      "latitude": 49.5113,
      "longitude": 6.1904,
      "admin_name1": "Esch-sur-Alzette"
    },
    {
      "place_name": "Kayl",
      "postal_code": "L-3630",
      "country_code": "LU",
      "latitude": 49.4853,
      "longitude": 6.0485,
      "admin_name1": "Esch-sur-Alzette"
    },
    {
      "place_name": "Tétange",
      "postal_code": "L-3761",
      "country_code": "LU",
      "latitude": 49.4759,
      "longitude": 6.039,
      "admin_name1": "Esch-sur-Alzette"
    },
    {
      "place_name": "Bergem",
      "postal_code": "L-3313",
      "country_code": "LU",
      "latitude": 49.5253,
      "longitude": 6.0402,
      "admin_name1": "Esch-sur-Alzette"
    },
    {
      "place_name": "Mondercange",
      "postal_code": "L-3913",
      "country_code": "LU",
      "latitude": 49.5354,
      "longitude": 5.9813,
      "admin_name1": "Esch-sur-Alzette"
    },
    {
      "place_name": "Pétange",
      "postal_code": "L-4708",
      "country_code": "LU",
      "latitude": 49.5577,
      "longitude": 5.8709,
      "admin_name1": "Esch-sur-Alzette"
    },
    {
      "place_name": "Rodange",
      "postal_code": "L-4808",
      "country_code": "LU",
      "latitude": 49.5473,
      "longitude": 5.834,
      "admin_name1": "Esch-sur-Alzette"
    },
    {
      "place_name": "Lamadelaine",
      "postal_code": "L-4874",
      "country_code": "LU",
      "latitude": 49.5455,
      "longitude": 5.8554,
      "admin_name1": "Esch-sur-Alzette"
    },
    {
      "place_name": "Pissange",
      "postal_code": "L-3985",
      "country_code": "LU",
      "latitude": 49.5489,
      "longitude": 6.0013,
      "admin_name1": "Esch-sur-Alzette"
    },
    {
      "place_name": "Ehlerange",
      "postal_code": "L-4382",
      "country_code": "LU",
      "latitude": 49.5258,
      "longitude": 5.9619,
      "admin_name1": "Esch-sur-Alzette"
    },
    {
      "place_name": "Soleuvre",
      "postal_code": "L-4438",
      "country_code": "LU",
      "latitude": 49.5222,
      "longitude": 5.9184,
      "admin_name1": "Esch-sur-Alzette"
    },
    {
      "place_name": "Schifflange",
      "postal_code": "L-3860",
      "country_code": "LU",
      "latitude": 49.5074,
      "longitude": 6.021,
      "admin_name1": "Esch-sur-Alzette"
    },
    {
      "place_name": "Roodt-sur-Syre",
      "postal_code": "L-6919",
      "country_code": "LU",
      "latitude": 49.6678,
      "longitude": 6.2998,
      "admin_name1": "Grevenmacher"
    },
    {
      "place_name": "Grevenmacher",
      "postal_code": "L-6701",
      "country_code": "LU",
      "latitude": 49.6778,
      "longitude": 6.442,
      "admin_name1": "Grevenmacher"
    },
    {
      "place_name": "Bourglinster",
      "postal_code": "L-6161",
      "country_code": "LU",
      "latitude": 49.7029,
      "longitude": 6.22,
      "admin_name1": "Grevenmacher"
    },
    {
      "place_name": "Wasserbillig",
      "postal_code": "L-6601",
      "country_code": "LU",
      "latitude": 49.7149,
      "longitude": 6.5018,
      "admin_name1": "Grevenmacher"
    },
    {
      "place_name": "Ehnen",
      "postal_code": "L-5419",
      "country_code": "LU",
      "latitude": 49.6032,
      "longitude": 6.3873,
      "admin_name1": "Grevenmacher"
    },
    {
      "place_name": "Bertrange",
      "postal_code": "L-8072",
      "country_code": "LU",
      "latitude": 49.6076,
      "longitude": 6.0456,
      "admin_name1": "Luxembourg"
    },
    {
      "place_name": "Moutfort",
      "postal_code": "L-5339",
      "country_code": "LU",
      "latitude": 49.5877,
      "longitude": 6.2499,
      "admin_name1": "Luxembourg"
    },
    {
      "place_name": "Howald",
      "postal_code": "L-2272",
      "country_code": "LU",
      "latitude": 49.5869,
      "longitude": 6.1405,
      "admin_name1": "Luxembourg"
    },
    {
      "place_name": "Hesperange",
      "postal_code": "L-5842",
      "country_code": "LU",
      "latitude": 49.5701,
      "longitude": 6.152,
      "admin_name1": "Luxembourg"
    },
    {
      "place_name": "Alzingen",
      "postal_code": "L-5854",
      "country_code": "LU",
      "latitude": 49.5687,
      "longitude": 6.1696,
      "admin_name1": "Luxembourg"
    },
    {
      "place_name": "Fentange",
      "postal_code": "L-5861",
      "country_code": "LU",
      "latitude": 49.5686,
      "longitude": 6.1545,
      "admin_name1": "Luxembourg"
    },
    {
      "place_name": "Itzig",
      "postal_code": "L-5951",
      "country_code": "LU",
      "latitude": 49.5891,
      "longitude": 6.1709,
      "admin_name1": "Luxembourg"
    },
    {
      "place_name": "Niederanven",
      "postal_code": "L-6947",
      "country_code": "LU",
      "latitude": 49.644,
      "longitude": 6.2676,
      "admin_name1": "Luxembourg"
    },
    {
      "place_name": "Hostert",
      "postal_code": "L-6970",
      "country_code": "LU",
      "latitude": 49.6567,
      "longitude": 6.2333,
      "admin_name1": "Luxembourg"
    },
    {
      "place_name": "Rameldange",
      "postal_code": "L-6974",
      "country_code": "LU",
      "latitude": 49.6665,
      "longitude": 6.2342,
      "admin_name1": "Luxembourg"
    },
    {
      "place_name": "Sandweiler",
      "postal_code": "L-5222",
      "country_code": "LU",
      "latitude": 49.6132,
      "longitude": 6.224,
      "admin_name1": "Luxembourg"
    },
    {
      "place_name": "Heisdorf",
      "postal_code": "L-7325",
      "country_code": "LU",
      "latitude": 49.6743,
      "longitude": 6.1385,
      "admin_name1": "Luxembourg"
    },
    {
      "place_name": "Strassen",
      "postal_code": "L-2361",
      "country_code": "LU",
      "latitude": 49.6233,
      "longitude": 6.0936,
      "admin_name1": "Luxembourg"
    },
    {
      "place_name": "Helmsange",
      "postal_code": "L-7226",
      "country_code": "LU",
      "latitude": 49.6584,
      "longitude": 6.1356,
      "admin_name1": "Luxembourg"
    },
    {
      "place_name": "Bereldange",
      "postal_code": "L-7235",
      "country_code": "LU",
      "latitude": 49.6546,
      "longitude": 6.1176,
      "admin_name1": "Luxembourg"
    },
    {
      "place_name": "Luxembourg",
      "postal_code": "L-1131",
      "country_code": "LU",
      "latitude": 49.5849,
      "longitude": 6.0994,
      "admin_name1": "Luxembourg"
    },
    {
      "place_name": "Colmar-Berg",
      "postal_code": "L-7716",
      "country_code": "LU",
      "latitude": 49.8117,
      "longitude": 6.1001,
      "admin_name1": "Mersch"
    },
    {
      "place_name": "Bissen",
      "postal_code": "L-7777",
      "country_code": "LU",
      "latitude": 49.7885,
      "longitude": 6.0644,
      "admin_name1": "Mersch"
    },
    {
      "place_name": "Brouch",
      "postal_code": "L-7415",
      "country_code": "LU",
      "latitude": 49.7376,
      "longitude": 6.0274,
      "admin_name1": "Mersch"
    },
    {
      "place_name": "Boevange-sur-Attert",
      "postal_code": "L-8711",
      "country_code": "LU",
      "latitude": 49.7709,
      "longitude": 6.0198,
      "admin_name1": "Mersch"
    },
    {
      "place_name": "Larochette",
      "postal_code": "L-7627",
      "country_code": "LU",
      "latitude": 49.7842,
      "longitude": 6.2187,
      "admin_name1": "Mersch"
    },
    {
      "place_name": "Lintgen",
      "postal_code": "L-7454",
      "country_code": "LU",
      "latitude": 49.7213,
      "longitude": 6.1341,
      "admin_name1": "Mersch"
    },
    {
      "place_name": "Schoenfels",
      "postal_code": "L-7473",
      "country_code": "LU",
      "latitude": 49.718,
      "longitude": 6.0908,
      "admin_name1": "Mersch"
    },
    {
      "place_name": "Mersch",
      "postal_code": "L-7519",
      "country_code": "LU",
      "latitude": 49.7528,
      "longitude": 6.1079,
      "admin_name1": "Mersch"
    },
    {
      "place_name": "Reckange",
      "postal_code": "L-7595",
      "country_code": "LU",
      "latitude": 49.748,
      "longitude": 6.0831,
      "admin_name1": "Mersch"
    },
    {
      "place_name": "Elvange",
      "postal_code": "L-8533",
      "country_code": "LU",
      "latitude": 49.7247,
      "longitude": 5.9181,
      "admin_name1": "Redange"
    },
    {
      "place_name": "Grosbous",
      "postal_code": "L-9154",
      "country_code": "LU",
      "latitude": 49.8301,
      "longitude": 5.965,
      "admin_name1": "Redange"
    },
    {
      "place_name": "Mondorf-les-Bains",
      "postal_code": "L-5650",
      "country_code": "LU",
      "latitude": 49.5065,
      "longitude": 6.2818,
      "admin_name1": "Remich"
    },
    {
      "place_name": "Remich",
      "postal_code": "L-5551",
      "country_code": "LU",
      "latitude": 49.5461,
      "longitude": 6.3568,
      "admin_name1": "Remich"
    },
    {
      "place_name": "Vianden",
      "postal_code": "L-9416",
      "country_code": "LU",
      "latitude": 49.9331,
      "longitude": 6.2114,
      "admin_name1": "Vianden"
    },
    {
      "place_name": "Baschleiden",
      "postal_code": "L-9633",
      "country_code": "LU",
      "latitude": 49.898,
      "longitude": 5.8184,
      "admin_name1": "Wiltz"
    },
    {
      "place_name": "Wiltz",
      "postal_code": "L-9574",
      "country_code": "LU",
      "latitude": 49.9714,
      "longitude": 5.9294,
      "admin_name1": "Wiltz"
    },
    {
      "place_name": "Roullingen",
      "postal_code": "L-9681",
      "country_code": "LU",
      "latitude": 49.9563,
      "longitude": 5.9219,
      "admin_name1": "Wiltz"
    },
    {
      "place_name": "Gruemelscheid",
      "postal_code": "L-9654",
      "country_code": "LU",
      "latitude": 49.9846,
      "longitude": 5.8728,
      "admin_name1": "Wiltz"
    },
    {
      "place_name": "Kautenbach",
      "postal_code": "L-9663",
      "country_code": "LU",
      "latitude": 49.9529,
      "longitude": 6.0194,
      "admin_name1": "Wiltz"
    },
    {
      "place_name": "Schouweiler",
      "postal_code": "L-4997",
      "country_code": "LU",
      "latitude": 49.5859,
      "longitude": 5.9553,
      "admin_name1": "Capellen"
    },
    {
      "place_name": "Garnich",
      "postal_code": "L-8350",
      "country_code": "LU",
      "latitude": 49.6174,
      "longitude": 5.955,
      "admin_name1": "Capellen"
    },
    {
      "place_name": "Eischen",
      "postal_code": "L-8460",
      "country_code": "LU",
      "latitude": 49.681,
      "longitude": 5.8778,
      "admin_name1": "Capellen"
    },
    {
      "place_name": "Olm",
      "postal_code": "L-8394",
      "country_code": "LU",
      "latitude": 49.6576,
      "longitude": 6.0006,
      "admin_name1": "Capellen"
    },
    {
      "place_name": "Derenbach",
      "postal_code": "L-9645",
      "country_code": "LU",
      "latitude": 50.0125,
      "longitude": 5.8858,
      "admin_name1": "Clervaux"
    },
    {
      "place_name": "Boxhorn",
      "postal_code": "L-9742",
      "country_code": "LU",
      "latitude": 50.0827,
      "longitude": 5.9936,
      "admin_name1": "Clervaux"
    },
    {
      "place_name": "Drauffelt",
      "postal_code": "L-9746",
      "country_code": "LU",
      "latitude": 50.0169,
      "longitude": 6.0045,
      "admin_name1": "Clervaux"
    },
    {
      "place_name": "Fossenhof",
      "postal_code": "L-9968",
      "country_code": "LU",
      "latitude": 50.1133,
      "longitude": 6.0902,
      "admin_name1": "Clervaux"
    },
    {
      "place_name": "Troisvierges",
      "postal_code": "L-9908",
      "country_code": "LU",
      "latitude": 50.1211,
      "longitude": 5.9975,
      "admin_name1": "Clervaux"
    },
    {
      "place_name": "Leithum",
      "postal_code": "L-9970",
      "country_code": "LU",
      "latitude": 50.1603,
      "longitude": 6.1085,
      "admin_name1": "Clervaux"
    },
    {
      "place_name": "Weiswampach",
      "postal_code": "L-9990",
      "country_code": "LU",
      "latitude": 50.1364,
      "longitude": 6.0742,
      "admin_name1": "Clervaux"
    },
    {
      "place_name": "Wemperhardt",
      "postal_code": "L-9999",
      "country_code": "LU",
      "latitude": 50.1537,
      "longitude": 6.0532,
      "admin_name1": "Clervaux"
    },
    {
      "place_name": "Bettendorf",
      "postal_code": "L-9354",
      "country_code": "LU",
      "latitude": 49.8765,
      "longitude": 6.2086,
      "admin_name1": "Diekirch"
    },
    {
      "place_name": "Kehmen",
      "postal_code": "L-9163",
      "country_code": "LU",
      "latitude": 49.8996,
      "longitude": 6.0367,
      "admin_name1": "Diekirch"
    },
    {
      "place_name": "Warken",
      "postal_code": "L-9029",
      "country_code": "LU",
      "latitude": 49.8598,
      "longitude": 6.0888,
      "admin_name1": "Diekirch"
    },
    {
      "place_name": "Ermsdorf",
      "postal_code": "L-6380",
      "country_code": "LU",
      "latitude": 49.8241,
      "longitude": 6.2447,
      "admin_name1": "Diekirch"
    },
    {
      "place_name": "Bollendorf-Pont",
      "postal_code": "L-6555",
      "country_code": "LU",
      "latitude": 49.8496,
      "longitude": 6.3564,
      "admin_name1": "Echternach"
    },
    {
      "place_name": "Breidweiler",
      "postal_code": "L-6238",
      "country_code": "LU",
      "latitude": 49.777,
      "longitude": 6.3054,
      "admin_name1": "Echternach"
    },
    {
      "place_name": "Boursdorf",
      "postal_code": "L-6663",
      "country_code": "LU",
      "latitude": 49.7647,
      "longitude": 6.4778,
      "admin_name1": "Echternach"
    },
    {
      "place_name": "Freckeisen",
      "postal_code": "L-7649",
      "country_code": "LU",
      "latitude": 49.7995,
      "longitude": 6.2596,
      "admin_name1": "Echternach"
    },
    {
      "place_name": "Leudelange",
      "postal_code": "L-3347",
      "country_code": "LU",
      "latitude": 49.5684,
      "longitude": 6.0663,
      "admin_name1": "Esch-sur-Alzette"
    },
    {
      "place_name": "Crauthem",
      "postal_code": "L-3330",
      "country_code": "LU",
      "latitude": 49.5376,
      "longitude": 6.147,
      "admin_name1": "Esch-sur-Alzette"
    },
    {
      "place_name": "Rumelange",
      "postal_code": "L-3723",
      "country_code": "LU",
      "latitude": 49.4613,
      "longitude": 6.0273,
      "admin_name1": "Esch-sur-Alzette"
    },
    {
      "place_name": "Belvaux",
      "postal_code": "L-4371",
      "country_code": "LU",
      "latitude": 49.5036,
      "longitude": 5.9429,
      "admin_name1": "Esch-sur-Alzette"
    },
    {
      "place_name": "Sanem",
      "postal_code": "L-4985",
      "country_code": "LU",
      "latitude": 49.5468,
      "longitude": 5.9314,
      "admin_name1": "Esch-sur-Alzette"
    },
    {
      "place_name": "Olingen",
      "postal_code": "L-6951",
      "country_code": "LU",
      "latitude": 49.6806,
      "longitude": 6.3178,
      "admin_name1": "Grevenmacher"
    },
    {
      "place_name": "Junglinster",
      "postal_code": "L-6125",
      "country_code": "LU",
      "latitude": 49.7168,
      "longitude": 6.2678,
      "admin_name1": "Grevenmacher"
    },
    {
      "place_name": "Rodenbourg",
      "postal_code": "L-6956",
      "country_code": "LU",
      "latitude": 49.6873,
      "longitude": 6.2908,
      "admin_name1": "Grevenmacher"
    },
    {
      "place_name": "Mertert",
      "postal_code": "L-6682",
      "country_code": "LU",
      "latitude": 49.7082,
      "longitude": 6.48,
      "admin_name1": "Grevenmacher"
    },
    {
      "place_name": "Kapenacker",
      "postal_code": "L-5432",
      "country_code": "LU",
      "latitude": 49.6379,
      "longitude": 6.3554,
      "admin_name1": "Grevenmacher"
    },
    {
      "place_name": "Dreiborn",
      "postal_code": "L-5499",
      "country_code": "LU",
      "latitude": 49.6219,
      "longitude": 6.3957,
      "admin_name1": "Grevenmacher"
    },
    {
      "place_name": "Contern",
      "postal_code": "L-5314",
      "country_code": "LU",
      "latitude": 49.5858,
      "longitude": 6.2227,
      "admin_name1": "Luxembourg"
    },
    {
      "place_name": "Oetrange",
      "postal_code": "L-5351",
      "country_code": "LU",
      "latitude": 49.6002,
      "longitude": 6.2557,
      "admin_name1": "Luxembourg"
    },
    {
      "place_name": "Senningerberg",
      "postal_code": "L-2357",
      "country_code": "LU",
      "latitude": 49.649,
      "longitude": 6.2388,
      "admin_name1": "Luxembourg"
    },
    {
      "place_name": "Ernster",
      "postal_code": "L-6166",
      "country_code": "LU",
      "latitude": 49.68,
      "longitude": 6.2454,
      "admin_name1": "Luxembourg"
    },
    {
      "place_name": "Schrassig",
      "postal_code": "L-5299",
      "country_code": "LU",
      "latitude": 49.6084,
      "longitude": 6.2452,
      "admin_name1": "Luxembourg"
    },
    {
      "place_name": "Walferdange",
      "postal_code": "L-7226",
      "country_code": "LU",
      "latitude": 49.6566,
      "longitude": 6.1353,
      "admin_name1": "Luxembourg"
    },
    {
      "place_name": "Weiler-la-Tour",
      "postal_code": "L-5775",
      "country_code": "LU",
      "latitude": 49.5436,
      "longitude": 6.2035,
      "admin_name1": "Luxembourg"
    },
    {
      "place_name": "Buschdorf",
      "postal_code": "L-7418",
      "country_code": "LU",
      "latitude": 49.7501,
      "longitude": 6.0067,
      "admin_name1": "Mersch"
    },
    {
      "place_name": "Heffingen",
      "postal_code": "L-7653",
      "country_code": "LU",
      "latitude": 49.7669,
      "longitude": 6.2382,
      "admin_name1": "Mersch"
    },
    {
      "place_name": "Lorentzweiler",
      "postal_code": "L-7379",
      "country_code": "LU",
      "latitude": 49.6994,
      "longitude": 6.142,
      "admin_name1": "Mersch"
    },
    {
      "place_name": "Schrondweiler",
      "postal_code": "L-9184",
      "country_code": "LU",
      "latitude": 49.8057,
      "longitude": 6.1552,
      "admin_name1": "Mersch"
    },
    {
      "place_name": "Brattert",
      "postal_code": "L-8816",
      "country_code": "LU",
      "latitude": 49.855,
      "longitude": 5.9022,
      "admin_name1": "Redange"
    },
    {
      "place_name": "Altwies",
      "postal_code": "L-5670",
      "country_code": "LU",
      "latitude": 49.5093,
      "longitude": 6.2554,
      "admin_name1": "Remich"
    },
    {
      "place_name": "Bech-Kleinmacher",
      "postal_code": "L-5405",
      "country_code": "LU",
      "latitude": 49.5303,
      "longitude": 6.3547,
      "admin_name1": "Remich"
    },
    {
      "place_name": "Wintrange",
      "postal_code": "L-5495",
      "country_code": "LU",
      "latitude": 49.5014,
      "longitude": 6.3512,
      "admin_name1": "Remich"
    },
    {
      "place_name": "Boulaide",
      "postal_code": "L-9640",
      "country_code": "LU",
      "latitude": 49.8863,
      "longitude": 5.8117,
      "admin_name1": "Wiltz"
    },
    {
      "place_name": "Ringel",
      "postal_code": "L-9181",
      "country_code": "LU",
      "latitude": 49.9165,
      "longitude": 6.013,
      "admin_name1": "Wiltz"
    },
    {
      "place_name": "Liefrange",
      "postal_code": "L-9665",
      "country_code": "LU",
      "latitude": 49.9103,
      "longitude": 5.8769,
      "admin_name1": "Wiltz"
    },
    {
      "place_name": "Direndall",
      "postal_code": "L-8198",
      "country_code": "LU",
      "latitude": 49.6815,
      "longitude": 6.0859,
      "admin_name1": "Capellen"
    },
    {
      "place_name": "Kehlen",
      "postal_code": "L-8289",
      "country_code": "LU",
      "latitude": 49.6659,
      "longitude": 6.031,
      "admin_name1": "Capellen"
    },
    {
      "place_name": "Koerich",
      "postal_code": "L-8385",
      "country_code": "LU",
      "latitude": 49.668,
      "longitude": 5.9507,
      "admin_name1": "Capellen"
    },
    {
      "place_name": "Leesbach",
      "postal_code": "L-8363",
      "country_code": "LU",
      "latitude": 49.7048,
      "longitude": 5.9822,
      "admin_name1": "Capellen"
    },
    {
      "place_name": "Linger",
      "postal_code": "L-4797",
      "country_code": "LU",
      "latitude": 49.5651,
      "longitude": 5.8859,
      "admin_name1": "Capellen"
    },
    {
      "place_name": "Hautcharage",
      "postal_code": "L-4953",
      "country_code": "LU",
      "latitude": 49.571,
      "longitude": 5.9225,
      "admin_name1": "Capellen"
    },
    {
      "place_name": "Doennange",
      "postal_code": "L-9745",
      "country_code": "LU",
      "latitude": 50.0611,
      "longitude": 5.9566,
      "admin_name1": "Clervaux"
    },
    {
      "place_name": "Kalborn",
      "postal_code": "L-9757",
      "country_code": "LU",
      "latitude": 50.1019,
      "longitude": 6.1114,
      "admin_name1": "Clervaux"
    },
    {
      "place_name": "Tintesmühle",
      "postal_code": "L-9758",
      "country_code": "LU",
      "latitude": 50.0938,
      "longitude": 6.1259,
      "admin_name1": "Clervaux"
    },
    {
      "place_name": "Oberschlinder",
      "postal_code": "L-9183",
      "country_code": "LU",
      "latitude": 49.9538,
      "longitude": 6.064,
      "admin_name1": "Clervaux"
    },
    {
      "place_name": "Hosingen",
      "postal_code": "L-9807",
      "country_code": "LU",
      "latitude": 50.0152,
      "longitude": 6.089,
      "admin_name1": "Clervaux"
    },
    {
      "place_name": "Schieren",
      "postal_code": "L-9122",
      "country_code": "LU",
      "latitude": 49.8309,
      "longitude": 6.0949,
      "admin_name1": "Diekirch"
    },
    {
      "place_name": "Berdorf",
      "postal_code": "L-6552",
      "country_code": "LU",
      "latitude": 49.8258,
      "longitude": 6.3531,
      "admin_name1": "Echternach"
    },
    {
      "place_name": "Herborn",
      "postal_code": "L-6665",
      "country_code": "LU",
      "latitude": 49.7473,
      "longitude": 6.4275,
      "admin_name1": "Echternach"
    },
    {
      "place_name": "Noertzange",
      "postal_code": "L-3380",
      "country_code": "LU",
      "latitude": 49.5092,
      "longitude": 6.0592,
      "admin_name1": "Esch-sur-Alzette"
    },
    {
      "place_name": "Foetz",
      "postal_code": "L-3896",
      "country_code": "LU",
      "latitude": 49.5343,
      "longitude": 6.019,
      "admin_name1": "Esch-sur-Alzette"
    },
    {
      "place_name": "Wormeldange",
      "postal_code": "L-5480",
      "country_code": "LU",
      "latitude": 49.6091,
      "longitude": 6.404,
      "admin_name1": "Grevenmacher"
    },
    {
      "place_name": "Steinsel",
      "postal_code": "L-7336",
      "country_code": "LU",
      "latitude": 49.675,
      "longitude": 6.1202,
      "admin_name1": "Luxembourg"
    },
    {
      "place_name": "Angelsberg",
      "postal_code": "L-7410",
      "country_code": "LU",
      "latitude": 49.7638,
      "longitude": 6.1597,
      "admin_name1": "Mersch"
    },
    {
      "place_name": "Bofferdange",
      "postal_code": "L-7362",
      "country_code": "LU",
      "latitude": 49.6901,
      "longitude": 6.1439,
      "admin_name1": "Mersch"
    },
    {
      "place_name": "Nommern",
      "postal_code": "L-7465",
      "country_code": "LU",
      "latitude": 49.7945,
      "longitude": 6.1747,
      "admin_name1": "Mersch"
    },
    {
      "place_name": "Ell",
      "postal_code": "L-8530",
      "country_code": "LU",
      "latitude": 49.7623,
      "longitude": 5.8575,
      "admin_name1": "Redange"
    },
    {
      "place_name": "Ehner",
      "postal_code": "L-8529",
      "country_code": "LU",
      "latitude": 49.7172,
      "longitude": 5.9497,
      "admin_name1": "Redange"
    },
    {
      "place_name": "Useldange",
      "postal_code": "L-8706",
      "country_code": "LU",
      "latitude": 49.7664,
      "longitude": 5.9782,
      "admin_name1": "Redange"
    },
    {
      "place_name": "Waldbredimus",
      "postal_code": "L-5466",
      "country_code": "LU",
      "latitude": 49.5578,
      "longitude": 6.2919,
      "admin_name1": "Remich"
    },
    {
      "place_name": "Brandenbourg",
      "postal_code": "L-9360",
      "country_code": "LU",
      "latitude": 49.9102,
      "longitude": 6.1393,
      "admin_name1": "Vianden"
    },
    {
      "place_name": "Erpeldange",
      "postal_code": "L-9648",
      "country_code": "LU",
      "latitude": 49.9785,
      "longitude": 5.9467,
      "admin_name1": "Wiltz"
    },
    {
      "place_name": "Kalborn-Moulin",
      "postal_code": "L-9757",
      "country_code": "LU",
      "latitude": 50.1032,
      "longitude": 6.1317,
      "admin_name1": "Clervaux"
    },
    {
      "place_name": "Ingeldorf",
      "postal_code": "L-9147",
      "country_code": "LU",
      "latitude": 49.8514,
      "longitude": 6.1182,
      "admin_name1": "Diekirch"
    },
    {
      "place_name": "Girst",
      "postal_code": "L-6559",
      "country_code": "LU",
      "latitude": 49.7735,
      "longitude": 6.5001,
      "admin_name1": "Echternach"
    },
    {
      "place_name": "Osweiler",
      "postal_code": "L-6570",
      "country_code": "LU",
      "latitude": 49.7865,
      "longitude": 6.4412,
      "admin_name1": "Echternach"
    },
    {
      "place_name": "Peppange",
      "postal_code": "L-3389",
      "country_code": "LU",
      "latitude": 49.5258,
      "longitude": 6.1345,
      "admin_name1": "Esch-sur-Alzette"
    },
    {
      "place_name": "Wecker",
      "postal_code": "L-6871",
      "country_code": "LU",
      "latitude": 49.6959,
      "longitude": 6.3826,
      "admin_name1": "Grevenmacher"
    },
    {
      "place_name": "Gonderange",
      "postal_code": "L-6185",
      "country_code": "LU",
      "latitude": 49.6908,
      "longitude": 6.2436,
      "admin_name1": "Grevenmacher"
    },
    {
      "place_name": "Mullendorf",
      "postal_code": "L-7346",
      "country_code": "LU",
      "latitude": 49.6811,
      "longitude": 6.1223,
      "admin_name1": "Luxembourg"
    },
    {
      "place_name": "Stuppicht",
      "postal_code": "L-6155",
      "country_code": "LU",
      "latitude": 49.7256,
      "longitude": 6.188,
      "admin_name1": "Mersch"
    },
    {
      "place_name": "Helmdange",
      "postal_code": "L-7371",
      "country_code": "LU",
      "latitude": 49.693,
      "longitude": 6.1444,
      "admin_name1": "Mersch"
    },
    {
      "place_name": "Rollingen",
      "postal_code": "L-7567",
      "country_code": "LU",
      "latitude": 49.7394,
      "longitude": 6.113,
      "admin_name1": "Mersch"
    },
    {
      "place_name": "Niederglabach",
      "postal_code": "L-7431",
      "country_code": "LU",
      "latitude": 49.7923,
      "longitude": 6.1544,
      "admin_name1": "Mersch"
    },
    {
      "place_name": "Beckerich",
      "postal_code": "L-8522",
      "country_code": "LU",
      "latitude": 49.7284,
      "longitude": 5.8912,
      "admin_name1": "Redange"
    },
    {
      "place_name": "Rambrouch",
      "postal_code": "L-8801",
      "country_code": "LU",
      "latitude": 49.8308,
      "longitude": 5.8513,
      "admin_name1": "Redange"
    },
    {
      "place_name": "Folschette",
      "postal_code": "L-8834",
      "country_code": "LU",
      "latitude": 49.8156,
      "longitude": 5.8709,
      "admin_name1": "Redange"
    },
    {
      "place_name": "Vichten",
      "postal_code": "L-9188",
      "country_code": "LU",
      "latitude": 49.8015,
      "longitude": 5.9993,
      "admin_name1": "Redange"
    },
    {
      "place_name": "Heispelt",
      "postal_code": "L-8819",
      "country_code": "LU",
      "latitude": 49.8542,
      "longitude": 5.8824,
      "admin_name1": "Redange"
    },
    {
      "place_name": "Lenningen",
      "postal_code": "L-5430",
      "country_code": "LU",
      "latitude": 49.6013,
      "longitude": 6.3677,
      "admin_name1": "Remich"
    },
    {
      "place_name": "Schengen",
      "postal_code": "L-5444",
      "country_code": "LU",
      "latitude": 49.4692,
      "longitude": 6.3589,
      "admin_name1": "Remich"
    },
    {
      "place_name": "Wellenstein",
      "postal_code": "L-5470",
      "country_code": "LU",
      "latitude": 49.5241,
      "longitude": 6.3399,
      "admin_name1": "Remich"
    },
    {
      "place_name": "Greiveldange",
      "postal_code": "L-5412",
      "country_code": "LU",
      "latitude": 49.5894,
      "longitude": 6.3162,
      "admin_name1": "Remich"
    },
    {
      "place_name": "Trintange",
      "postal_code": "L-5460",
      "country_code": "LU",
      "latitude": 49.5711,
      "longitude": 6.28,
      "admin_name1": "Remich"
    },
    {
      "place_name": "Bettel",
      "postal_code": "L-9451",
      "country_code": "LU",
      "latitude": 49.9178,
      "longitude": 6.2252,
      "admin_name1": "Vianden"
    },
    {
      "place_name": "Gralingen",
      "postal_code": "L-9375",
      "country_code": "LU",
      "latitude": 49.9362,
      "longitude": 6.1011,
      "admin_name1": "Vianden"
    },
    {
      "place_name": "Kleinbettingen",
      "postal_code": "L-8381",
      "country_code": "LU",
      "latitude": 49.6478,
      "longitude": 5.9175,
      "admin_name1": "Capellen"
    },
    {
      "place_name": "Lausdorn",
      "postal_code": "L-9968",
      "country_code": "LU",
      "latitude": 50.1179,
      "longitude": 6.083,
      "admin_name1": "Clervaux"
    },
    {
      "place_name": "Gilsdorf",
      "postal_code": "L-9374",
      "country_code": "LU",
      "latitude": 49.8615,
      "longitude": 6.1666,
      "admin_name1": "Diekirch"
    },
    {
      "place_name": "Niederfeulen",
      "postal_code": "L-9176",
      "country_code": "LU",
      "latitude": 49.8553,
      "longitude": 6.0402,
      "admin_name1": "Diekirch"
    },
    {
      "place_name": "Bigelbach",
      "postal_code": "L-6340",
      "country_code": "LU",
      "latitude": 49.86,
      "longitude": 6.2883,
      "admin_name1": "Diekirch"
    },
    {
      "place_name": "Hemstal",
      "postal_code": "L-6243",
      "country_code": "LU",
      "latitude": 49.7408,
      "longitude": 6.3349,
      "admin_name1": "Echternach"
    },
    {
      "place_name": "Born",
      "postal_code": "L-6661",
      "country_code": "LU",
      "latitude": 49.7589,
      "longitude": 6.5089,
      "admin_name1": "Echternach"
    },
    {
      "place_name": "Steinheim",
      "postal_code": "L-6586",
      "country_code": "LU",
      "latitude": 49.8192,
      "longitude": 6.4719,
      "admin_name1": "Echternach"
    },
    {
      "place_name": "Huncherange",
      "postal_code": "L-3341",
      "country_code": "LU",
      "latitude": 49.5158,
      "longitude": 6.0632,
      "admin_name1": "Esch-sur-Alzette"
    },
    {
      "place_name": "Pontpierre",
      "postal_code": "L-4395",
      "country_code": "LU",
      "latitude": 49.535,
      "longitude": 6.0187,
      "admin_name1": "Esch-sur-Alzette"
    },
    {
      "place_name": "Kockelscheuer",
      "postal_code": "L-1897",
      "country_code": "LU",
      "latitude": 49.5586,
      "longitude": 6.1009,
      "admin_name1": "Esch-sur-Alzette"
    },
    {
      "place_name": "Uebersyren",
      "postal_code": "L-5377",
      "country_code": "LU",
      "latitude": 49.6306,
      "longitude": 6.2766,
      "admin_name1": "Luxembourg"
    },
    {
      "place_name": "Beringen",
      "postal_code": "L-7409",
      "country_code": "LU",
      "latitude": 49.7702,
      "longitude": 6.1512,
      "admin_name1": "Mersch"
    },
    {
      "place_name": "Remerschen",
      "postal_code": "L-5439",
      "country_code": "LU",
      "latitude": 49.4806,
      "longitude": 6.3646,
      "admin_name1": "Remich"
    },
    {
      "place_name": "Bockholtz (Goesdorf)",
      "postal_code": "L-9637",
      "country_code": "LU",
      "latitude": 49.9236,
      "longitude": 5.9989,
      "admin_name1": "Wiltz"
    },
    {
      "place_name": "Pommerloch",
      "postal_code": "L-9638",
      "country_code": "LU",
      "latitude": 49.9604,
      "longitude": 5.8597,
      "admin_name1": "Wiltz"
    },
    {
      "place_name": "Schleif",
      "postal_code": "L-9654",
      "country_code": "LU",
      "latitude": 49.9895,
      "longitude": 5.857,
      "admin_name1": "Wiltz"
    },
    {
      "place_name": "Windhof (Koerich)",
      "postal_code": "L-8399",
      "country_code": "LU",
      "latitude": 49.6479,
      "longitude": 5.9585,
      "admin_name1": "Capellen"
    },
    {
      "place_name": "Kopstal",
      "postal_code": "L-8182",
      "country_code": "LU",
      "latitude": 49.6639,
      "longitude": 6.0779,
      "admin_name1": "Capellen"
    },
    {
      "place_name": "Stockem",
      "postal_code": "L-9771",
      "country_code": "LU",
      "latitude": 50.0778,
      "longitude": 5.9572,
      "admin_name1": "Clervaux"
    },
    {
      "place_name": "Lipperscheid",
      "postal_code": "L-9378",
      "country_code": "LU",
      "latitude": 49.926,
      "longitude": 6.0902,
      "admin_name1": "Diekirch"
    },
    {
      "place_name": "Oberfeulen",
      "postal_code": "L-9180",
      "country_code": "LU",
      "latitude": 49.8468,
      "longitude": 6.032,
      "admin_name1": "Diekirch"
    },
    {
      "place_name": "Imbringen",
      "postal_code": "L-6195",
      "country_code": "LU",
      "latitude": 49.7,
      "longitude": 6.194,
      "admin_name1": "Grevenmacher"
    },
    {
      "place_name": "Graulinster",
      "postal_code": "L-6240",
      "country_code": "LU",
      "latitude": 49.7385,
      "longitude": 6.287,
      "admin_name1": "Grevenmacher"
    },
    {
      "place_name": "Schuttrange",
      "postal_code": "L-5372",
      "country_code": "LU",
      "latitude": 49.6248,
      "longitude": 6.2665,
      "admin_name1": "Luxembourg"
    },
    {
      "place_name": "Reuland",
      "postal_code": "L-7670",
      "country_code": "LU",
      "latitude": 49.7526,
      "longitude": 6.2573,
      "admin_name1": "Mersch"
    },
    {
      "place_name": "Bigonville",
      "postal_code": "L-8812",
      "country_code": "LU",
      "latitude": 49.8459,
      "longitude": 5.7915,
      "admin_name1": "Redange"
    },
    {
      "place_name": "Koetschette",
      "postal_code": "L-8821",
      "country_code": "LU",
      "latitude": 49.8381,
      "longitude": 5.8396,
      "admin_name1": "Redange"
    },
    {
      "place_name": "Riesenhof",
      "postal_code": "L-8821",
      "country_code": "LU",
      "latitude": 49.8397,
      "longitude": 5.8147,
      "admin_name1": "Redange"
    },
    {
      "place_name": "Wolwelange",
      "postal_code": "L-8833",
      "country_code": "LU",
      "latitude": 49.8289,
      "longitude": 5.7662,
      "admin_name1": "Redange"
    },
    {
      "place_name": "Ospern",
      "postal_code": "L-8540",
      "country_code": "LU",
      "latitude": 49.7824,
      "longitude": 5.9036,
      "admin_name1": "Redange"
    },
    {
      "place_name": "Michelbouch",
      "postal_code": "L-9173",
      "country_code": "LU",
      "latitude": 49.8192,
      "longitude": 6.019,
      "admin_name1": "Redange"
    },
    {
      "place_name": "Kuborn",
      "postal_code": "L-8822",
      "country_code": "LU",
      "latitude": 49.8689,
      "longitude": 5.9022,
      "admin_name1": "Redange"
    },
    {
      "place_name": "Wahl",
      "postal_code": "L-8838",
      "country_code": "LU",
      "latitude": 49.8369,
      "longitude": 5.9069,
      "admin_name1": "Redange"
    },
    {
      "place_name": "Emerange",
      "postal_code": "L-5695",
      "country_code": "LU",
      "latitude": 49.4873,
      "longitude": 6.2904,
      "admin_name1": "Remich"
    },
    {
      "place_name": "Weidingen",
      "postal_code": "L-9518",
      "country_code": "LU",
      "latitude": 49.9754,
      "longitude": 5.941,
      "admin_name1": "Wiltz"
    },
    {
      "place_name": "Noertrange",
      "postal_code": "L-9676",
      "country_code": "LU",
      "latitude": 49.9798,
      "longitude": 5.9078,
      "admin_name1": "Wiltz"
    },
    {
      "place_name": "Brachtenbach",
      "postal_code": "L-9641",
      "country_code": "LU",
      "latitude": 50.0204,
      "longitude": 5.9098,
      "admin_name1": "Clervaux"
    },
    {
      "place_name": "Rumlange",
      "postal_code": "L-9770",
      "country_code": "LU",
      "latitude": 50.0793,
      "longitude": 5.9739,
      "admin_name1": "Clervaux"
    },
    {
      "place_name": "Drinklange",
      "postal_code": "L-9952",
      "country_code": "LU",
      "latitude": 50.1326,
      "longitude": 6.0142,
      "admin_name1": "Clervaux"
    },
    {
      "place_name": "Bourscheid-Moulin",
      "postal_code": "L-9164",
      "country_code": "LU",
      "latitude": 49.9101,
      "longitude": 6.0861,
      "admin_name1": "Diekirch"
    },
    {
      "place_name": "Moersdorf",
      "postal_code": "L-6692",
      "country_code": "LU",
      "latitude": 49.7424,
      "longitude": 6.5002,
      "admin_name1": "Echternach"
    },
    {
      "place_name": "Rosport",
      "postal_code": "L-6558",
      "country_code": "LU",
      "latitude": 49.7918,
      "longitude": 6.4888,
      "admin_name1": "Echternach"
    },
    {
      "place_name": "Ehlange",
      "postal_code": "L-3961",
      "country_code": "LU",
      "latitude": 49.5478,
      "longitude": 6.0176,
      "admin_name1": "Esch-sur-Alzette"
    },
    {
      "place_name": "Mensdorf",
      "postal_code": "L-6930",
      "country_code": "LU",
      "latitude": 49.6526,
      "longitude": 6.3025,
      "admin_name1": "Grevenmacher"
    },
    {
      "place_name": "Biwerbach",
      "postal_code": "L-6834",
      "country_code": "LU",
      "latitude": 49.7115,
      "longitude": 6.3656,
      "admin_name1": "Grevenmacher"
    },
    {
      "place_name": "Oberdonven",
      "postal_code": "L-5435",
      "country_code": "LU",
      "latitude": 49.6496,
      "longitude": 6.3995,
      "admin_name1": "Grevenmacher"
    },
    {
      "place_name": "Eisenborn",
      "postal_code": "L-6196",
      "country_code": "LU",
      "latitude": 49.6913,
      "longitude": 6.1835,
      "admin_name1": "Grevenmacher"
    },
    {
      "place_name": "Hunsdorf",
      "postal_code": "L-7397",
      "country_code": "LU",
      "latitude": 49.6969,
      "longitude": 6.1313,
      "admin_name1": "Mersch"
    },
    {
      "place_name": "Tuntange",
      "postal_code": "L-7482",
      "country_code": "LU",
      "latitude": 49.7128,
      "longitude": 6.011,
      "admin_name1": "Mersch"
    },
    {
      "place_name": "Eltz",
      "postal_code": "L-8540",
      "country_code": "LU",
      "latitude": 49.7778,
      "longitude": 5.8937,
      "admin_name1": "Redange"
    },
    {
      "place_name": "Canach",
      "postal_code": "L-5415",
      "country_code": "LU",
      "latitude": 49.6077,
      "longitude": 6.3243,
      "admin_name1": "Remich"
    },
    {
      "place_name": "Merscheid",
      "postal_code": "L-9380",
      "country_code": "LU",
      "latitude": 49.954,
      "longitude": 6.1053,
      "admin_name1": "Vianden"
    },
    {
      "place_name": "Goesdorf",
      "postal_code": "L-9653",
      "country_code": "LU",
      "latitude": 49.921,
      "longitude": 5.9675,
      "admin_name1": "Wiltz"
    },
    {
      "place_name": "Alscheid",
      "postal_code": "L-9632",
      "country_code": "LU",
      "latitude": 49.9698,
      "longitude": 6.0078,
      "admin_name1": "Wiltz"
    },
    {
      "place_name": "Meispelt",
      "postal_code": "L-8292",
      "country_code": "LU",
      "latitude": 49.6933,
      "longitude": 6.0604,
      "admin_name1": "Capellen"
    },
    {
      "place_name": "Nospelt",
      "postal_code": "L-8392",
      "country_code": "LU",
      "latitude": 49.6752,
      "longitude": 6.004,
      "admin_name1": "Capellen"
    },
    {
      "place_name": "Oberwampach",
      "postal_code": "L-9673",
      "country_code": "LU",
      "latitude": 50.0153,
      "longitude": 5.8613,
      "admin_name1": "Clervaux"
    },
    {
      "place_name": "Grindhausen",
      "postal_code": "L-9751",
      "country_code": "LU",
      "latitude": 50.0829,
      "longitude": 6.0591,
      "admin_name1": "Clervaux"
    },
    {
      "place_name": "Eisenbach",
      "postal_code": "L-9838",
      "country_code": "LU",
      "latitude": 50.0044,
      "longitude": 6.1438,
      "admin_name1": "Clervaux"
    },
    {
      "place_name": "Schlindermanderscheid",
      "postal_code": "L-9183",
      "country_code": "LU",
      "latitude": 49.9321,
      "longitude": 6.0612,
      "admin_name1": "Diekirch"
    },
    {
      "place_name": "Enteschbach",
      "postal_code": "L-9378",
      "country_code": "LU",
      "latitude": 49.912,
      "longitude": 6.1138,
      "admin_name1": "Diekirch"
    },
    {
      "place_name": "Burden",
      "postal_code": "L-9172",
      "country_code": "LU",
      "latitude": 49.8922,
      "longitude": 6.0941,
      "admin_name1": "Diekirch"
    },
    {
      "place_name": "Girsterklaus",
      "postal_code": "L-6558",
      "country_code": "LU",
      "latitude": 49.785,
      "longitude": 6.4985,
      "admin_name1": "Echternach"
    },
    {
      "place_name": "Roeser",
      "postal_code": "L-3397",
      "country_code": "LU",
      "latitude": 49.5464,
      "longitude": 6.1507,
      "admin_name1": "Esch-sur-Alzette"
    },
    {
      "place_name": "Boudler",
      "postal_code": "L-6835",
      "country_code": "LU",
      "latitude": 49.7223,
      "longitude": 6.3532,
      "admin_name1": "Grevenmacher"
    },
    {
      "place_name": "Neuhaeusgen",
      "postal_code": "L-5290",
      "country_code": "LU",
      "latitude": 49.6236,
      "longitude": 6.2379,
      "admin_name1": "Luxembourg"
    },
    {
      "place_name": "Ansembourg",
      "postal_code": "L-7411",
      "country_code": "LU",
      "latitude": 49.702,
      "longitude": 6.0404,
      "admin_name1": "Mersch"
    },
    {
      "place_name": "Levelange",
      "postal_code": "L-8543",
      "country_code": "LU",
      "latitude": 49.738,
      "longitude": 5.8564,
      "admin_name1": "Redange"
    },
    {
      "place_name": "Redange/Attert",
      "postal_code": "L-8510",
      "country_code": "LU",
      "latitude": 49.7646,
      "longitude": 5.8874,
      "admin_name1": "Redange"
    },
    {
      "place_name": "Everlange",
      "postal_code": "L-8715",
      "country_code": "LU",
      "latitude": 49.7756,
      "longitude": 5.9529,
      "admin_name1": "Redange"
    },
    {
      "place_name": "Bettborn",
      "postal_code": "L-8609",
      "country_code": "LU",
      "latitude": 49.7936,
      "longitude": 5.9463,
      "admin_name1": "Redange"
    },
    {
      "place_name": "Tarchamps",
      "postal_code": "L-9689",
      "country_code": "LU",
      "latitude": 49.951,
      "longitude": 5.7963,
      "admin_name1": "Wiltz"
    },
    {
      "place_name": "Hoscheid",
      "postal_code": "L-9377",
      "country_code": "LU",
      "latitude": 49.9451,
      "longitude": 6.0786,
      "admin_name1": "Clervaux"
    },
    {
      "place_name": "Hoscheid-Dickt",
      "postal_code": "L-9835",
      "country_code": "LU",
      "latitude": 49.9728,
      "longitude": 6.0908,
      "admin_name1": "Clervaux"
    },
    {
      "place_name": "Moestroff",
      "postal_code": "L-9364",
      "country_code": "LU",
      "latitude": 49.8497,
      "longitude": 6.2353,
      "admin_name1": "Diekirch"
    },
    {
      "place_name": "Closdelt",
      "postal_code": "L-9378",
      "country_code": "LU",
      "latitude": 49.9019,
      "longitude": 6.1226,
      "admin_name1": "Diekirch"
    },
    {
      "place_name": "Keiwelbach",
      "postal_code": "L-9364",
      "country_code": "LU",
      "latitude": 49.8491,
      "longitude": 6.232,
      "admin_name1": "Diekirch"
    },
    {
      "place_name": "Christnach",
      "postal_code": "L-7641",
      "country_code": "LU",
      "latitude": 49.7895,
      "longitude": 6.2732,
      "admin_name1": "Echternach"
    },
    {
      "place_name": "Beyren",
      "postal_code": "L-5410",
      "country_code": "LU",
      "latitude": 49.6303,
      "longitude": 6.3358,
      "admin_name1": "Grevenmacher"
    },
    {
      "place_name": "Flaxweiler",
      "postal_code": "L-6925",
      "country_code": "LU",
      "latitude": 49.6642,
      "longitude": 6.3459,
      "admin_name1": "Grevenmacher"
    },
    {
      "place_name": "Beidweiler",
      "postal_code": "L-6235",
      "country_code": "LU",
      "latitude": 49.7288,
      "longitude": 6.3008,
      "admin_name1": "Grevenmacher"
    },
    {
      "place_name": "Münschecker",
      "postal_code": "L-6858",
      "country_code": "LU",
      "latitude": 49.6993,
      "longitude": 6.4412,
      "admin_name1": "Grevenmacher"
    },
    {
      "place_name": "Munsbach",
      "postal_code": "L-5376",
      "country_code": "LU",
      "latitude": 49.6309,
      "longitude": 6.2697,
      "admin_name1": "Luxembourg"
    },
    {
      "place_name": "Schiltzberg",
      "postal_code": "L-6175",
      "country_code": "LU",
      "latitude": 49.7385,
      "longitude": 6.2214,
      "admin_name1": "Mersch"
    },
    {
      "place_name": "Huttange",
      "postal_code": "L-8539",
      "country_code": "LU",
      "latitude": 49.7354,
      "longitude": 5.8969,
      "admin_name1": "Redange"
    },
    {
      "place_name": "Arsdorf",
      "postal_code": "L-8809",
      "country_code": "LU",
      "latitude": 49.8601,
      "longitude": 5.8415,
      "admin_name1": "Redange"
    },
    {
      "place_name": "Lannen",
      "postal_code": "L-8542",
      "country_code": "LU",
      "latitude": 49.7898,
      "longitude": 5.8382,
      "admin_name1": "Redange"
    },
    {
      "place_name": "Këppenhaff",
      "postal_code": "L-9378",
      "country_code": "LU",
      "latitude": 49.9034,
      "longitude": 6.1339,
      "admin_name1": "Vianden"
    },
    {
      "place_name": "Hoscheidterhof",
      "postal_code": "L-9458",
      "country_code": "LU",
      "latitude": 49.936,
      "longitude": 6.1564,
      "admin_name1": "Vianden"
    },
    {
      "place_name": "Walsdorf",
      "postal_code": "L-9465",
      "country_code": "LU",
      "latitude": 49.9254,
      "longitude": 6.1721,
      "admin_name1": "Vianden"
    },
    {
      "place_name": "Eschdorf",
      "postal_code": "L-9151",
      "country_code": "LU",
      "latitude": 49.8856,
      "longitude": 5.9326,
      "admin_name1": "Wiltz"
    },
    {
      "place_name": "Nothum",
      "postal_code": "L-9678",
      "country_code": "LU",
      "latitude": 49.9404,
      "longitude": 5.8813,
      "admin_name1": "Wiltz"
    },
    {
      "place_name": "Merkholtz",
      "postal_code": "L-9670",
      "country_code": "LU",
      "latitude": 49.9622,
      "longitude": 5.9794,
      "admin_name1": "Wiltz"
    },
    {
      "place_name": "Maulusmühle",
      "postal_code": "L-9974",
      "country_code": "LU",
      "latitude": 50.0939,
      "longitude": 6.0256,
      "admin_name1": "Clervaux"
    },
    {
      "place_name": "Eselborn",
      "postal_code": "L-9779",
      "country_code": "LU",
      "latitude": 50.0644,
      "longitude": 5.9889,
      "admin_name1": "Clervaux"
    },
    {
      "place_name": "Neidhausen",
      "postal_code": "L-9837",
      "country_code": "LU",
      "latitude": 50.0278,
      "longitude": 6.0647,
      "admin_name1": "Clervaux"
    },
    {
      "place_name": "Mertzig",
      "postal_code": "L-9167",
      "country_code": "LU",
      "latitude": 49.8285,
      "longitude": 6.0013,
      "admin_name1": "Diekirch"
    },
    {
      "place_name": "Colbette",
      "postal_code": "L-6239",
      "country_code": "LU",
      "latitude": 49.768,
      "longitude": 6.3024,
      "admin_name1": "Echternach"
    },
    {
      "place_name": "Mullerthal",
      "postal_code": "L-6245",
      "country_code": "LU",
      "latitude": 49.7903,
      "longitude": 6.307,
      "admin_name1": "Echternach"
    },
    {
      "place_name": "Bivange",
      "postal_code": "L-3324",
      "country_code": "LU",
      "latitude": 49.5457,
      "longitude": 6.1372,
      "admin_name1": "Esch-sur-Alzette"
    },
    {
      "place_name": "Breinert",
      "postal_code": "L-6836",
      "country_code": "LU",
      "latitude": 49.7122,
      "longitude": 6.3392,
      "admin_name1": "Grevenmacher"
    },
    {
      "place_name": "Berbourg",
      "postal_code": "L-6830",
      "country_code": "LU",
      "latitude": 49.7313,
      "longitude": 6.3933,
      "admin_name1": "Grevenmacher"
    },
    {
      "place_name": "Oberanven",
      "postal_code": "L-6982",
      "country_code": "LU",
      "latitude": 49.6605,
      "longitude": 6.2393,
      "admin_name1": "Luxembourg"
    },
    {
      "place_name": "Roost (Bissen)",
      "postal_code": "L-7759",
      "country_code": "LU",
      "latitude": 49.7859,
      "longitude": 6.0933,
      "admin_name1": "Mersch"
    },
    {
      "place_name": "Klingelscheuer",
      "postal_code": "L-7392",
      "country_code": "LU",
      "latitude": 49.693,
      "longitude": 6.1683,
      "admin_name1": "Mersch"
    },
    {
      "place_name": "Schweich",
      "postal_code": "L-8362",
      "country_code": "LU",
      "latitude": 49.7253,
      "longitude": 5.9262,
      "admin_name1": "Redange"
    },
    {
      "place_name": "Rombach-Martelange",
      "postal_code": "L-8832",
      "country_code": "LU",
      "latitude": 49.8334,
      "longitude": 5.7433,
      "admin_name1": "Redange"
    },
    {
      "place_name": "Nagem",
      "postal_code": "L-8544",
      "country_code": "LU",
      "latitude": 49.7878,
      "longitude": 5.8574,
      "admin_name1": "Redange"
    },
    {
      "place_name": "Niederpallen",
      "postal_code": "L-8545",
      "country_code": "LU",
      "latitude": 49.7559,
      "longitude": 5.9097,
      "admin_name1": "Redange"
    },
    {
      "place_name": "Stolzembourg",
      "postal_code": "L-9463",
      "country_code": "LU",
      "latitude": 49.9656,
      "longitude": 6.1675,
      "admin_name1": "Vianden"
    },
    {
      "place_name": "Heiderscheid",
      "postal_code": "L-9157",
      "country_code": "LU",
      "latitude": 49.8883,
      "longitude": 5.9773,
      "admin_name1": "Wiltz"
    },
    {
      "place_name": "Bonnal",
      "postal_code": "L-9660",
      "country_code": "LU",
      "latitude": 49.9025,
      "longitude": 5.8862,
      "admin_name1": "Wiltz"
    },
    {
      "place_name": "Keispelt",
      "postal_code": "L-8295",
      "country_code": "LU",
      "latitude": 49.6891,
      "longitude": 6.0624,
      "admin_name1": "Capellen"
    },
    {
      "place_name": "Simmerschmelz",
      "postal_code": "L-8363",
      "country_code": "LU",
      "latitude": 49.6942,
      "longitude": 5.9852,
      "admin_name1": "Capellen"
    },
    {
      "place_name": "Allerborn",
      "postal_code": "L-9631",
      "country_code": "LU",
      "latitude": 50.0355,
      "longitude": 5.8741,
      "admin_name1": "Clervaux"
    },
    {
      "place_name": "Lentzweiler",
      "postal_code": "L-9779",
      "country_code": "LU",
      "latitude": 50.064,
      "longitude": 5.9832,
      "admin_name1": "Clervaux"
    },
    {
      "place_name": "Wincrange",
      "postal_code": "L-9780",
      "country_code": "LU",
      "latitude": 50.0534,
      "longitude": 5.9169,
      "admin_name1": "Clervaux"
    },
    {
      "place_name": "Givenich",
      "postal_code": "L-6666",
      "country_code": "LU",
      "latitude": 49.7483,
      "longitude": 6.4797,
      "admin_name1": "Echternach"
    },
    {
      "place_name": "Biwer",
      "postal_code": "L-6834",
      "country_code": "LU",
      "latitude": 49.7079,
      "longitude": 6.374,
      "admin_name1": "Grevenmacher"
    },
    {
      "place_name": "Niederdonven",
      "postal_code": "L-5433",
      "country_code": "LU",
      "latitude": 49.6347,
      "longitude": 6.4023,
      "admin_name1": "Grevenmacher"
    },
    {
      "place_name": "Syren",
      "postal_code": "L-5899",
      "country_code": "LU",
      "latitude": 49.563,
      "longitude": 6.2196,
      "admin_name1": "Luxembourg"
    },
    {
      "place_name": "Oberglabach",
      "postal_code": "L-7431",
      "country_code": "LU",
      "latitude": 49.785,
      "longitude": 6.1499,
      "admin_name1": "Mersch"
    },
    {
      "place_name": "Hovelange",
      "postal_code": "L-8538",
      "country_code": "LU",
      "latitude": 49.7226,
      "longitude": 5.9072,
      "admin_name1": "Redange"
    },
    {
      "place_name": "Masseler",
      "postal_code": "L-9668",
      "country_code": "LU",
      "latitude": 49.9321,
      "longitude": 6.0246,
      "admin_name1": "Wiltz"
    },
    {
      "place_name": "Mecher",
      "postal_code": "L-9669",
      "country_code": "LU",
      "latitude": 49.9224,
      "longitude": 5.8724,
      "admin_name1": "Wiltz"
    },
    {
      "place_name": "Knaphoscheid",
      "postal_code": "L-9759",
      "country_code": "LU",
      "latitude": 50.016,
      "longitude": 5.9655,
      "admin_name1": "Wiltz"
    },
    {
      "place_name": "Enscherange",
      "postal_code": "L-9747",
      "country_code": "LU",
      "latitude": 49.9991,
      "longitude": 5.9904,
      "admin_name1": "Wiltz"
    },
    {
      "place_name": "Pintsch",
      "postal_code": "L-9767",
      "country_code": "LU",
      "latitude": 49.9935,
      "longitude": 6.0087,
      "admin_name1": "Wiltz"
    },
    {
      "place_name": "Goeblange",
      "postal_code": "L-8359",
      "country_code": "LU",
      "latitude": 49.6682,
      "longitude": 5.9637,
      "admin_name1": "Capellen"
    },
    {
      "place_name": "Grass",
      "postal_code": "L-8389",
      "country_code": "LU",
      "latitude": 49.6348,
      "longitude": 5.8921,
      "admin_name1": "Capellen"
    },
    {
      "place_name": "Boevange",
      "postal_code": "L-9740",
      "country_code": "LU",
      "latitude": 50.0464,
      "longitude": 5.9308,
      "admin_name1": "Clervaux"
    },
    {
      "place_name": "Scheidgen",
      "postal_code": "L-6250",
      "country_code": "LU",
      "latitude": 49.7853,
      "longitude": 6.3651,
      "admin_name1": "Echternach"
    },
    {
      "place_name": "Waldbillig",
      "postal_code": "L-7634",
      "country_code": "LU",
      "latitude": 49.8049,
      "longitude": 6.2685,
      "admin_name1": "Echternach"
    },
    {
      "place_name": "Machtum",
      "postal_code": "L-6840",
      "country_code": "LU",
      "latitude": 49.6587,
      "longitude": 6.4313,
      "admin_name1": "Grevenmacher"
    },
    {
      "place_name": "Hassel",
      "postal_code": "L-5761",
      "country_code": "LU",
      "latitude": 49.5499,
      "longitude": 6.2107,
      "admin_name1": "Luxembourg"
    },
    {
      "place_name": "Petit-Nobressart",
      "postal_code": "L-8557",
      "country_code": "LU",
      "latitude": 49.7792,
      "longitude": 5.8097,
      "admin_name1": "Redange"
    },
    {
      "place_name": "Lehrhof",
      "postal_code": "L-9144",
      "country_code": "LU",
      "latitude": 49.8576,
      "longitude": 5.9433,
      "admin_name1": "Redange"
    },
    {
      "place_name": "Bous",
      "postal_code": "L-5408",
      "country_code": "LU",
      "latitude": 49.5553,
      "longitude": 6.3313,
      "admin_name1": "Remich"
    },
    {
      "place_name": "Nocher",
      "postal_code": "L-9674",
      "country_code": "LU",
      "latitude": 49.9464,
      "longitude": 5.9768,
      "admin_name1": "Wiltz"
    },
    {
      "place_name": "Wilwerwiltz",
      "postal_code": "L-9776",
      "country_code": "LU",
      "latitude": 49.9891,
      "longitude": 5.999,
      "admin_name1": "Wiltz"
    },
    {
      "place_name": "Lullange",
      "postal_code": "L-9762",
      "country_code": "LU",
      "latitude": 50.0598,
      "longitude": 5.9398,
      "admin_name1": "Clervaux"
    },
    {
      "place_name": "Troine-Route",
      "postal_code": "L-9773",
      "country_code": "LU",
      "latitude": 50.0456,
      "longitude": 5.879,
      "admin_name1": "Clervaux"
    },
    {
      "place_name": "Asselborn",
      "postal_code": "L-9940",
      "country_code": "LU",
      "latitude": 50.0967,
      "longitude": 5.9711,
      "admin_name1": "Clervaux"
    },
    {
      "place_name": "Sassel",
      "postal_code": "L-9976",
      "country_code": "LU",
      "latitude": 50.0991,
      "longitude": 5.9954,
      "admin_name1": "Clervaux"
    },
    {
      "place_name": "Munshausen",
      "postal_code": "L-9766",
      "country_code": "LU",
      "latitude": 50.0338,
      "longitude": 6.0375,
      "admin_name1": "Clervaux"
    },
    {
      "place_name": "Urspelt",
      "postal_code": "L-9774",
      "country_code": "LU",
      "latitude": 50.0749,
      "longitude": 6.0455,
      "admin_name1": "Clervaux"
    },
    {
      "place_name": "Consthum",
      "postal_code": "L-9831",
      "country_code": "LU",
      "latitude": 49.9726,
      "longitude": 6.0531,
      "admin_name1": "Clervaux"
    },
    {
      "place_name": "Godbrange",
      "postal_code": "L-6170",
      "country_code": "LU",
      "latitude": 49.7336,
      "longitude": 6.2322,
      "admin_name1": "Grevenmacher"
    },
    {
      "place_name": "Finsterthal",
      "postal_code": "L-7425",
      "country_code": "LU",
      "latitude": 49.7584,
      "longitude": 6.0393,
      "admin_name1": "Mersch"
    },
    {
      "place_name": "Haut-Martelange",
      "postal_code": "L-8823",
      "country_code": "LU",
      "latitude": 49.8237,
      "longitude": 5.7488,
      "admin_name1": "Redange"
    },
    {
      "place_name": "Schwebach",
      "postal_code": "L-8561",
      "country_code": "LU",
      "latitude": 49.7458,
      "longitude": 5.9713,
      "admin_name1": "Redange"
    },
    {
      "place_name": "Reimberg",
      "postal_code": "L-8614",
      "country_code": "LU",
      "latitude": 49.7974,
      "longitude": 5.9534,
      "admin_name1": "Redange"
    },
    {
      "place_name": "Hachiville",
      "postal_code": "L-9956",
      "country_code": "LU",
      "latitude": 50.1074,
      "longitude": 5.9223,
      "admin_name1": "Clervaux"
    },
    {
      "place_name": "Siebenaler",
      "postal_code": "L-9840",
      "country_code": "LU",
      "latitude": 50.0102,
      "longitude": 6.0255,
      "admin_name1": "Clervaux"
    },
    {
      "place_name": "Bourscheid-Plage",
      "postal_code": "L-9164",
      "country_code": "LU",
      "latitude": 49.909,
      "longitude": 6.0792,
      "admin_name1": "Diekirch"
    },
    {
      "place_name": "Grundhof (Berdorf)",
      "postal_code": "L-6360",
      "country_code": "LU",
      "latitude": 49.8312,
      "longitude": 6.3304,
      "admin_name1": "Echternach"
    },
    {
      "place_name": "Wolper",
      "postal_code": "L-6252",
      "country_code": "LU",
      "latitude": 49.7638,
      "longitude": 6.3525,
      "admin_name1": "Echternach"
    },
    {
      "place_name": "Reckange-sur-Mess",
      "postal_code": "L-4980",
      "country_code": "LU",
      "latitude": 49.5636,
      "longitude": 6.0066,
      "admin_name1": "Esch-sur-Alzette"
    },
    {
      "place_name": "Boudlerbach",
      "postal_code": "L-6835",
      "country_code": "LU",
      "latitude": 49.7176,
      "longitude": 6.3518,
      "admin_name1": "Grevenmacher"
    },
    {
      "place_name": "Wecker-Gare",
      "postal_code": "L-6852",
      "country_code": "LU",
      "latitude": 49.7017,
      "longitude": 6.3974,
      "admin_name1": "Grevenmacher"
    },
    {
      "place_name": "Manternach",
      "postal_code": "L-6850",
      "country_code": "LU",
      "latitude": 49.7077,
      "longitude": 6.4243,
      "admin_name1": "Grevenmacher"
    },
    {
      "place_name": "Senningen",
      "postal_code": "L-6960",
      "country_code": "LU",
      "latitude": 49.649,
      "longitude": 6.2427,
      "admin_name1": "Luxembourg"
    },
    {
      "place_name": "Moesdorf",
      "postal_code": "L-7462",
      "country_code": "LU",
      "latitude": 49.7685,
      "longitude": 6.116,
      "admin_name1": "Mersch"
    },
    {
      "place_name": "Reichlange",
      "postal_code": "L-8558",
      "country_code": "LU",
      "latitude": 49.7735,
      "longitude": 5.926,
      "admin_name1": "Redange"
    },
    {
      "place_name": "Bastendorf",
      "postal_code": "L-9359",
      "country_code": "LU",
      "latitude": 49.8751,
      "longitude": 6.1868,
      "admin_name1": "Vianden"
    },
    {
      "place_name": "Bivels",
      "postal_code": "L-9453",
      "country_code": "LU",
      "latitude": 49.959,
      "longitude": 6.1917,
      "admin_name1": "Vianden"
    },
    {
      "place_name": "Nachtmanderscheid",
      "postal_code": "L-9461",
      "country_code": "LU",
      "latitude": 49.9471,
      "longitude": 6.1326,
      "admin_name1": "Vianden"
    },
    {
      "place_name": "Hierheck",
      "postal_code": "L-9144",
      "country_code": "LU",
      "latitude": 49.8728,
      "longitude": 5.9299,
      "admin_name1": "Wiltz"
    },
    {
      "place_name": "Hivange",
      "postal_code": "L-8369",
      "country_code": "LU",
      "latitude": 49.6055,
      "longitude": 5.9281,
      "admin_name1": "Capellen"
    },
    {
      "place_name": "Greisch",
      "postal_code": "L-8363",
      "country_code": "LU",
      "latitude": 49.71,
      "longitude": 5.9876,
      "admin_name1": "Capellen"
    },
    {
      "place_name": "Troine",
      "postal_code": "L-9772",
      "country_code": "LU",
      "latitude": 50.0636,
      "longitude": 5.8825,
      "admin_name1": "Clervaux"
    },
    {
      "place_name": "Hupperdange",
      "postal_code": "L-9755",
      "country_code": "LU",
      "latitude": 50.0953,
      "longitude": 6.058,
      "admin_name1": "Clervaux"
    },
    {
      "place_name": "Scheidel",
      "postal_code": "L-9182",
      "country_code": "LU",
      "latitude": 49.893,
      "longitude": 6.0425,
      "admin_name1": "Diekirch"
    },
    {
      "place_name": "Weydig",
      "postal_code": "L-6880",
      "country_code": "LU",
      "latitude": 49.7168,
      "longitude": 6.3297,
      "admin_name1": "Grevenmacher"
    },
    {
      "place_name": "Schoos",
      "postal_code": "L-7475",
      "country_code": "LU",
      "latitude": 49.7506,
      "longitude": 6.1687,
      "admin_name1": "Mersch"
    },
    {
      "place_name": "Asselscheuer",
      "postal_code": "L-7392",
      "country_code": "LU",
      "latitude": 49.6907,
      "longitude": 6.173,
      "admin_name1": "Mersch"
    },
    {
      "place_name": "Kapweiler",
      "postal_code": "L-8541",
      "country_code": "LU",
      "latitude": 49.7391,
      "longitude": 5.9684,
      "admin_name1": "Redange"
    },
    {
      "place_name": "Grevels",
      "postal_code": "L-8818",
      "country_code": "LU",
      "latitude": 49.8522,
      "longitude": 5.914,
      "admin_name1": "Redange"
    },
    {
      "place_name": "Platen",
      "postal_code": "L-8611",
      "country_code": "LU",
      "latitude": 49.7905,
      "longitude": 5.9354,
      "admin_name1": "Redange"
    },
    {
      "place_name": "Welfrange",
      "postal_code": "L-5421",
      "country_code": "LU",
      "latitude": 49.5358,
      "longitude": 6.31,
      "admin_name1": "Remich"
    },
    {
      "place_name": "Tandel",
      "postal_code": "L-9395",
      "country_code": "LU",
      "latitude": 49.8982,
      "longitude": 6.1827,
      "admin_name1": "Vianden"
    },
    {
      "place_name": "Longsdorf",
      "postal_code": "L-9459",
      "country_code": "LU",
      "latitude": 49.8984,
      "longitude": 6.2065,
      "admin_name1": "Vianden"
    },
    {
      "place_name": "Heiderscheidergrund",
      "postal_code": "L-9659",
      "country_code": "LU",
      "latitude": 49.9033,
      "longitude": 5.9605,
      "admin_name1": "Wiltz"
    },
    {
      "place_name": "Buederscheid",
      "postal_code": "L-9643",
      "country_code": "LU",
      "latitude": 49.9333,
      "longitude": 5.9383,
      "admin_name1": "Wiltz"
    },
    {
      "place_name": "Sonlez",
      "postal_code": "L-9647",
      "country_code": "LU",
      "latitude": 49.9643,
      "longitude": 5.8238,
      "admin_name1": "Wiltz"
    },
    {
      "place_name": "Doncols",
      "postal_code": "L-9647",
      "country_code": "LU",
      "latitude": 49.9717,
      "longitude": 5.8396,
      "admin_name1": "Wiltz"
    },
    {
      "place_name": "Cinqfontaines",
      "postal_code": "L-9902",
      "country_code": "LU",
      "latitude": 50.1064,
      "longitude": 6.0066,
      "admin_name1": "Clervaux"
    },
    {
      "place_name": "Kaesfurt",
      "postal_code": "L-9756",
      "country_code": "LU",
      "latitude": 50.0928,
      "longitude": 6.0729,
      "admin_name1": "Clervaux"
    },
    {
      "place_name": "Marnach",
      "postal_code": "L-9763",
      "country_code": "LU",
      "latitude": 50.0487,
      "longitude": 6.0739,
      "admin_name1": "Clervaux"
    },
    {
      "place_name": "Biwisch",
      "postal_code": "L-9948",
      "country_code": "LU",
      "latitude": 50.1181,
      "longitude": 5.9817,
      "admin_name1": "Clervaux"
    },
    {
      "place_name": "Hellange",
      "postal_code": "L-3335",
      "country_code": "LU",
      "latitude": 49.5104,
      "longitude": 6.1458,
      "admin_name1": "Esch-sur-Alzette"
    },
    {
      "place_name": "Hagelsdorf",
      "postal_code": "L-6838",
      "country_code": "LU",
      "latitude": 49.6925,
      "longitude": 6.3636,
      "admin_name1": "Grevenmacher"
    },
    {
      "place_name": "Gostingen",
      "postal_code": "L-5425",
      "country_code": "LU",
      "latitude": 49.6214,
      "longitude": 6.3525,
      "admin_name1": "Grevenmacher"
    },
    {
      "place_name": "Grevenknapp",
      "postal_code": "L-7433",
      "country_code": "LU",
      "latitude": 49.7631,
      "longitude": 6.0317,
      "admin_name1": "Mersch"
    },
    {
      "place_name": "Blaschette",
      "postal_code": "L-7390",
      "country_code": "LU",
      "latitude": 49.7015,
      "longitude": 6.1664,
      "admin_name1": "Mersch"
    },
    {
      "place_name": "Noerdange",
      "postal_code": "L-8550",
      "country_code": "LU",
      "latitude": 49.7421,
      "longitude": 5.9248,
      "admin_name1": "Redange"
    },
    {
      "place_name": "Oberpallen",
      "postal_code": "L-8552",
      "country_code": "LU",
      "latitude": 49.7293,
      "longitude": 5.8413,
      "admin_name1": "Redange"
    },
    {
      "place_name": "Eschette",
      "postal_code": "L-8817",
      "country_code": "LU",
      "latitude": 49.8232,
      "longitude": 5.8872,
      "admin_name1": "Redange"
    },
    {
      "place_name": "Dellen",
      "postal_code": "L-9144",
      "country_code": "LU",
      "latitude": 49.8586,
      "longitude": 5.9587,
      "admin_name1": "Redange"
    },
    {
      "place_name": "Huettermuehle",
      "postal_code": "L-5429",
      "country_code": "LU",
      "latitude": 49.5869,
      "longitude": 6.3739,
      "admin_name1": "Remich"
    },
    {
      "place_name": "Landscheid",
      "postal_code": "L-9458",
      "country_code": "LU",
      "latitude": 49.9342,
      "longitude": 6.146,
      "admin_name1": "Vianden"
    },
    {
      "place_name": "Esch-sur-Sûre",
      "postal_code": "L-9650",
      "country_code": "LU",
      "latitude": 49.9107,
      "longitude": 5.9348,
      "admin_name1": "Wiltz"
    },
    {
      "place_name": "Dahl",
      "postal_code": "L-9644",
      "country_code": "LU",
      "latitude": 49.9349,
      "longitude": 5.9752,
      "admin_name1": "Wiltz"
    },
    {
      "place_name": "Bavigne",
      "postal_code": "L-9635",
      "country_code": "LU",
      "latitude": 49.9218,
      "longitude": 5.8471,
      "admin_name1": "Wiltz"
    },
    {
      "place_name": "Holzem",
      "postal_code": "L-8277",
      "country_code": "LU",
      "latitude": 49.6164,
      "longitude": 5.9946,
      "admin_name1": "Capellen"
    },
    {
      "place_name": "Lieler",
      "postal_code": "L-9972",
      "country_code": "LU",
      "latitude": 50.1245,
      "longitude": 6.1089,
      "admin_name1": "Clervaux"
    },
    {
      "place_name": "Rossmühle",
      "postal_code": "L-9968",
      "country_code": "LU",
      "latitude": 50.1122,
      "longitude": 6.0466,
      "admin_name1": "Clervaux"
    },
    {
      "place_name": "Bockholtz",
      "postal_code": "L-9830",
      "country_code": "LU",
      "latitude": 50.0117,
      "longitude": 6.0517,
      "admin_name1": "Clervaux"
    },
    {
      "place_name": "Goebelsmühle",
      "postal_code": "L-9153",
      "country_code": "LU",
      "latitude": 49.921,
      "longitude": 6.0549,
      "admin_name1": "Diekirch"
    },
    {
      "place_name": "Flebour",
      "postal_code": "L-9340",
      "country_code": "LU",
      "latitude": 49.9052,
      "longitude": 6.1163,
      "admin_name1": "Diekirch"
    },
    {
      "place_name": "Wallendorf-Pont",
      "postal_code": "L-9392",
      "country_code": "LU",
      "latitude": 49.8721,
      "longitude": 6.2874,
      "admin_name1": "Diekirch"
    },
    {
      "place_name": "Savelborn",
      "postal_code": "L-6380",
      "country_code": "LU",
      "latitude": 49.8117,
      "longitude": 6.2534,
      "admin_name1": "Diekirch"
    },
    {
      "place_name": "Kalkesbach (Berdorf)",
      "postal_code": "L-6214",
      "country_code": "LU",
      "latitude": 49.8012,
      "longitude": 6.3544,
      "admin_name1": "Echternach"
    },
    {
      "place_name": "Roedgen",
      "postal_code": "L-3392",
      "country_code": "LU",
      "latitude": 49.5736,
      "longitude": 6.034,
      "admin_name1": "Esch-sur-Alzette"
    },
    {
      "place_name": "Bigonville-Poteau",
      "postal_code": "L-8812",
      "country_code": "LU",
      "latitude": 49.8383,
      "longitude": 5.7832,
      "admin_name1": "Redange"
    },
    {
      "place_name": "Saeul",
      "postal_code": "L-7470",
      "country_code": "LU",
      "latitude": 49.7287,
      "longitude": 5.9865,
      "admin_name1": "Redange"
    },
    {
      "place_name": "Goebelsmuehle",
      "postal_code": "L-9153",
      "country_code": "LU",
      "latitude": 49.9252,
      "longitude": 6.0467,
      "admin_name1": "Wiltz"
    },
    {
      "place_name": "Hinterhassel",
      "postal_code": "L-9754",
      "country_code": "LU",
      "latitude": 50.0568,
      "longitude": 5.8637,
      "admin_name1": "Clervaux"
    },
    {
      "place_name": "Huldange",
      "postal_code": "L-9964",
      "country_code": "LU",
      "latitude": 50.1649,
      "longitude": 6.0152,
      "admin_name1": "Clervaux"
    },
    {
      "place_name": "Hollermühle",
      "postal_code": "L-9968",
      "country_code": "LU",
      "latitude": 50.1168,
      "longitude": 6.0519,
      "admin_name1": "Clervaux"
    },
    {
      "place_name": "Michelau",
      "postal_code": "L-9172",
      "country_code": "LU",
      "latitude": 49.8949,
      "longitude": 6.0959,
      "admin_name1": "Diekirch"
    },
    {
      "place_name": "Kobenbour",
      "postal_code": "L-6225",
      "country_code": "LU",
      "latitude": 49.7564,
      "longitude": 6.305,
      "admin_name1": "Echternach"
    },
    {
      "place_name": "Lilien",
      "postal_code": "L-6231",
      "country_code": "LU",
      "latitude": 49.7542,
      "longitude": 6.3956,
      "admin_name1": "Echternach"
    },
    {
      "place_name": "Lasauvage",
      "postal_code": "L-4697",
      "country_code": "LU",
      "latitude": 49.5263,
      "longitude": 5.8382,
      "admin_name1": "Esch-sur-Alzette"
    },
    {
      "place_name": "Perlé",
      "postal_code": "L-8824",
      "country_code": "LU",
      "latitude": 49.8128,
      "longitude": 5.764,
      "admin_name1": "Redange"
    },
    {
      "place_name": "Rolling",
      "postal_code": "L-5443",
      "country_code": "LU",
      "latitude": 49.5503,
      "longitude": 6.3162,
      "admin_name1": "Remich"
    },
    {
      "place_name": "Ersange",
      "postal_code": "L-5423",
      "country_code": "LU",
      "latitude": 49.5763,
      "longitude": 6.2759,
      "admin_name1": "Remich"
    },
    {
      "place_name": "Kahler",
      "postal_code": "L-8376",
      "country_code": "LU",
      "latitude": 49.6326,
      "longitude": 5.9166,
      "admin_name1": "Capellen"
    },
    {
      "place_name": "Goetzingen",
      "postal_code": "L-8360",
      "country_code": "LU",
      "latitude": 49.6588,
      "longitude": 5.9812,
      "admin_name1": "Capellen"
    },
    {
      "place_name": "Niederwampach",
      "postal_code": "L-9672",
      "country_code": "LU",
      "latitude": 50.0099,
      "longitude": 5.8419,
      "admin_name1": "Clervaux"
    },
    {
      "place_name": "Schimpach",
      "postal_code": "L-9684",
      "country_code": "LU",
      "latitude": 50.0095,
      "longitude": 5.8499,
      "admin_name1": "Clervaux"
    },
    {
      "place_name": "Kirelshof",
      "postal_code": "L-9759",
      "country_code": "LU",
      "latitude": 50.0288,
      "longitude": 5.9728,
      "admin_name1": "Clervaux"
    },
    {
      "place_name": "Kaaspelterhof",
      "postal_code": "L-9765",
      "country_code": "LU",
      "latitude": 50.029,
      "longitude": 6.0001,
      "admin_name1": "Clervaux"
    },
    {
      "place_name": "Weicherdange",
      "postal_code": "L-9775",
      "country_code": "LU",
      "latitude": 50.038,
      "longitude": 5.9874,
      "admin_name1": "Clervaux"
    },
    {
      "place_name": "Colpach-Bas",
      "postal_code": "L-8526",
      "country_code": "LU",
      "latitude": 49.7578,
      "longitude": 5.8253,
      "admin_name1": "Redange"
    },
    {
      "place_name": "Rippweiler",
      "postal_code": "L-8720",
      "country_code": "LU",
      "latitude": 49.7508,
      "longitude": 5.955,
      "admin_name1": "Redange"
    },
    {
      "place_name": "Buschrodt",
      "postal_code": "L-8610",
      "country_code": "LU",
      "latitude": 49.826,
      "longitude": 5.9349,
      "admin_name1": "Redange"
    },
    {
      "place_name": "Schwebsingen",
      "postal_code": "L-5447",
      "country_code": "LU",
      "latitude": 49.5106,
      "longitude": 6.3568,
      "admin_name1": "Remich"
    },
    {
      "place_name": "Tadler",
      "postal_code": "L-9181",
      "country_code": "LU",
      "latitude": 49.9106,
      "longitude": 5.9935,
      "admin_name1": "Wiltz"
    },
    {
      "place_name": "Harlange",
      "postal_code": "L-9655",
      "country_code": "LU",
      "latitude": 49.9318,
      "longitude": 5.7893,
      "admin_name1": "Wiltz"
    },
    {
      "place_name": "Deiffelt",
      "postal_code": "L-9744",
      "country_code": "LU",
      "latitude": 50.0654,
      "longitude": 5.9625,
      "admin_name1": "Clervaux"
    },
    {
      "place_name": "Hamiville",
      "postal_code": "L-9752",
      "country_code": "LU",
      "latitude": 50.0456,
      "longitude": 5.9003,
      "admin_name1": "Clervaux"
    },
    {
      "place_name": "Heinerscheid",
      "postal_code": "L-9753",
      "country_code": "LU",
      "latitude": 50.0945,
      "longitude": 6.0871,
      "admin_name1": "Clervaux"
    },
    {
      "place_name": "Reuler",
      "postal_code": "L-9768",
      "country_code": "LU",
      "latitude": 50.0566,
      "longitude": 6.0359,
      "admin_name1": "Clervaux"
    },
    {
      "place_name": "Roder",
      "postal_code": "L-9768",
      "country_code": "LU",
      "latitude": 50.0545,
      "longitude": 6.0817,
      "admin_name1": "Clervaux"
    },
    {
      "place_name": "Hautbellain",
      "postal_code": "L-9943",
      "country_code": "LU",
      "latitude": 50.155,
      "longitude": 5.9768,
      "admin_name1": "Clervaux"
    },
    {
      "place_name": "Dirbach",
      "postal_code": "L-9153",
      "country_code": "LU",
      "latitude": 49.9182,
      "longitude": 6.0353,
      "admin_name1": "Diekirch"
    },
    {
      "place_name": "Friedbusch",
      "postal_code": "L-9183",
      "country_code": "LU",
      "latitude": 49.9503,
      "longitude": 6.0558,
      "admin_name1": "Diekirch"
    },
    {
      "place_name": "Bech",
      "postal_code": "L-6230",
      "country_code": "LU",
      "latitude": 49.7522,
      "longitude": 6.3598,
      "admin_name1": "Echternach"
    },
    {
      "place_name": "Rippig",
      "postal_code": "L-6246",
      "country_code": "LU",
      "latitude": 49.7408,
      "longitude": 6.3169,
      "admin_name1": "Echternach"
    },
    {
      "place_name": "Lellig",
      "postal_code": "L-6839",
      "country_code": "LU",
      "latitude": 49.7213,
      "longitude": 6.4347,
      "admin_name1": "Grevenmacher"
    },
    {
      "place_name": "Cruchten",
      "postal_code": "L-7421",
      "country_code": "LU",
      "latitude": 49.7989,
      "longitude": 6.1317,
      "admin_name1": "Mersch"
    },
    {
      "place_name": "Colpach-Haut",
      "postal_code": "L-8528",
      "country_code": "LU",
      "latitude": 49.7673,
      "longitude": 5.8199,
      "admin_name1": "Redange"
    },
    {
      "place_name": "Filsdorf",
      "postal_code": "L-5740",
      "country_code": "LU",
      "latitude": 49.5337,
      "longitude": 6.246,
      "admin_name1": "Remich"
    },
    {
      "place_name": "Ellange",
      "postal_code": "L-5691",
      "country_code": "LU",
      "latitude": 49.5129,
      "longitude": 6.3023,
      "admin_name1": "Remich"
    },
    {
      "place_name": "Burmerange",
      "postal_code": "L-5675",
      "country_code": "LU",
      "latitude": 49.4851,
      "longitude": 6.322,
      "admin_name1": "Remich"
    },
    {
      "place_name": "Berlé",
      "postal_code": "L-9636",
      "country_code": "LU",
      "latitude": 49.9522,
      "longitude": 5.8567,
      "admin_name1": "Wiltz"
    },
    {
      "place_name": "Goedange",
      "postal_code": "L-9954",
      "country_code": "LU",
      "latitude": 50.1468,
      "longitude": 6.0135,
      "admin_name1": "Clervaux"
    },
    {
      "place_name": "Bourscheid",
      "postal_code": "L-9140",
      "country_code": "LU",
      "latitude": 49.9096,
      "longitude": 6.0644,
      "admin_name1": "Diekirch"
    },
    {
      "place_name": "Folkendange",
      "postal_code": "L-9368",
      "country_code": "LU",
      "latitude": 49.8436,
      "longitude": 6.2027,
      "admin_name1": "Diekirch"
    },
    {
      "place_name": "Altrier",
      "postal_code": "L-6225",
      "country_code": "LU",
      "latitude": 49.7501,
      "longitude": 6.3257,
      "admin_name1": "Echternach"
    },
    {
      "place_name": "Wickrange",
      "postal_code": "L-3980",
      "country_code": "LU",
      "latitude": 49.5407,
      "longitude": 6.0213,
      "admin_name1": "Esch-sur-Alzette"
    },
    {
      "place_name": "Altlinster",
      "postal_code": "L-6150",
      "country_code": "LU",
      "latitude": 49.7217,
      "longitude": 6.2168,
      "admin_name1": "Grevenmacher"
    },
    {
      "place_name": "Findel",
      "postal_code": "L-1751",
      "country_code": "LU",
      "latitude": 49.6267,
      "longitude": 6.1939,
      "admin_name1": "Luxembourg"
    },
    {
      "place_name": "Welsdorf",
      "postal_code": "L-7723",
      "country_code": "LU",
      "latitude": 49.8178,
      "longitude": 6.0928,
      "admin_name1": "Mersch"
    },
    {
      "place_name": "Stadtbredimus",
      "postal_code": "L-5450",
      "country_code": "LU",
      "latitude": 49.565,
      "longitude": 6.366,
      "admin_name1": "Remich"
    },
    {
      "place_name": "Selscheid",
      "postal_code": "L-9682",
      "country_code": "LU",
      "latitude": 50.0181,
      "longitude": 5.9473,
      "admin_name1": "Wiltz"
    },
    {
      "place_name": "Hoffelt",
      "postal_code": "L-9960",
      "country_code": "LU",
      "latitude": 50.0991,
      "longitude": 5.921,
      "admin_name1": "Clervaux"
    },
    {
      "place_name": "Unterschlinder",
      "postal_code": "L-9183",
      "country_code": "LU",
      "latitude": 49.9348,
      "longitude": 6.0705,
      "admin_name1": "Clervaux"
    },
    {
      "place_name": "Savelborn (Waldbillig)",
      "postal_code": "L-6380",
      "country_code": "LU",
      "latitude": 49.8099,
      "longitude": 6.2551,
      "admin_name1": "Echternach"
    },
    {
      "place_name": "Ahn",
      "postal_code": "L-5401",
      "country_code": "LU",
      "latitude": 49.6281,
      "longitude": 6.4217,
      "admin_name1": "Grevenmacher"
    },
    {
      "place_name": "Prettingen",
      "postal_code": "L-7460",
      "country_code": "LU",
      "latitude": 49.7172,
      "longitude": 6.1189,
      "admin_name1": "Mersch"
    },
    {
      "place_name": "Claushof",
      "postal_code": "L-8293",
      "country_code": "LU",
      "latitude": 49.7144,
      "longitude": 6.0816,
      "admin_name1": "Mersch"
    },
    {
      "place_name": "Schandel",
      "postal_code": "L-8620",
      "country_code": "LU",
      "latitude": 49.7918,
      "longitude": 5.9754,
      "admin_name1": "Redange"
    },
    {
      "place_name": "Assel",
      "postal_code": "L-5402",
      "country_code": "LU",
      "latitude": 49.5554,
      "longitude": 6.3147,
      "admin_name1": "Remich"
    },
    {
      "place_name": "Fouhren",
      "postal_code": "L-9454",
      "country_code": "LU",
      "latitude": 49.9124,
      "longitude": 6.1968,
      "admin_name1": "Vianden"
    },
    {
      "place_name": "Winseler",
      "postal_code": "L-9696",
      "country_code": "LU",
      "latitude": 49.9674,
      "longitude": 5.889,
      "admin_name1": "Wiltz"
    },
    {
      "place_name": "Simmerfarm",
      "postal_code": "L-8363",
      "country_code": "LU",
      "latitude": 49.6962,
      "longitude": 5.9872,
      "admin_name1": "Capellen"
    },
    {
      "place_name": "Medingen",
      "postal_code": "L-5328",
      "country_code": "LU",
      "latitude": 49.5755,
      "longitude": 6.2481,
      "admin_name1": "Luxembourg"
    },
    {
      "place_name": "Roedt",
      "postal_code": "L-5442",
      "country_code": "LU",
      "latitude": 49.5699,
      "longitude": 6.2842,
      "admin_name1": "Remich"
    },
    {
      "place_name": "Nocher-Route",
      "postal_code": "L-9674",
      "country_code": "LU",
      "latitude": 49.9473,
      "longitude": 5.9632,
      "admin_name1": "Wiltz"
    },
    {
      "place_name": "Weidendall",
      "postal_code": "L-8199",
      "country_code": "LU",
      "latitude": 49.6572,
      "longitude": 6.0674,
      "admin_name1": "Capellen"
    },
    {
      "place_name": "Roodt/Eisch",
      "postal_code": "L-8398",
      "country_code": "LU",
      "latitude": 49.693,
      "longitude": 6.0006,
      "admin_name1": "Capellen"
    },
    {
      "place_name": "Breidfeld",
      "postal_code": "L-9950",
      "country_code": "LU",
      "latitude": 50.1232,
      "longitude": 6.0621,
      "admin_name1": "Clervaux"
    },
    {
      "place_name": "Dorscheid",
      "postal_code": "L-9833",
      "country_code": "LU",
      "latitude": 50.0371,
      "longitude": 6.0735,
      "admin_name1": "Clervaux"
    },
    {
      "place_name": "Holzthum",
      "postal_code": "L-9834",
      "country_code": "LU",
      "latitude": 49.9859,
      "longitude": 6.0745,
      "admin_name1": "Clervaux"
    },
    {
      "place_name": "Birtrange",
      "postal_code": "L-7758",
      "country_code": "LU",
      "latitude": 49.8253,
      "longitude": 6.0913,
      "admin_name1": "Diekirch"
    },
    {
      "place_name": "Pettingen",
      "postal_code": "L-7463",
      "country_code": "LU",
      "latitude": 49.7697,
      "longitude": 6.1075,
      "admin_name1": "Mersch"
    },
    {
      "place_name": "Flatzbour",
      "postal_code": "L-8812",
      "country_code": "LU",
      "latitude": 49.8356,
      "longitude": 5.7876,
      "admin_name1": "Redange"
    },
    {
      "place_name": "Rindschleiden",
      "postal_code": "L-8831",
      "country_code": "LU",
      "latitude": 49.8495,
      "longitude": 5.9,
      "admin_name1": "Redange"
    },
    {
      "place_name": "Insenborn",
      "postal_code": "L-9660",
      "country_code": "LU",
      "latitude": 49.9003,
      "longitude": 5.8817,
      "admin_name1": "Wiltz"
    },
    {
      "place_name": "Dirbach (Goesdorf)",
      "postal_code": "L-9153",
      "country_code": "LU",
      "latitude": 49.9205,
      "longitude": 6.0349,
      "admin_name1": "Wiltz"
    },
    {
      "place_name": "Wirtgensmühle",
      "postal_code": "L-9765",
      "country_code": "LU",
      "latitude": 50.0335,
      "longitude": 6.0088,
      "admin_name1": "Clervaux"
    },
    {
      "place_name": "Eppeldorf",
      "postal_code": "L-9365",
      "country_code": "LU",
      "latitude": 49.8448,
      "longitude": 6.2481,
      "admin_name1": "Diekirch"
    },
    {
      "place_name": "Mompach",
      "postal_code": "L-6695",
      "country_code": "LU",
      "latitude": 49.7517,
      "longitude": 6.4637,
      "admin_name1": "Echternach"
    },
    {
      "place_name": "Abweiler",
      "postal_code": "L-3311",
      "country_code": "LU",
      "latitude": 49.5335,
      "longitude": 6.0783,
      "admin_name1": "Esch-sur-Alzette"
    },
    {
      "place_name": "Livange",
      "postal_code": "L-3378",
      "country_code": "LU",
      "latitude": 49.5297,
      "longitude": 6.1192,
      "admin_name1": "Esch-sur-Alzette"
    },
    {
      "place_name": "Wormeldange-Haut",
      "postal_code": "L-5485",
      "country_code": "LU",
      "latitude": 49.6107,
      "longitude": 6.3989,
      "admin_name1": "Grevenmacher"
    },
    {
      "place_name": "Putscheid",
      "postal_code": "L-9462",
      "country_code": "LU",
      "latitude": 49.9586,
      "longitude": 6.1385,
      "admin_name1": "Vianden"
    },
    {
      "place_name": "Neunhausen",
      "postal_code": "L-9671",
      "country_code": "LU",
      "latitude": 49.8763,
      "longitude": 5.8844,
      "admin_name1": "Wiltz"
    },
    {
      "place_name": "Watrange",
      "postal_code": "L-9690",
      "country_code": "LU",
      "latitude": 49.9447,
      "longitude": 5.787,
      "admin_name1": "Wiltz"
    },
    {
      "place_name": "Dondelange",
      "postal_code": "L-7423",
      "country_code": "LU",
      "latitude": 49.6893,
      "longitude": 6.0308,
      "admin_name1": "Capellen"
    },
    {
      "place_name": "Marscherwald",
      "postal_code": "L-6239",
      "country_code": "LU",
      "latitude": 49.7631,
      "longitude": 6.2843,
      "admin_name1": "Echternach"
    },
    {
      "place_name": "Openthalt",
      "postal_code": "L-7425",
      "country_code": "LU",
      "latitude": 49.7522,
      "longitude": 6.0357,
      "admin_name1": "Mersch"
    },
    {
      "place_name": "Hollenfels",
      "postal_code": "L-7435",
      "country_code": "LU",
      "latitude": 49.7132,
      "longitude": 6.0487,
      "admin_name1": "Mersch"
    },
    {
      "place_name": "Kleemühle",
      "postal_code": "L-9968",
      "country_code": "LU",
      "latitude": 50.1069,
      "longitude": 6.0427,
      "admin_name1": "Clervaux"
    },
    {
      "place_name": "Welscheid",
      "postal_code": "L-9191",
      "country_code": "LU",
      "latitude": 49.8863,
      "longitude": 6.0649,
      "admin_name1": "Diekirch"
    },
    {
      "place_name": "Dickweiler",
      "postal_code": "L-6557",
      "country_code": "LU",
      "latitude": 49.7842,
      "longitude": 6.4707,
      "admin_name1": "Echternach"
    },
    {
      "place_name": "Bilsdorf",
      "postal_code": "L-8811",
      "country_code": "LU",
      "latitude": 49.8566,
      "longitude": 5.8243,
      "admin_name1": "Redange"
    },
    {
      "place_name": "Lultzhausen",
      "postal_code": "L-9666",
      "country_code": "LU",
      "latitude": 49.9089,
      "longitude": 5.8903,
      "admin_name1": "Wiltz"
    },
    {
      "place_name": "Lellingen",
      "postal_code": "L-9760",
      "country_code": "LU",
      "latitude": 49.9848,
      "longitude": 6.0113,
      "admin_name1": "Wiltz"
    },
    {
      "place_name": "Basbellain",
      "postal_code": "L-9942",
      "country_code": "LU",
      "latitude": 50.1439,
      "longitude": 5.9833,
      "admin_name1": "Clervaux"
    },
    {
      "place_name": "Wilwerdange",
      "postal_code": "L-9980",
      "country_code": "LU",
      "latitude": 50.1403,
      "longitude": 6.0222,
      "admin_name1": "Clervaux"
    },
    {
      "place_name": "Hoesdorf",
      "postal_code": "L-9456",
      "country_code": "LU",
      "latitude": 49.8834,
      "longitude": 6.2555,
      "admin_name1": "Diekirch"
    },
    {
      "place_name": "Colmar-Pont",
      "postal_code": "L-7738",
      "country_code": "LU",
      "latitude": 49.8156,
      "longitude": 6.1014,
      "admin_name1": "Diekirch"
    },
    {
      "place_name": "Geyershof",
      "postal_code": "L-6251",
      "country_code": "LU",
      "latitude": 49.7665,
      "longitude": 6.3864,
      "admin_name1": "Echternach"
    },
    {
      "place_name": "Hinkel",
      "postal_code": "L-6560",
      "country_code": "LU",
      "latitude": 49.7835,
      "longitude": 6.5138,
      "admin_name1": "Echternach"
    },
    {
      "place_name": "Limpach",
      "postal_code": "L-4499",
      "country_code": "LU",
      "latitude": 49.5583,
      "longitude": 5.9793,
      "admin_name1": "Esch-sur-Alzette"
    },
    {
      "place_name": "Koedange",
      "postal_code": "L-6155",
      "country_code": "LU",
      "latitude": 49.7348,
      "longitude": 6.2085,
      "admin_name1": "Mersch"
    },
    {
      "place_name": "Gosseldange",
      "postal_code": "L-7432",
      "country_code": "LU",
      "latitude": 49.7246,
      "longitude": 6.1152,
      "admin_name1": "Mersch"
    },
    {
      "place_name": "Roodt (Ell)",
      "postal_code": "L-8560",
      "country_code": "LU",
      "latitude": 49.7954,
      "longitude": 5.8211,
      "admin_name1": "Redange"
    },
    {
      "place_name": "Holtz",
      "postal_code": "L-8820",
      "country_code": "LU",
      "latitude": 49.8065,
      "longitude": 5.7924,
      "admin_name1": "Redange"
    },
    {
      "place_name": "Calmus",
      "postal_code": "L-8525",
      "country_code": "LU",
      "latitude": 49.7251,
      "longitude": 5.9629,
      "admin_name1": "Redange"
    },
    {
      "place_name": "Surré",
      "postal_code": "L-9687",
      "country_code": "LU",
      "latitude": 49.9022,
      "longitude": 5.7782,
      "admin_name1": "Wiltz"
    },
    {
      "place_name": "Kaundorf",
      "postal_code": "L-9662",
      "country_code": "LU",
      "latitude": 49.9211,
      "longitude": 5.9018,
      "admin_name1": "Wiltz"
    }
  ]
]