[
  [
    {
      "place_name": "Černova",
      "postal_code": "LV-4584",
      "country_code": "LV",
      "latitude": 57.2933,
      "longitude": 27.7457,
      "admin_name1": "Balvu nov."
    },
    {
      "place_name": "Surikova",
      "postal_code": "LV-4594",
      "country_code": "LV",
      "latitude": 56.9292,
      "longitude": 27.5716,
      "admin_name1": "Balvu nov."
    },
    {
      "place_name": "Kožurki",
      "postal_code": "LV-4594",
      "country_code": "LV",
      "latitude": 56.922,
      "longitude": 27.5053,
      "admin_name1": "Balvu nov."
    },
    {
      "place_name": "Sviļpova",
      "postal_code": "LV-4594",
      "country_code": "LV",
      "latitude": 56.991,
      "longitude": 27.6756,
      "admin_name1": "Balvu nov."
    },
    {
      "place_name": "Dokti",
      "postal_code": "LV-4594",
      "country_code": "LV",
      "latitude": 57.4103,
      "longitude": 27.4411,
      "admin_name1": "Balvu nov."
    },
    {
      "place_name": "Brunava",
      "postal_code": "LV-3907",
      "country_code": "LV",
      "latitude": 56.3564,
      "longitude": 24.3876,
      "admin_name1": "Bauskas nov."
    },
    {
      "place_name": "Jauncode",
      "postal_code": "LV-3901",
      "country_code": "LV",
      "latitude": 56.4004,
      "longitude": 24.151,
      "admin_name1": "Bauskas nov."
    },
    {
      "place_name": "Strēlnieki",
      "postal_code": "LV-3926",
      "country_code": "LV",
      "latitude": 56.5024,
      "longitude": 24.083,
      "admin_name1": "Bauskas nov."
    },
    {
      "place_name": "Stelpe",
      "postal_code": "LV-3925",
      "country_code": "LV",
      "latitude": 56.5379,
      "longitude": 24.5275,
      "admin_name1": "Bauskas nov."
    },
    {
      "place_name": "Veselava",
      "postal_code": "LV-4116",
      "country_code": "LV",
      "latitude": 57.2802,
      "longitude": 25.4955,
      "admin_name1": "Cēsu nov."
    },
    {
      "place_name": "Daibe",
      "postal_code": "LV-4151",
      "country_code": "LV",
      "latitude": 57.4537,
      "longitude": 25.0768,
      "admin_name1": "Cēsu nov."
    },
    {
      "place_name": "Letes",
      "postal_code": "LV-4409",
      "country_code": "LV",
      "latitude": 57.3017,
      "longitude": 26.8496,
      "admin_name1": "Gulbenes nov."
    },
    {
      "place_name": "Vilce",
      "postal_code": "LV-3026",
      "country_code": "LV",
      "latitude": 56.4203,
      "longitude": 23.5478,
      "admin_name1": "Jelgavas nov."
    },
    {
      "place_name": "Brankas",
      "postal_code": "LV-3018",
      "country_code": "LV",
      "latitude": 56.6818,
      "longitude": 23.842,
      "admin_name1": "Jelgavas nov."
    },
    {
      "place_name": "Renceles",
      "postal_code": "LV-3045",
      "country_code": "LV",
      "latitude": 56.5277,
      "longitude": 24.0347,
      "admin_name1": "Jelgavas nov."
    },
    {
      "place_name": "Butkunova",
      "postal_code": "LV-5664",
      "country_code": "LV",
      "latitude": 55.8582,
      "longitude": 27.5156,
      "admin_name1": "Krāslavas nov."
    },
    {
      "place_name": "Stacija Silava",
      "postal_code": "LV-5652",
      "country_code": "LV",
      "latitude": 55.9731,
      "longitude": 27.0587,
      "admin_name1": "Krāslavas nov."
    },
    {
      "place_name": "Mazie Stivriņi",
      "postal_code": "LV-5652",
      "country_code": "LV",
      "latitude": 55.9731,
      "longitude": 27.0587,
      "admin_name1": "Krāslavas nov."
    },
    {
      "place_name": "Dauguļi",
      "postal_code": "LV-5660",
      "country_code": "LV",
      "latitude": 55.8785,
      "longitude": 27.3641,
      "admin_name1": "Krāslavas nov."
    },
    {
      "place_name": "Loņki",
      "postal_code": "LV-5660",
      "country_code": "LV",
      "latitude": 55.8815,
      "longitude": 27.3542,
      "admin_name1": "Krāslavas nov."
    },
    {
      "place_name": "Saulkrasti",
      "postal_code": "LV-5668",
      "country_code": "LV",
      "latitude": 55.8444,
      "longitude": 27.1012,
      "admin_name1": "Krāslavas nov."
    },
    {
      "place_name": "Matulišķi",
      "postal_code": "LV-5668",
      "country_code": "LV",
      "latitude": 55.831,
      "longitude": 27.0317,
      "admin_name1": "Krāslavas nov."
    },
    {
      "place_name": "Romuļi",
      "postal_code": "LV-5656",
      "country_code": "LV",
      "latitude": 55.9841,
      "longitude": 27.1513,
      "admin_name1": "Krāslavas nov."
    },
    {
      "place_name": "Voronkas",
      "postal_code": "LV-5656",
      "country_code": "LV",
      "latitude": 55.974,
      "longitude": 27.2312,
      "admin_name1": "Krāslavas nov."
    },
    {
      "place_name": "Patarnieki",
      "postal_code": "LV-5662",
      "country_code": "LV",
      "latitude": 55.8185,
      "longitude": 27.4789,
      "admin_name1": "Krāslavas nov."
    },
    {
      "place_name": "Puzi",
      "postal_code": "LV-5671",
      "country_code": "LV",
      "latitude": 55.9752,
      "longitude": 27.3883,
      "admin_name1": "Krāslavas nov."
    },
    {
      "place_name": "Kališkas",
      "postal_code": "LV-5671",
      "country_code": "LV",
      "latitude": 55.9752,
      "longitude": 27.3883,
      "admin_name1": "Krāslavas nov."
    },
    {
      "place_name": "Bancāni",
      "postal_code": "LV-5601",
      "country_code": "LV",
      "latitude": 55.9274,
      "longitude": 27.1967,
      "admin_name1": "Krāslavas nov."
    },
    {
      "place_name": "Lemešovka",
      "postal_code": "LV-5601",
      "country_code": "LV",
      "latitude": 55.9274,
      "longitude": 27.1967,
      "admin_name1": "Krāslavas nov."
    },
    {
      "place_name": "Malka",
      "postal_code": "LV-5687",
      "country_code": "LV",
      "latitude": 56.1347,
      "longitude": 27.3673,
      "admin_name1": "Krāslavas nov."
    },
    {
      "place_name": "Mivrinieki",
      "postal_code": "LV-5687",
      "country_code": "LV",
      "latitude": 56.1347,
      "longitude": 27.3673,
      "admin_name1": "Krāslavas nov."
    },
    {
      "place_name": "Birža",
      "postal_code": "LV-5687",
      "country_code": "LV",
      "latitude": 56.1347,
      "longitude": 27.3673,
      "admin_name1": "Krāslavas nov."
    },
    {
      "place_name": "Rokoli",
      "postal_code": "LV-5696",
      "country_code": "LV",
      "latitude": 56.1888,
      "longitude": 27.5124,
      "admin_name1": "Krāslavas nov."
    },
    {
      "place_name": "Pļupova",
      "postal_code": "LV-5676",
      "country_code": "LV",
      "latitude": 56.0238,
      "longitude": 27.5907,
      "admin_name1": "Krāslavas nov."
    },
    {
      "place_name": "Zeļļi",
      "postal_code": "LV-5674",
      "country_code": "LV",
      "latitude": 56.0575,
      "longitude": 27.5298,
      "admin_name1": "Krāslavas nov."
    },
    {
      "place_name": "Niperi",
      "postal_code": "LV-5692",
      "country_code": "LV",
      "latitude": 56.1339,
      "longitude": 27.6348,
      "admin_name1": "Krāslavas nov."
    },
    {
      "place_name": "Ojatnieki",
      "postal_code": "LV-5680",
      "country_code": "LV",
      "latitude": 56.0731,
      "longitude": 27.4096,
      "admin_name1": "Krāslavas nov."
    },
    {
      "place_name": "Neikšāni",
      "postal_code": "LV-5677",
      "country_code": "LV",
      "latitude": 56.0328,
      "longitude": 27.7489,
      "admin_name1": "Krāslavas nov."
    },
    {
      "place_name": "Bunčeva",
      "postal_code": "LV-5698",
      "country_code": "LV",
      "latitude": 56.0864,
      "longitude": 27.7062,
      "admin_name1": "Krāslavas nov."
    },
    {
      "place_name": "Dobročina",
      "postal_code": "LV-5698",
      "country_code": "LV",
      "latitude": 56.0864,
      "longitude": 27.7062,
      "admin_name1": "Krāslavas nov."
    },
    {
      "place_name": "Šļahotova",
      "postal_code": "LV-5698",
      "country_code": "LV",
      "latitude": 56.0864,
      "longitude": 27.7062,
      "admin_name1": "Krāslavas nov."
    },
    {
      "place_name": "Pušča",
      "postal_code": "LV-5698",
      "country_code": "LV",
      "latitude": 56.1328,
      "longitude": 27.7873,
      "admin_name1": "Krāslavas nov."
    },
    {
      "place_name": "Čivčiši",
      "postal_code": "LV-5695",
      "country_code": "LV",
      "latitude": 56.1644,
      "longitude": 27.9091,
      "admin_name1": "Krāslavas nov."
    },
    {
      "place_name": "Krasnopole",
      "postal_code": "LV-5695",
      "country_code": "LV",
      "latitude": 56.1644,
      "longitude": 27.9091,
      "admin_name1": "Krāslavas nov."
    },
    {
      "place_name": "Keramika",
      "postal_code": "LV-3321",
      "country_code": "LV",
      "latitude": 57.0137,
      "longitude": 21.8836,
      "admin_name1": "Kuldīgas nov."
    },
    {
      "place_name": "Vārzas",
      "postal_code": "LV-4025",
      "country_code": "LV",
      "latitude": 57.3831,
      "longitude": 24.4023,
      "admin_name1": "Limbažu nov."
    },
    {
      "place_name": "Āstere",
      "postal_code": "LV-4052",
      "country_code": "LV",
      "latitude": 57.6144,
      "longitude": 24.7359,
      "admin_name1": "Limbažu nov."
    },
    {
      "place_name": "Dinaburski",
      "postal_code": "LV-5707",
      "country_code": "LV",
      "latitude": 56.4372,
      "longitude": 28.056,
      "admin_name1": "Ludzas nov."
    },
    {
      "place_name": "Rimši",
      "postal_code": "LV-5707",
      "country_code": "LV",
      "latitude": 56.4372,
      "longitude": 28.056,
      "admin_name1": "Ludzas nov."
    },
    {
      "place_name": "Cereļeva",
      "postal_code": "LV-5735",
      "country_code": "LV",
      "latitude": 56.5148,
      "longitude": 27.5423,
      "admin_name1": "Ludzas nov."
    },
    {
      "place_name": "Meļaški",
      "postal_code": "LV-5701",
      "country_code": "LV",
      "latitude": 56.5122,
      "longitude": 27.7266,
      "admin_name1": "Ludzas nov."
    },
    {
      "place_name": "Ilza",
      "postal_code": "LV-5711",
      "country_code": "LV",
      "latitude": 56.2435,
      "longitude": 28.0747,
      "admin_name1": "Ludzas nov."
    },
    {
      "place_name": "Rakova",
      "postal_code": "LV-5711",
      "country_code": "LV",
      "latitude": 56.2386,
      "longitude": 28.0987,
      "admin_name1": "Ludzas nov."
    },
    {
      "place_name": "Kušneri",
      "postal_code": "LV-5736",
      "country_code": "LV",
      "latitude": 56.3745,
      "longitude": 27.8999,
      "admin_name1": "Ludzas nov."
    },
    {
      "place_name": "Inkini",
      "postal_code": "LV-5730",
      "country_code": "LV",
      "latitude": 56.4524,
      "longitude": 27.7578,
      "admin_name1": "Ludzas nov."
    },
    {
      "place_name": "Rūdova",
      "postal_code": "LV-5733",
      "country_code": "LV",
      "latitude": 56.3698,
      "longitude": 27.7726,
      "admin_name1": "Ludzas nov."
    },
    {
      "place_name": "Sprikutova",
      "postal_code": "LV-5733",
      "country_code": "LV",
      "latitude": 56.3698,
      "longitude": 27.7726,
      "admin_name1": "Ludzas nov."
    },
    {
      "place_name": "Uskačova",
      "postal_code": "LV-5733",
      "country_code": "LV",
      "latitude": 56.3698,
      "longitude": 27.7726,
      "admin_name1": "Ludzas nov."
    },
    {
      "place_name": "Germi",
      "postal_code": "LV-5733",
      "country_code": "LV",
      "latitude": 56.3698,
      "longitude": 27.7726,
      "admin_name1": "Ludzas nov."
    },
    {
      "place_name": "Čipoti",
      "postal_code": "LV-5745",
      "country_code": "LV",
      "latitude": 56.4642,
      "longitude": 27.6284,
      "admin_name1": "Ludzas nov."
    },
    {
      "place_name": "Stoponi",
      "postal_code": "LV-5745",
      "country_code": "LV",
      "latitude": 56.4645,
      "longitude": 27.5797,
      "admin_name1": "Ludzas nov."
    },
    {
      "place_name": "Rubuļi",
      "postal_code": "LV-5745",
      "country_code": "LV",
      "latitude": 56.4642,
      "longitude": 27.6284,
      "admin_name1": "Ludzas nov."
    },
    {
      "place_name": "Paideri",
      "postal_code": "LV-5745",
      "country_code": "LV",
      "latitude": 56.4642,
      "longitude": 27.6284,
      "admin_name1": "Ludzas nov."
    },
    {
      "place_name": "Opši",
      "postal_code": "LV-5736",
      "country_code": "LV",
      "latitude": 56.3572,
      "longitude": 27.8769,
      "admin_name1": "Ludzas nov."
    },
    {
      "place_name": "Rundēni",
      "postal_code": "LV-5739",
      "country_code": "LV",
      "latitude": 56.2771,
      "longitude": 27.8236,
      "admin_name1": "Ludzas nov."
    },
    {
      "place_name": "Jašmenišče",
      "postal_code": "LV-5739",
      "country_code": "LV",
      "latitude": 56.2544,
      "longitude": 27.7651,
      "admin_name1": "Ludzas nov."
    },
    {
      "place_name": "Tartaks",
      "postal_code": "LV-5739",
      "country_code": "LV",
      "latitude": 56.2544,
      "longitude": 27.7651,
      "admin_name1": "Ludzas nov."
    },
    {
      "place_name": "Ostrova",
      "postal_code": "LV-5739",
      "country_code": "LV",
      "latitude": 56.2544,
      "longitude": 27.7651,
      "admin_name1": "Ludzas nov."
    },
    {
      "place_name": "Nesteri",
      "postal_code": "LV-5717",
      "country_code": "LV",
      "latitude": 56.8301,
      "longitude": 27.775,
      "admin_name1": "Ludzas nov."
    },
    {
      "place_name": "Livzinīki",
      "postal_code": "LV-5717",
      "country_code": "LV",
      "latitude": 56.8295,
      "longitude": 27.7867,
      "admin_name1": "Ludzas nov."
    },
    {
      "place_name": "Tronova",
      "postal_code": "LV-5717",
      "country_code": "LV",
      "latitude": 56.8007,
      "longitude": 27.7363,
      "admin_name1": "Ludzas nov."
    },
    {
      "place_name": "Mežmala",
      "postal_code": "LV-5725",
      "country_code": "LV",
      "latitude": 56.6684,
      "longitude": 27.5243,
      "admin_name1": "Ludzas nov."
    },
    {
      "place_name": "Suņevīši",
      "postal_code": "LV-5737",
      "country_code": "LV",
      "latitude": 56.7211,
      "longitude": 27.566,
      "admin_name1": "Ludzas nov."
    },
    {
      "place_name": "Šalaji",
      "postal_code": "LV-5726",
      "country_code": "LV",
      "latitude": 56.6894,
      "longitude": 27.7684,
      "admin_name1": "Ludzas nov."
    },
    {
      "place_name": "Kūkova",
      "postal_code": "LV-5740",
      "country_code": "LV",
      "latitude": 56.8138,
      "longitude": 27.5119,
      "admin_name1": "Ludzas nov."
    },
    {
      "place_name": "Iļjonki",
      "postal_code": "LV-5722",
      "country_code": "LV",
      "latitude": 56.3202,
      "longitude": 27.9731,
      "admin_name1": "Ludzas nov."
    },
    {
      "place_name": "Iļjusi",
      "postal_code": "LV-5722",
      "country_code": "LV",
      "latitude": 56.3202,
      "longitude": 27.9731,
      "admin_name1": "Ludzas nov."
    },
    {
      "place_name": "Bondari",
      "postal_code": "LV-5705",
      "country_code": "LV",
      "latitude": 56.3105,
      "longitude": 28.0788,
      "admin_name1": "Ludzas nov."
    },
    {
      "place_name": "Terehova",
      "postal_code": "LV-5751",
      "country_code": "LV",
      "latitude": 56.3767,
      "longitude": 28.1129,
      "admin_name1": "Ludzas nov."
    },
    {
      "place_name": "Felicianova",
      "postal_code": "LV-5709",
      "country_code": "LV",
      "latitude": 56.5358,
      "longitude": 27.868,
      "admin_name1": "Ludzas nov."
    },
    {
      "place_name": "Mjaiši",
      "postal_code": "LV-5716",
      "country_code": "LV",
      "latitude": 56.5221,
      "longitude": 27.9392,
      "admin_name1": "Ludzas nov."
    },
    {
      "place_name": "Dolgošeji",
      "postal_code": "LV-5719",
      "country_code": "LV",
      "latitude": 56.5687,
      "longitude": 28.0034,
      "admin_name1": "Ludzas nov."
    },
    {
      "place_name": "Joski",
      "postal_code": "LV-5719",
      "country_code": "LV",
      "latitude": 56.5687,
      "longitude": 28.0034,
      "admin_name1": "Ludzas nov."
    },
    {
      "place_name": "Avīši",
      "postal_code": "LV-5742",
      "country_code": "LV",
      "latitude": 56.6527,
      "longitude": 27.7612,
      "admin_name1": "Ludzas nov."
    },
    {
      "place_name": "Potaši",
      "postal_code": "LV-5742",
      "country_code": "LV",
      "latitude": 56.6439,
      "longitude": 27.721,
      "admin_name1": "Ludzas nov."
    },
    {
      "place_name": "Rudzeiši",
      "postal_code": "LV-5752",
      "country_code": "LV",
      "latitude": 56.5837,
      "longitude": 27.7197,
      "admin_name1": "Ludzas nov."
    },
    {
      "place_name": "Lauči",
      "postal_code": "LV-5752",
      "country_code": "LV",
      "latitude": 56.5943,
      "longitude": 27.6038,
      "admin_name1": "Ludzas nov."
    },
    {
      "place_name": "Zitiški",
      "postal_code": "LV-5752",
      "country_code": "LV",
      "latitude": 56.5837,
      "longitude": 27.7197,
      "admin_name1": "Ludzas nov."
    },
    {
      "place_name": "Kristužāni",
      "postal_code": "LV-5752",
      "country_code": "LV",
      "latitude": 56.5837,
      "longitude": 27.7197,
      "admin_name1": "Ludzas nov."
    },
    {
      "place_name": "Bērzaune",
      "postal_code": "LV-4853",
      "country_code": "LV",
      "latitude": 56.8087,
      "longitude": 26.0314,
      "admin_name1": "Madonas nov."
    },
    {
      "place_name": "Salas",
      "postal_code": "LV-4865",
      "country_code": "LV",
      "latitude": 56.679,
      "longitude": 26.2975,
      "admin_name1": "Madonas nov."
    },
    {
      "place_name": "Ciemupe",
      "postal_code": "LV-5041",
      "country_code": "LV",
      "latitude": 56.8072,
      "longitude": 24.7388,
      "admin_name1": "Ogres nov."
    },
    {
      "place_name": "Glāznieki",
      "postal_code": "LV-5060",
      "country_code": "LV",
      "latitude": 56.9016,
      "longitude": 24.872,
      "admin_name1": "Ogres nov."
    },
    {
      "place_name": "Gorodoka",
      "postal_code": "LV-5304",
      "country_code": "LV",
      "latitude": 56.1201,
      "longitude": 27.0266,
      "admin_name1": "Preiļu nov."
    },
    {
      "place_name": "Lielie Bernāni",
      "postal_code": "LV-5304",
      "country_code": "LV",
      "latitude": 56.1201,
      "longitude": 27.0266,
      "admin_name1": "Preiļu nov."
    },
    {
      "place_name": "Repši",
      "postal_code": "LV-5304",
      "country_code": "LV",
      "latitude": 56.101,
      "longitude": 27.0525,
      "admin_name1": "Preiļu nov."
    },
    {
      "place_name": "Smani",
      "postal_code": "LV-5304",
      "country_code": "LV",
      "latitude": 56.1201,
      "longitude": 27.0266,
      "admin_name1": "Preiļu nov."
    },
    {
      "place_name": "Dunski",
      "postal_code": "LV-5685",
      "country_code": "LV",
      "latitude": 56.1853,
      "longitude": 27.1359,
      "admin_name1": "Preiļu nov."
    },
    {
      "place_name": "Barovka",
      "postal_code": "LV-5685",
      "country_code": "LV",
      "latitude": 56.1621,
      "longitude": 27.1793,
      "admin_name1": "Preiļu nov."
    },
    {
      "place_name": "Brīveri",
      "postal_code": "LV-5653",
      "country_code": "LV",
      "latitude": 56.0806,
      "longitude": 27.0547,
      "admin_name1": "Preiļu nov."
    },
    {
      "place_name": "Otrie Garkalni",
      "postal_code": "LV-5305",
      "country_code": "LV",
      "latitude": 56.2123,
      "longitude": 26.7022,
      "admin_name1": "Preiļu nov."
    },
    {
      "place_name": "Kalna Druva",
      "postal_code": "LV-5329",
      "country_code": "LV",
      "latitude": 56.2123,
      "longitude": 26.8597,
      "admin_name1": "Preiļu nov."
    },
    {
      "place_name": "Dzeņkalns",
      "postal_code": "LV-5301",
      "country_code": "LV",
      "latitude": 56.3274,
      "longitude": 26.6773,
      "admin_name1": "Preiļu nov."
    },
    {
      "place_name": "Beči",
      "postal_code": "LV-5301",
      "country_code": "LV",
      "latitude": 56.3274,
      "longitude": 26.6773,
      "admin_name1": "Preiļu nov."
    },
    {
      "place_name": "Litavnieki",
      "postal_code": "LV-5301",
      "country_code": "LV",
      "latitude": 56.2808,
      "longitude": 26.7456,
      "admin_name1": "Preiļu nov."
    },
    {
      "place_name": "Akmeņu Mūrnieki",
      "postal_code": "LV-5301",
      "country_code": "LV",
      "latitude": 56.3274,
      "longitude": 26.6773,
      "admin_name1": "Preiļu nov."
    },
    {
      "place_name": "Viktorovka",
      "postal_code": "LV-5326",
      "country_code": "LV",
      "latitude": 56.3721,
      "longitude": 26.7425,
      "admin_name1": "Preiļu nov."
    },
    {
      "place_name": "Reinieki",
      "postal_code": "LV-5326",
      "country_code": "LV",
      "latitude": 56.3526,
      "longitude": 26.8113,
      "admin_name1": "Preiļu nov."
    },
    {
      "place_name": "Otrā Kauša",
      "postal_code": "LV-5326",
      "country_code": "LV",
      "latitude": 56.3721,
      "longitude": 26.7425,
      "admin_name1": "Preiļu nov."
    },
    {
      "place_name": "Kazīši",
      "postal_code": "LV-5326",
      "country_code": "LV",
      "latitude": 56.3721,
      "longitude": 26.7425,
      "admin_name1": "Preiļu nov."
    },
    {
      "place_name": "Ušpeļi",
      "postal_code": "LV-5330",
      "country_code": "LV",
      "latitude": 56.3231,
      "longitude": 26.9822,
      "admin_name1": "Preiļu nov."
    },
    {
      "place_name": "Kotļarova",
      "postal_code": "LV-5330",
      "country_code": "LV",
      "latitude": 56.3513,
      "longitude": 26.92,
      "admin_name1": "Preiļu nov."
    },
    {
      "place_name": "Opolie",
      "postal_code": "LV-5331",
      "country_code": "LV",
      "latitude": 56.5276,
      "longitude": 26.7387,
      "admin_name1": "Preiļu nov."
    },
    {
      "place_name": "Ūgaiņi-Puduļi",
      "postal_code": "LV-5333",
      "country_code": "LV",
      "latitude": 56.4756,
      "longitude": 26.6981,
      "admin_name1": "Preiļu nov."
    },
    {
      "place_name": "Meža Trūpi",
      "postal_code": "LV-5333",
      "country_code": "LV",
      "latitude": 56.4756,
      "longitude": 26.6981,
      "admin_name1": "Preiļu nov."
    },
    {
      "place_name": "Grozas",
      "postal_code": "LV-5333",
      "country_code": "LV",
      "latitude": 56.4756,
      "longitude": 26.6981,
      "admin_name1": "Preiļu nov."
    },
    {
      "place_name": "Brokovski",
      "postal_code": "LV-5335",
      "country_code": "LV",
      "latitude": 56.1837,
      "longitude": 26.5844,
      "admin_name1": "Preiļu nov."
    },
    {
      "place_name": "Mazie Klapari",
      "postal_code": "LV-5337",
      "country_code": "LV",
      "latitude": 56.2643,
      "longitude": 26.5944,
      "admin_name1": "Preiļu nov."
    },
    {
      "place_name": "Miurinīki",
      "postal_code": "LV-4611",
      "country_code": "LV",
      "latitude": 56.6107,
      "longitude": 27.1994,
      "admin_name1": "Rēzeknes nov."
    },
    {
      "place_name": "Melnais Dukstigals",
      "postal_code": "LV-4617",
      "country_code": "LV",
      "latitude": 56.3545,
      "longitude": 27.4206,
      "admin_name1": "Rēzeknes nov."
    },
    {
      "place_name": "Mežāri",
      "postal_code": "LV-4617",
      "country_code": "LV",
      "latitude": 56.4105,
      "longitude": 27.386,
      "admin_name1": "Rēzeknes nov."
    },
    {
      "place_name": "Čirkas",
      "postal_code": "LV-4615",
      "country_code": "LV",
      "latitude": 56.6485,
      "longitude": 27.2254,
      "admin_name1": "Rēzeknes nov."
    },
    {
      "place_name": "Gorbačovka",
      "postal_code": "LV-4623",
      "country_code": "LV",
      "latitude": 56.2931,
      "longitude": 27.0732,
      "admin_name1": "Rēzeknes nov."
    },
    {
      "place_name": "Černoste",
      "postal_code": "LV-4623",
      "country_code": "LV",
      "latitude": 56.273,
      "longitude": 27.0512,
      "admin_name1": "Rēzeknes nov."
    },
    {
      "place_name": "Vorslovāni",
      "postal_code": "LV-4623",
      "country_code": "LV",
      "latitude": 56.2931,
      "longitude": 27.0732,
      "admin_name1": "Rēzeknes nov."
    },
    {
      "place_name": "Skrauči",
      "postal_code": "LV-4623",
      "country_code": "LV",
      "latitude": 56.2931,
      "longitude": 27.0732,
      "admin_name1": "Rēzeknes nov."
    },
    {
      "place_name": "Dērvaniene",
      "postal_code": "LV-4618",
      "country_code": "LV",
      "latitude": 56.7285,
      "longitude": 27.0241,
      "admin_name1": "Rēzeknes nov."
    },
    {
      "place_name": "Ladusi",
      "postal_code": "LV-4641",
      "country_code": "LV",
      "latitude": 56.5054,
      "longitude": 27.3854,
      "admin_name1": "Rēzeknes nov."
    },
    {
      "place_name": "Punduri",
      "postal_code": "LV-4641",
      "country_code": "LV",
      "latitude": 56.5054,
      "longitude": 27.3854,
      "admin_name1": "Rēzeknes nov."
    },
    {
      "place_name": "Vipinga",
      "postal_code": "LV-4641",
      "country_code": "LV",
      "latitude": 56.5054,
      "longitude": 27.3854,
      "admin_name1": "Rēzeknes nov."
    },
    {
      "place_name": "Ivoni",
      "postal_code": "LV-4619",
      "country_code": "LV",
      "latitude": 56.6196,
      "longitude": 27.3185,
      "admin_name1": "Rēzeknes nov."
    },
    {
      "place_name": "Zaļūkšņi",
      "postal_code": "LV-4619",
      "country_code": "LV",
      "latitude": 56.6982,
      "longitude": 27.4406,
      "admin_name1": "Rēzeknes nov."
    },
    {
      "place_name": "Piertnīki",
      "postal_code": "LV-4648",
      "country_code": "LV",
      "latitude": 56.5815,
      "longitude": 27.0571,
      "admin_name1": "Rēzeknes nov."
    },
    {
      "place_name": "Černiki",
      "postal_code": "LV-4616",
      "country_code": "LV",
      "latitude": 56.3719,
      "longitude": 27.4283,
      "admin_name1": "Rēzeknes nov."
    },
    {
      "place_name": "Kromoni",
      "postal_code": "LV-4622",
      "country_code": "LV",
      "latitude": 56.3391,
      "longitude": 27.5388,
      "admin_name1": "Rēzeknes nov."
    },
    {
      "place_name": "Ceplīši",
      "postal_code": "LV-4625",
      "country_code": "LV",
      "latitude": 56.5637,
      "longitude": 27.4601,
      "admin_name1": "Rēzeknes nov."
    },
    {
      "place_name": "Liuza",
      "postal_code": "LV-4625",
      "country_code": "LV",
      "latitude": 56.5695,
      "longitude": 27.4976,
      "admin_name1": "Rēzeknes nov."
    },
    {
      "place_name": "Vilkusola",
      "postal_code": "LV-4625",
      "country_code": "LV",
      "latitude": 56.5636,
      "longitude": 27.4732,
      "admin_name1": "Rēzeknes nov."
    },
    {
      "place_name": "Zeltiņi",
      "postal_code": "LV-4625",
      "country_code": "LV",
      "latitude": 56.5695,
      "longitude": 27.4976,
      "admin_name1": "Rēzeknes nov."
    },
    {
      "place_name": "Zosna",
      "postal_code": "LV-4627",
      "country_code": "LV",
      "latitude": 56.3284,
      "longitude": 27.3366,
      "admin_name1": "Rēzeknes nov."
    },
    {
      "place_name": "Novaja",
      "postal_code": "LV-4626",
      "country_code": "LV",
      "latitude": 56.2681,
      "longitude": 27.3837,
      "admin_name1": "Rēzeknes nov."
    },
    {
      "place_name": "Ļodāni",
      "postal_code": "LV-4631",
      "country_code": "LV",
      "latitude": 56.6757,
      "longitude": 26.8789,
      "admin_name1": "Rēzeknes nov."
    },
    {
      "place_name": "Bumbiški",
      "postal_code": "LV-4601",
      "country_code": "LV",
      "latitude": 56.4737,
      "longitude": 27.2774,
      "admin_name1": "Rēzeknes nov."
    },
    {
      "place_name": "Jaunsaimnieki",
      "postal_code": "LV-4633",
      "country_code": "LV",
      "latitude": 56.4883,
      "longitude": 27.2461,
      "admin_name1": "Rēzeknes nov."
    },
    {
      "place_name": "Kirkiliški",
      "postal_code": "LV-4623",
      "country_code": "LV",
      "latitude": 56.2931,
      "longitude": 27.0732,
      "admin_name1": "Rēzeknes nov."
    },
    {
      "place_name": "Mihalki",
      "postal_code": "LV-4648",
      "country_code": "LV",
      "latitude": 56.6014,
      "longitude": 27.0414,
      "admin_name1": "Rēzeknes nov."
    },
    {
      "place_name": "Rasnupļi",
      "postal_code": "LV-4652",
      "country_code": "LV",
      "latitude": 56.714,
      "longitude": 27.3766,
      "admin_name1": "Rēzeknes nov."
    },
    {
      "place_name": "Kapiņi",
      "postal_code": "LV-4652",
      "country_code": "LV",
      "latitude": 56.677,
      "longitude": 27.3449,
      "admin_name1": "Rēzeknes nov."
    },
    {
      "place_name": "Deičmaņi",
      "postal_code": "LV-4638",
      "country_code": "LV",
      "latitude": 56.5252,
      "longitude": 27.1657,
      "admin_name1": "Rēzeknes nov."
    },
    {
      "place_name": "Antonopole",
      "postal_code": "LV-4630",
      "country_code": "LV",
      "latitude": 56.3655,
      "longitude": 27.1431,
      "admin_name1": "Rēzeknes nov."
    },
    {
      "place_name": "Odumāni",
      "postal_code": "LV-4636",
      "country_code": "LV",
      "latitude": 56.4266,
      "longitude": 27.0751,
      "admin_name1": "Rēzeknes nov."
    },
    {
      "place_name": "Zverinci",
      "postal_code": "LV-4642",
      "country_code": "LV",
      "latitude": 56.4257,
      "longitude": 27.4985,
      "admin_name1": "Rēzeknes nov."
    },
    {
      "place_name": "Jurgeļi",
      "postal_code": "LV-4643",
      "country_code": "LV",
      "latitude": 56.7007,
      "longitude": 27.2554,
      "admin_name1": "Rēzeknes nov."
    },
    {
      "place_name": "Meļņova",
      "postal_code": "LV-4604",
      "country_code": "LV",
      "latitude": 56.535,
      "longitude": 27.3765,
      "admin_name1": "Rēzeknes nov."
    },
    {
      "place_name": "Silinīki",
      "postal_code": "LV-4611",
      "country_code": "LV",
      "latitude": 56.5756,
      "longitude": 27.2623,
      "admin_name1": "Rēzeknes nov."
    },
    {
      "place_name": "Pūrmaļi",
      "postal_code": "LV-4647",
      "country_code": "LV",
      "latitude": 56.5916,
      "longitude": 27.4113,
      "admin_name1": "Rēzeknes nov."
    },
    {
      "place_name": "Veremes",
      "postal_code": "LV-4647",
      "country_code": "LV",
      "latitude": 56.5863,
      "longitude": 27.4016,
      "admin_name1": "Rēzeknes nov."
    },
    {
      "place_name": "Puduļi",
      "postal_code": "LV-4614",
      "country_code": "LV",
      "latitude": 56.4986,
      "longitude": 27.029,
      "admin_name1": "Rēzeknes nov."
    },
    {
      "place_name": "Lazdenieki",
      "postal_code": "LV-4628",
      "country_code": "LV",
      "latitude": 56.631,
      "longitude": 26.7989,
      "admin_name1": "Rēzeknes nov."
    },
    {
      "place_name": "Skudnovka",
      "postal_code": "LV-4640",
      "country_code": "LV",
      "latitude": 56.5134,
      "longitude": 26.9998,
      "admin_name1": "Rēzeknes nov."
    },
    {
      "place_name": "Riga",
      "postal_code": "LV-1039",
      "country_code": "LV",
      "latitude": 56.946,
      "longitude": 24.1059,
      "admin_name1": "Riga"
    },
    {
      "place_name": "Jaunlutriņi",
      "postal_code": "LV-3876",
      "country_code": "LV",
      "latitude": 56.8286,
      "longitude": 22.4049,
      "admin_name1": "Saldus nov."
    },
    {
      "place_name": "Sesile",
      "postal_code": "LV-3880",
      "country_code": "LV",
      "latitude": 56.6442,
      "longitude": 22.3882,
      "admin_name1": "Saldus nov."
    },
    {
      "place_name": "Veģi",
      "postal_code": "LV-3294",
      "country_code": "LV",
      "latitude": 57.0869,
      "longitude": 22.472,
      "admin_name1": "Talsu nov."
    },
    {
      "place_name": "Līči",
      "postal_code": "LV-3297",
      "country_code": "LV",
      "latitude": 57.1803,
      "longitude": 22.4176,
      "admin_name1": "Talsu nov."
    },
    {
      "place_name": "Spāre",
      "postal_code": "LV-3298",
      "country_code": "LV",
      "latitude": 57.2183,
      "longitude": 22.2665,
      "admin_name1": "Talsu nov."
    },
    {
      "place_name": "Andumi",
      "postal_code": "LV-3258",
      "country_code": "LV",
      "latitude": 57.1878,
      "longitude": 22.6126,
      "admin_name1": "Talsu nov."
    },
    {
      "place_name": "Sumburciems",
      "postal_code": "LV-3270",
      "country_code": "LV",
      "latitude": 57.5167,
      "longitude": 22.3631,
      "admin_name1": "Talsu nov."
    },
    {
      "place_name": "Matkule",
      "postal_code": "LV-3132",
      "country_code": "LV",
      "latitude": 56.9138,
      "longitude": 22.9606,
      "admin_name1": "Tukuma nov."
    },
    {
      "place_name": "Sēļi",
      "postal_code": "LV-4723",
      "country_code": "LV",
      "latitude": 57.7441,
      "longitude": 26.0542,
      "admin_name1": "Valkas nov."
    },
    {
      "place_name": "Plāņi",
      "postal_code": "LV-4727",
      "country_code": "LV",
      "latitude": 57.4693,
      "longitude": 25.9849,
      "admin_name1": "Valmieras nov."
    },
    {
      "place_name": "Brandeļi",
      "postal_code": "LV-4220",
      "country_code": "LV",
      "latitude": 57.5206,
      "longitude": 25.3382,
      "admin_name1": "Valmieras nov."
    },
    {
      "place_name": "Mūrmuiža",
      "postal_code": "LV-4224",
      "country_code": "LV",
      "latitude": 57.4731,
      "longitude": 25.4917,
      "admin_name1": "Valmieras nov."
    },
    {
      "place_name": "Dziļģi",
      "postal_code": "LV-3620",
      "country_code": "LV",
      "latitude": 57.2862,
      "longitude": 21.6815,
      "admin_name1": "Ventspils nov."
    },
    {
      "place_name": "Puzenieki",
      "postal_code": "LV-3613",
      "country_code": "LV",
      "latitude": 57.3239,
      "longitude": 22.0356,
      "admin_name1": "Ventspils nov."
    },
    {
      "place_name": "Zūras",
      "postal_code": "LV-3623",
      "country_code": "LV",
      "latitude": 57.2565,
      "longitude": 21.6083,
      "admin_name1": "Ventspils nov."
    },
    {
      "place_name": "Alejas",
      "postal_code": "LV-2111",
      "country_code": "LV",
      "latitude": 56.8687,
      "longitude": 24.1919,
      "admin_name1": "Ķekavas nov."
    },
    {
      "place_name": "Vimbukrogs",
      "postal_code": "LV-2123",
      "country_code": "LV",
      "latitude": 56.8385,
      "longitude": 24.2235,
      "admin_name1": "Ķekavas nov."
    },
    {
      "place_name": "Skujnieki",
      "postal_code": "LV-2123",
      "country_code": "LV",
      "latitude": 56.8304,
      "longitude": 24.2329,
      "admin_name1": "Ķekavas nov."
    },
    {
      "place_name": "Pulkarne",
      "postal_code": "LV-2123",
      "country_code": "LV",
      "latitude": 56.7933,
      "longitude": 24.2874,
      "admin_name1": "Ķekavas nov."
    },
    {
      "place_name": "Kūkusiliņi",
      "postal_code": "LV-5316",
      "country_code": "LV",
      "latitude": 56.338,
      "longitude": 26.2707,
      "admin_name1": "Līvānu nov."
    },
    {
      "place_name": "Babri",
      "postal_code": "LV-5327",
      "country_code": "LV",
      "latitude": 56.3974,
      "longitude": 26.3952,
      "admin_name1": "Līvānu nov."
    },
    {
      "place_name": "Cielauka",
      "postal_code": "LV-5328",
      "country_code": "LV",
      "latitude": 56.4399,
      "longitude": 26.4574,
      "admin_name1": "Līvānu nov."
    },
    {
      "place_name": "Druvas",
      "postal_code": "LV-5328",
      "country_code": "LV",
      "latitude": 56.3605,
      "longitude": 26.3906,
      "admin_name1": "Līvānu nov."
    },
    {
      "place_name": "Fridrihsgofa",
      "postal_code": "LV-5334",
      "country_code": "LV",
      "latitude": 56.299,
      "longitude": 26.4833,
      "admin_name1": "Līvānu nov."
    },
    {
      "place_name": "Sondori",
      "postal_code": "LV-5334",
      "country_code": "LV",
      "latitude": 56.299,
      "longitude": 26.4833,
      "admin_name1": "Līvānu nov."
    },
    {
      "place_name": "Silasproģi",
      "postal_code": "LV-5316",
      "country_code": "LV",
      "latitude": 56.3358,
      "longitude": 26.2682,
      "admin_name1": "Līvānu nov."
    },
    {
      "place_name": "Silavas",
      "postal_code": "LV-5316",
      "country_code": "LV",
      "latitude": 56.4201,
      "longitude": 26.141,
      "admin_name1": "Līvānu nov."
    },
    {
      "place_name": "Jaunā muiža",
      "postal_code": "LV-5316",
      "country_code": "LV",
      "latitude": 56.3358,
      "longitude": 26.2682,
      "admin_name1": "Līvānu nov."
    },
    {
      "place_name": "Dubnas viensētas",
      "postal_code": "LV-5316",
      "country_code": "LV",
      "latitude": 56.3358,
      "longitude": 26.2682,
      "admin_name1": "Līvānu nov."
    },
    {
      "place_name": "Priežciems",
      "postal_code": "LV-2101",
      "country_code": "LV",
      "latitude": 56.9481,
      "longitude": 23.9336,
      "admin_name1": "Mārupes nov."
    },
    {
      "place_name": "Spuņciems",
      "postal_code": "LV-2105",
      "country_code": "LV",
      "latitude": 56.9305,
      "longitude": 23.7055,
      "admin_name1": "Mārupes nov."
    },
    {
      "place_name": "Kaģi",
      "postal_code": "LV-2107",
      "country_code": "LV",
      "latitude": 56.9256,
      "longitude": 23.8412,
      "admin_name1": "Mārupes nov."
    },
    {
      "place_name": "Skulte",
      "postal_code": "LV-2108",
      "country_code": "LV",
      "latitude": 56.9192,
      "longitude": 23.9528,
      "admin_name1": "Mārupes nov."
    },
    {
      "place_name": "Jāņupe",
      "postal_code": "LV-2113",
      "country_code": "LV",
      "latitude": 56.745,
      "longitude": 24.1372,
      "admin_name1": "Olaines nov."
    },
    {
      "place_name": "Augškalne",
      "postal_code": "LV-5438",
      "country_code": "LV",
      "latitude": 56.0342,
      "longitude": 26.8598,
      "admin_name1": "Augšdaugavas nov."
    },
    {
      "place_name": "Dekšņi",
      "postal_code": "LV-5440",
      "country_code": "LV",
      "latitude": 55.9498,
      "longitude": 26.8367,
      "admin_name1": "Augšdaugavas nov."
    },
    {
      "place_name": "Pipari",
      "postal_code": "LV-5443",
      "country_code": "LV",
      "latitude": 56.0853,
      "longitude": 26.6528,
      "admin_name1": "Augšdaugavas nov."
    },
    {
      "place_name": "Svilišķi",
      "postal_code": "LV-5443",
      "country_code": "LV",
      "latitude": 56.0853,
      "longitude": 26.6528,
      "admin_name1": "Augšdaugavas nov."
    },
    {
      "place_name": "Randene",
      "postal_code": "LV-5449",
      "country_code": "LV",
      "latitude": 55.8198,
      "longitude": 26.4521,
      "admin_name1": "Augšdaugavas nov."
    },
    {
      "place_name": "Galdnieki",
      "postal_code": "LV-5449",
      "country_code": "LV",
      "latitude": 55.8198,
      "longitude": 26.4521,
      "admin_name1": "Augšdaugavas nov."
    },
    {
      "place_name": "Bībelišķi",
      "postal_code": "LV-5450",
      "country_code": "LV",
      "latitude": 56.0871,
      "longitude": 26.5194,
      "admin_name1": "Augšdaugavas nov."
    },
    {
      "place_name": "Miglāni",
      "postal_code": "LV-5450",
      "country_code": "LV",
      "latitude": 56.0871,
      "longitude": 26.5194,
      "admin_name1": "Augšdaugavas nov."
    },
    {
      "place_name": "Plonišķi",
      "postal_code": "LV-5450",
      "country_code": "LV",
      "latitude": 56.0871,
      "longitude": 26.5194,
      "admin_name1": "Augšdaugavas nov."
    },
    {
      "place_name": "Sterikāni",
      "postal_code": "LV-5456",
      "country_code": "LV",
      "latitude": 56.0096,
      "longitude": 26.4083,
      "admin_name1": "Augšdaugavas nov."
    },
    {
      "place_name": "Munciški",
      "postal_code": "LV-5456",
      "country_code": "LV",
      "latitude": 56.0096,
      "longitude": 26.4083,
      "admin_name1": "Augšdaugavas nov."
    },
    {
      "place_name": "Jukši",
      "postal_code": "LV-5456",
      "country_code": "LV",
      "latitude": 56.0096,
      "longitude": 26.4083,
      "admin_name1": "Augšdaugavas nov."
    },
    {
      "place_name": "Kumpiniški",
      "postal_code": "LV-5460",
      "country_code": "LV",
      "latitude": 55.7634,
      "longitude": 26.3765,
      "admin_name1": "Augšdaugavas nov."
    },
    {
      "place_name": "Jurīši",
      "postal_code": "LV-5462",
      "country_code": "LV",
      "latitude": 55.9435,
      "longitude": 26.7795,
      "admin_name1": "Augšdaugavas nov."
    },
    {
      "place_name": "Juzefova",
      "postal_code": "LV-5462",
      "country_code": "LV",
      "latitude": 55.9435,
      "longitude": 26.7795,
      "admin_name1": "Augšdaugavas nov."
    },
    {
      "place_name": "Melderiški",
      "postal_code": "LV-5462",
      "country_code": "LV",
      "latitude": 55.9435,
      "longitude": 26.7795,
      "admin_name1": "Augšdaugavas nov."
    },
    {
      "place_name": "Viļuši",
      "postal_code": "LV-5462",
      "country_code": "LV",
      "latitude": 55.9291,
      "longitude": 26.6993,
      "admin_name1": "Augšdaugavas nov."
    },
    {
      "place_name": "Jaunborne",
      "postal_code": "LV-5469",
      "country_code": "LV",
      "latitude": 55.8601,
      "longitude": 26.9253,
      "admin_name1": "Augšdaugavas nov."
    },
    {
      "place_name": "Šlapaki",
      "postal_code": "LV-5469",
      "country_code": "LV",
      "latitude": 55.8322,
      "longitude": 26.9021,
      "admin_name1": "Augšdaugavas nov."
    },
    {
      "place_name": "Lintopiški",
      "postal_code": "LV-5465",
      "country_code": "LV",
      "latitude": 55.8442,
      "longitude": 26.7058,
      "admin_name1": "Augšdaugavas nov."
    },
    {
      "place_name": "Cīrulīši",
      "postal_code": "LV-5465",
      "country_code": "LV",
      "latitude": 55.8442,
      "longitude": 26.7058,
      "admin_name1": "Augšdaugavas nov."
    },
    {
      "place_name": "Osagols",
      "postal_code": "LV-5477",
      "country_code": "LV",
      "latitude": 56.0258,
      "longitude": 26.471,
      "admin_name1": "Augšdaugavas nov."
    },
    {
      "place_name": "Vabole",
      "postal_code": "LV-5477",
      "country_code": "LV",
      "latitude": 56.0298,
      "longitude": 26.4637,
      "admin_name1": "Augšdaugavas nov."
    },
    {
      "place_name": "Šuti",
      "postal_code": "LV-5477",
      "country_code": "LV",
      "latitude": 56.0169,
      "longitude": 26.5098,
      "admin_name1": "Augšdaugavas nov."
    },
    {
      "place_name": "Jerenišķi",
      "postal_code": "LV-5481",
      "country_code": "LV",
      "latitude": 56.0658,
      "longitude": 26.7708,
      "admin_name1": "Augšdaugavas nov."
    },
    {
      "place_name": "Dzirnaviškas",
      "postal_code": "LV-5481",
      "country_code": "LV",
      "latitude": 56.0658,
      "longitude": 26.7708,
      "admin_name1": "Augšdaugavas nov."
    },
    {
      "place_name": "Kivriņi",
      "postal_code": "LV-5481",
      "country_code": "LV",
      "latitude": 56.0658,
      "longitude": 26.7708,
      "admin_name1": "Augšdaugavas nov."
    },
    {
      "place_name": "Langstiņi",
      "postal_code": "LV-2137",
      "country_code": "LV",
      "latitude": 57.0071,
      "longitude": 24.3315,
      "admin_name1": "Ropažu nov."
    },
    {
      "place_name": "Jaunkrimulda",
      "postal_code": "LV-2142",
      "country_code": "LV",
      "latitude": 57.1462,
      "longitude": 24.6626,
      "admin_name1": "Saulkrastu nov."
    },
    {
      "place_name": "Griķi",
      "postal_code": "LV-2136",
      "country_code": "LV",
      "latitude": 57.089,
      "longitude": 24.5699,
      "admin_name1": "Siguldas nov."
    },
    {
      "place_name": "Apes",
      "postal_code": "LV-4337",
      "country_code": "LV",
      "latitude": 57.5009,
      "longitude": 26.8694,
      "admin_name1": "Smiltenes nov."
    },
    {
      "place_name": "Vizla",
      "postal_code": "LV-4713",
      "country_code": "LV",
      "latitude": 57.4247,
      "longitude": 26.2815,
      "admin_name1": "Smiltenes nov."
    },
    {
      "place_name": "Strante",
      "postal_code": "LV-3466",
      "country_code": "LV",
      "latitude": 56.9115,
      "longitude": 21.238,
      "admin_name1": "Dienvidkurzemes nov."
    },
    {
      "place_name": "Virga",
      "postal_code": "LV-3433",
      "country_code": "LV",
      "latitude": 56.4767,
      "longitude": 21.418,
      "admin_name1": "Dienvidkurzemes nov."
    },
    {
      "place_name": "Mellēni",
      "postal_code": "LV-5123",
      "country_code": "LV",
      "latitude": 56.6121,
      "longitude": 25.4802,
      "admin_name1": "Aizkraukles nov."
    },
    {
      "place_name": "Ķūģi",
      "postal_code": "LV-5120",
      "country_code": "LV",
      "latitude": 56.6338,
      "longitude": 25.9095,
      "admin_name1": "Aizkraukles nov."
    },
    {
      "place_name": "Krievciems",
      "postal_code": "LV-5120",
      "country_code": "LV",
      "latitude": 56.6338,
      "longitude": 25.9095,
      "admin_name1": "Aizkraukles nov."
    },
    {
      "place_name": "Kolberģis",
      "postal_code": "LV-4350",
      "country_code": "LV",
      "latitude": 57.4387,
      "longitude": 27.1158,
      "admin_name1": "Alūksnes nov."
    },
    {
      "place_name": "Mālupe",
      "postal_code": "LV-4358",
      "country_code": "LV",
      "latitude": 57.3383,
      "longitude": 27.2346,
      "admin_name1": "Alūksnes nov."
    },
    {
      "place_name": "Vistusala",
      "postal_code": "LV-4591",
      "country_code": "LV",
      "latitude": 57.157,
      "longitude": 27.4075,
      "admin_name1": "Balvu nov."
    },
    {
      "place_name": "Grūšļeva",
      "postal_code": "LV-4595",
      "country_code": "LV",
      "latitude": 56.9786,
      "longitude": 27.5607,
      "admin_name1": "Balvu nov."
    },
    {
      "place_name": "Ostrolīdumi",
      "postal_code": "LV-4595",
      "country_code": "LV",
      "latitude": 56.9786,
      "longitude": 27.5607,
      "admin_name1": "Balvu nov."
    },
    {
      "place_name": "Medveževka",
      "postal_code": "LV-4592",
      "country_code": "LV",
      "latitude": 57.0525,
      "longitude": 27.4822,
      "admin_name1": "Balvu nov."
    },
    {
      "place_name": "Kuģenieki",
      "postal_code": "LV-4572",
      "country_code": "LV",
      "latitude": 56.9009,
      "longitude": 27.3716,
      "admin_name1": "Balvu nov."
    },
    {
      "place_name": "Kuprava",
      "postal_code": "LV-4582",
      "country_code": "LV",
      "latitude": 57.2293,
      "longitude": 27.381,
      "admin_name1": "Balvu nov."
    },
    {
      "place_name": "Ilziņi",
      "postal_code": "LV-4583",
      "country_code": "LV",
      "latitude": 57.172,
      "longitude": 27.6851,
      "admin_name1": "Balvu nov."
    },
    {
      "place_name": "Mucukalns",
      "postal_code": "LV-4501",
      "country_code": "LV",
      "latitude": 57.1466,
      "longitude": 27.3787,
      "admin_name1": "Balvu nov."
    },
    {
      "place_name": "Egļava",
      "postal_code": "LV-4583",
      "country_code": "LV",
      "latitude": 57.172,
      "longitude": 27.6851,
      "admin_name1": "Balvu nov."
    },
    {
      "place_name": "Eržepole",
      "postal_code": "LV-4583",
      "country_code": "LV",
      "latitude": 57.172,
      "longitude": 27.6851,
      "admin_name1": "Balvu nov."
    },
    {
      "place_name": "Zatišje",
      "postal_code": "LV-4587",
      "country_code": "LV",
      "latitude": 57.0696,
      "longitude": 27.6405,
      "admin_name1": "Balvu nov."
    },
    {
      "place_name": "Žogova",
      "postal_code": "LV-4585",
      "country_code": "LV",
      "latitude": 57.2368,
      "longitude": 27.8058,
      "admin_name1": "Balvu nov."
    },
    {
      "place_name": "Bahmati",
      "postal_code": "LV-4594",
      "country_code": "LV",
      "latitude": 56.922,
      "longitude": 27.5053,
      "admin_name1": "Balvu nov."
    },
    {
      "place_name": "Jorzova",
      "postal_code": "LV-4594",
      "country_code": "LV",
      "latitude": 56.922,
      "longitude": 27.5053,
      "admin_name1": "Balvu nov."
    },
    {
      "place_name": "Tutinova",
      "postal_code": "LV-4594",
      "country_code": "LV",
      "latitude": 56.922,
      "longitude": 27.5053,
      "admin_name1": "Balvu nov."
    },
    {
      "place_name": "Apšova",
      "postal_code": "LV-4594",
      "country_code": "LV",
      "latitude": 56.922,
      "longitude": 27.5053,
      "admin_name1": "Balvu nov."
    },
    {
      "place_name": "Mazmežotne",
      "postal_code": "LV-3921",
      "country_code": "LV",
      "latitude": 56.4285,
      "longitude": 23.9685,
      "admin_name1": "Bauskas nov."
    },
    {
      "place_name": "Beitiņi",
      "postal_code": "LV-3925",
      "country_code": "LV",
      "latitude": 56.533,
      "longitude": 24.4998,
      "admin_name1": "Bauskas nov."
    },
    {
      "place_name": "Dzelzāmurs",
      "postal_code": "LV-3913",
      "country_code": "LV",
      "latitude": 56.6624,
      "longitude": 24.3496,
      "admin_name1": "Bauskas nov."
    },
    {
      "place_name": "Sarkaņi",
      "postal_code": "LV-4128",
      "country_code": "LV",
      "latitude": 57.3844,
      "longitude": 25.4256,
      "admin_name1": "Cēsu nov."
    },
    {
      "place_name": "Mārsnēni",
      "postal_code": "LV-4129",
      "country_code": "LV",
      "latitude": 57.2354,
      "longitude": 25.6532,
      "admin_name1": "Cēsu nov."
    },
    {
      "place_name": "Straupe",
      "postal_code": "LV-4152",
      "country_code": "LV",
      "latitude": 57.3633,
      "longitude": 24.9795,
      "admin_name1": "Cēsu nov."
    },
    {
      "place_name": "Dzērbene",
      "postal_code": "LV-4118",
      "country_code": "LV",
      "latitude": 57.1915,
      "longitude": 25.6764,
      "admin_name1": "Cēsu nov."
    },
    {
      "place_name": "Bēne",
      "postal_code": "LV-3711",
      "country_code": "LV",
      "latitude": 56.4828,
      "longitude": 23.0672,
      "admin_name1": "Dobeles nov."
    },
    {
      "place_name": "Bukaiši",
      "postal_code": "LV-3714",
      "country_code": "LV",
      "latitude": 56.4003,
      "longitude": 23.2524,
      "admin_name1": "Dobeles nov."
    },
    {
      "place_name": "Leimaņi",
      "postal_code": "LV-5223",
      "country_code": "LV",
      "latitude": 56.3111,
      "longitude": 25.9256,
      "admin_name1": "Jēkabpils nov."
    },
    {
      "place_name": "Apserde",
      "postal_code": "LV-5217",
      "country_code": "LV",
      "latitude": 56.2482,
      "longitude": 26.0426,
      "admin_name1": "Jēkabpils nov."
    },
    {
      "place_name": "Jelgava",
      "postal_code": "LV-3001",
      "country_code": "LV",
      "latitude": 56.65,
      "longitude": 23.7128,
      "admin_name1": "Jelgava"
    },
    {
      "place_name": "Oglaine",
      "postal_code": "LV-3036",
      "country_code": "LV",
      "latitude": 56.4917,
      "longitude": 23.8244,
      "admin_name1": "Jelgavas nov."
    },
    {
      "place_name": "Iecēni",
      "postal_code": "LV-3018",
      "country_code": "LV",
      "latitude": 56.7018,
      "longitude": 23.8218,
      "admin_name1": "Jelgavas nov."
    },
    {
      "place_name": "Geidāni",
      "postal_code": "LV-5664",
      "country_code": "LV",
      "latitude": 55.8582,
      "longitude": 27.5156,
      "admin_name1": "Krāslavas nov."
    },
    {
      "place_name": "Celitāni",
      "postal_code": "LV-5652",
      "country_code": "LV",
      "latitude": 55.9731,
      "longitude": 27.0587,
      "admin_name1": "Krāslavas nov."
    },
    {
      "place_name": "Gubernati",
      "postal_code": "LV-5652",
      "country_code": "LV",
      "latitude": 55.9731,
      "longitude": 27.0587,
      "admin_name1": "Krāslavas nov."
    },
    {
      "place_name": "Jaloveckaja Gora",
      "postal_code": "LV-5660",
      "country_code": "LV",
      "latitude": 55.8863,
      "longitude": 27.3553,
      "admin_name1": "Krāslavas nov."
    },
    {
      "place_name": "Dombrova",
      "postal_code": "LV-5656",
      "country_code": "LV",
      "latitude": 55.974,
      "longitude": 27.2312,
      "admin_name1": "Krāslavas nov."
    },
    {
      "place_name": "Baltiņi",
      "postal_code": "LV-5601",
      "country_code": "LV",
      "latitude": 55.9274,
      "longitude": 27.1967,
      "admin_name1": "Krāslavas nov."
    },
    {
      "place_name": "Meļevščina",
      "postal_code": "LV-5666",
      "country_code": "LV",
      "latitude": 55.9674,
      "longitude": 27.5903,
      "admin_name1": "Krāslavas nov."
    },
    {
      "place_name": "Nikšāni",
      "postal_code": "LV-5666",
      "country_code": "LV",
      "latitude": 55.9674,
      "longitude": 27.5903,
      "admin_name1": "Krāslavas nov."
    },
    {
      "place_name": "Stacija Krāslava",
      "postal_code": "LV-5601",
      "country_code": "LV",
      "latitude": 55.9274,
      "longitude": 27.1967,
      "admin_name1": "Krāslavas nov."
    },
    {
      "place_name": "Pankjāni",
      "postal_code": "LV-5601",
      "country_code": "LV",
      "latitude": 55.9274,
      "longitude": 27.1967,
      "admin_name1": "Krāslavas nov."
    },
    {
      "place_name": "Stašāni",
      "postal_code": "LV-5601",
      "country_code": "LV",
      "latitude": 55.9274,
      "longitude": 27.1967,
      "admin_name1": "Krāslavas nov."
    },
    {
      "place_name": "Mazie Muļķi",
      "postal_code": "LV-5651",
      "country_code": "LV",
      "latitude": 55.8915,
      "longitude": 27.1155,
      "admin_name1": "Krāslavas nov."
    },
    {
      "place_name": "Grīzāni",
      "postal_code": "LV-5687",
      "country_code": "LV",
      "latitude": 56.1971,
      "longitude": 27.4065,
      "admin_name1": "Krāslavas nov."
    },
    {
      "place_name": "Kraukļi",
      "postal_code": "LV-5687",
      "country_code": "LV",
      "latitude": 56.0872,
      "longitude": 27.271,
      "admin_name1": "Krāslavas nov."
    },
    {
      "place_name": "Murāni",
      "postal_code": "LV-5696",
      "country_code": "LV",
      "latitude": 56.1888,
      "longitude": 27.5124,
      "admin_name1": "Krāslavas nov."
    },
    {
      "place_name": "Kuiki",
      "postal_code": "LV-5696",
      "country_code": "LV",
      "latitude": 56.1888,
      "longitude": 27.5124,
      "admin_name1": "Krāslavas nov."
    },
    {
      "place_name": "Kondraši",
      "postal_code": "LV-5696",
      "country_code": "LV",
      "latitude": 56.1888,
      "longitude": 27.5124,
      "admin_name1": "Krāslavas nov."
    },
    {
      "place_name": "Vucini",
      "postal_code": "LV-5696",
      "country_code": "LV",
      "latitude": 56.1888,
      "longitude": 27.5124,
      "admin_name1": "Krāslavas nov."
    },
    {
      "place_name": "Kuzminci",
      "postal_code": "LV-5697",
      "country_code": "LV",
      "latitude": 56.1222,
      "longitude": 27.7195,
      "admin_name1": "Krāslavas nov."
    },
    {
      "place_name": "Sloboda",
      "postal_code": "LV-5674",
      "country_code": "LV",
      "latitude": 56.105,
      "longitude": 27.4967,
      "admin_name1": "Krāslavas nov."
    },
    {
      "place_name": "Altinīki",
      "postal_code": "LV-5692",
      "country_code": "LV",
      "latitude": 56.1888,
      "longitude": 27.6681,
      "admin_name1": "Krāslavas nov."
    },
    {
      "place_name": "Patmaļnīki",
      "postal_code": "LV-5692",
      "country_code": "LV",
      "latitude": 56.1888,
      "longitude": 27.6681,
      "admin_name1": "Krāslavas nov."
    },
    {
      "place_name": "Lubgaņi",
      "postal_code": "LV-5692",
      "country_code": "LV",
      "latitude": 56.212,
      "longitude": 27.6032,
      "admin_name1": "Krāslavas nov."
    },
    {
      "place_name": "Davidenki",
      "postal_code": "LV-5695",
      "country_code": "LV",
      "latitude": 56.1644,
      "longitude": 27.9091,
      "admin_name1": "Krāslavas nov."
    },
    {
      "place_name": "Novadnieki",
      "postal_code": "LV-3309",
      "country_code": "LV",
      "latitude": 56.9004,
      "longitude": 22.0741,
      "admin_name1": "Kuldīgas nov."
    },
    {
      "place_name": "Braslava",
      "postal_code": "LV-4068",
      "country_code": "LV",
      "latitude": 57.7576,
      "longitude": 25.0408,
      "admin_name1": "Limbažu nov."
    },
    {
      "place_name": "Prohori",
      "postal_code": "LV-5707",
      "country_code": "LV",
      "latitude": 56.4372,
      "longitude": 28.056,
      "admin_name1": "Ludzas nov."
    },
    {
      "place_name": "Soidi",
      "postal_code": "LV-5735",
      "country_code": "LV",
      "latitude": 56.5148,
      "longitude": 27.5423,
      "admin_name1": "Ludzas nov."
    },
    {
      "place_name": "Sorņi",
      "postal_code": "LV-5735",
      "country_code": "LV",
      "latitude": 56.5148,
      "longitude": 27.5423,
      "admin_name1": "Ludzas nov."
    },
    {
      "place_name": "Vamži",
      "postal_code": "LV-5701",
      "country_code": "LV",
      "latitude": 56.5122,
      "longitude": 27.7266,
      "admin_name1": "Ludzas nov."
    },
    {
      "place_name": "Anapole",
      "postal_code": "LV-5748",
      "country_code": "LV",
      "latitude": 56.2397,
      "longitude": 27.9485,
      "admin_name1": "Ludzas nov."
    },
    {
      "place_name": "Sokorņica",
      "postal_code": "LV-5748",
      "country_code": "LV",
      "latitude": 56.2397,
      "longitude": 27.9485,
      "admin_name1": "Ludzas nov."
    },
    {
      "place_name": "Morteņi",
      "postal_code": "LV-5729",
      "country_code": "LV",
      "latitude": 56.412,
      "longitude": 27.945,
      "admin_name1": "Ludzas nov."
    },
    {
      "place_name": "Rancāni",
      "postal_code": "LV-5733",
      "country_code": "LV",
      "latitude": 56.3667,
      "longitude": 27.7675,
      "admin_name1": "Ludzas nov."
    },
    {
      "place_name": "Škirpāni",
      "postal_code": "LV-5733",
      "country_code": "LV",
      "latitude": 56.3698,
      "longitude": 27.7726,
      "admin_name1": "Ludzas nov."
    },
    {
      "place_name": "Noviki",
      "postal_code": "LV-5733",
      "country_code": "LV",
      "latitude": 56.3607,
      "longitude": 27.7784,
      "admin_name1": "Ludzas nov."
    },
    {
      "place_name": "Starinski",
      "postal_code": "LV-5745",
      "country_code": "LV",
      "latitude": 56.4642,
      "longitude": 27.6284,
      "admin_name1": "Ludzas nov."
    },
    {
      "place_name": "Doroški",
      "postal_code": "LV-5745",
      "country_code": "LV",
      "latitude": 56.4642,
      "longitude": 27.6284,
      "admin_name1": "Ludzas nov."
    },
    {
      "place_name": "Žubuļi",
      "postal_code": "LV-5736",
      "country_code": "LV",
      "latitude": 56.3572,
      "longitude": 27.8769,
      "admin_name1": "Ludzas nov."
    },
    {
      "place_name": "Griņkova",
      "postal_code": "LV-5739",
      "country_code": "LV",
      "latitude": 56.2544,
      "longitude": 27.7651,
      "admin_name1": "Ludzas nov."
    },
    {
      "place_name": "Testečkova",
      "postal_code": "LV-5739",
      "country_code": "LV",
      "latitude": 56.2544,
      "longitude": 27.7651,
      "admin_name1": "Ludzas nov."
    },
    {
      "place_name": "Čuhnova",
      "postal_code": "LV-5739",
      "country_code": "LV",
      "latitude": 56.2544,
      "longitude": 27.7651,
      "admin_name1": "Ludzas nov."
    },
    {
      "place_name": "Lugi",
      "postal_code": "LV-5717",
      "country_code": "LV",
      "latitude": 56.8007,
      "longitude": 27.7363,
      "admin_name1": "Ludzas nov."
    },
    {
      "place_name": "Ezernīki",
      "postal_code": "LV-5725",
      "country_code": "LV",
      "latitude": 56.6684,
      "longitude": 27.5243,
      "admin_name1": "Ludzas nov."
    },
    {
      "place_name": "Pustapole",
      "postal_code": "LV-5725",
      "country_code": "LV",
      "latitude": 56.6722,
      "longitude": 27.4758,
      "admin_name1": "Ludzas nov."
    },
    {
      "place_name": "Sutri",
      "postal_code": "LV-5717",
      "country_code": "LV",
      "latitude": 56.8007,
      "longitude": 27.7363,
      "admin_name1": "Ludzas nov."
    },
    {
      "place_name": "Salnava",
      "postal_code": "LV-5740",
      "country_code": "LV",
      "latitude": 56.8138,
      "longitude": 27.5119,
      "admin_name1": "Ludzas nov."
    },
    {
      "place_name": "Maslova",
      "postal_code": "LV-5722",
      "country_code": "LV",
      "latitude": 56.3437,
      "longitude": 28.0594,
      "admin_name1": "Ludzas nov."
    },
    {
      "place_name": "Paraļi",
      "postal_code": "LV-5722",
      "country_code": "LV",
      "latitude": 56.3202,
      "longitude": 27.9731,
      "admin_name1": "Ludzas nov."
    },
    {
      "place_name": "Kolnačova",
      "postal_code": "LV-5711",
      "country_code": "LV",
      "latitude": 56.1753,
      "longitude": 28.0829,
      "admin_name1": "Ludzas nov."
    },
    {
      "place_name": "Adamova",
      "postal_code": "LV-5732",
      "country_code": "LV",
      "latitude": 56.2961,
      "longitude": 28.1352,
      "admin_name1": "Ludzas nov."
    },
    {
      "place_name": "Romašenki",
      "postal_code": "LV-5751",
      "country_code": "LV",
      "latitude": 56.3767,
      "longitude": 28.1129,
      "admin_name1": "Ludzas nov."
    },
    {
      "place_name": "Šķinči",
      "postal_code": "LV-5706",
      "country_code": "LV",
      "latitude": 56.6264,
      "longitude": 27.8417,
      "admin_name1": "Ludzas nov."
    },
    {
      "place_name": "Pekšova",
      "postal_code": "LV-5709",
      "country_code": "LV",
      "latitude": 56.5393,
      "longitude": 27.8578,
      "admin_name1": "Ludzas nov."
    },
    {
      "place_name": "Ozupiene",
      "postal_code": "LV-5716",
      "country_code": "LV",
      "latitude": 56.452,
      "longitude": 27.8967,
      "admin_name1": "Ludzas nov."
    },
    {
      "place_name": "Akaši",
      "postal_code": "LV-5719",
      "country_code": "LV",
      "latitude": 56.5169,
      "longitude": 28.0209,
      "admin_name1": "Ludzas nov."
    },
    {
      "place_name": "Gornie",
      "postal_code": "LV-5742",
      "country_code": "LV",
      "latitude": 56.6439,
      "longitude": 27.721,
      "admin_name1": "Ludzas nov."
    },
    {
      "place_name": "Obuļņīki",
      "postal_code": "LV-5752",
      "country_code": "LV",
      "latitude": 56.5837,
      "longitude": 27.7197,
      "admin_name1": "Ludzas nov."
    },
    {
      "place_name": "Diunokļi",
      "postal_code": "LV-5752",
      "country_code": "LV",
      "latitude": 56.5837,
      "longitude": 27.7197,
      "admin_name1": "Ludzas nov."
    },
    {
      "place_name": "Sauleskalns",
      "postal_code": "LV-4853",
      "country_code": "LV",
      "latitude": 56.8064,
      "longitude": 26.0744,
      "admin_name1": "Madonas nov."
    },
    {
      "place_name": "Jaunlazdona",
      "postal_code": "LV-4801",
      "country_code": "LV",
      "latitude": 56.8254,
      "longitude": 26.2408,
      "admin_name1": "Madonas nov."
    },
    {
      "place_name": "Novinki",
      "postal_code": "LV-5304",
      "country_code": "LV",
      "latitude": 56.1201,
      "longitude": 27.0266,
      "admin_name1": "Preiļu nov."
    },
    {
      "place_name": "Lopoti",
      "postal_code": "LV-5304",
      "country_code": "LV",
      "latitude": 56.1201,
      "longitude": 27.0266,
      "admin_name1": "Preiļu nov."
    },
    {
      "place_name": "Kazimirovka",
      "postal_code": "LV-5304",
      "country_code": "LV",
      "latitude": 56.1201,
      "longitude": 27.0266,
      "admin_name1": "Preiļu nov."
    },
    {
      "place_name": "Raģeļi",
      "postal_code": "LV-5655",
      "country_code": "LV",
      "latitude": 56.0573,
      "longitude": 27.1596,
      "admin_name1": "Preiļu nov."
    },
    {
      "place_name": "Ratnīki",
      "postal_code": "LV-5687",
      "country_code": "LV",
      "latitude": 56.1347,
      "longitude": 27.3673,
      "admin_name1": "Preiļu nov."
    },
    {
      "place_name": "Sarguni",
      "postal_code": "LV-5653",
      "country_code": "LV",
      "latitude": 56.0806,
      "longitude": 27.0547,
      "admin_name1": "Preiļu nov."
    },
    {
      "place_name": "Trešie Pīzeļi",
      "postal_code": "LV-5305",
      "country_code": "LV",
      "latitude": 56.2123,
      "longitude": 26.7022,
      "admin_name1": "Preiļu nov."
    },
    {
      "place_name": "Otrie Pūdži",
      "postal_code": "LV-5305",
      "country_code": "LV",
      "latitude": 56.2123,
      "longitude": 26.7022,
      "admin_name1": "Preiļu nov."
    },
    {
      "place_name": "Prīkuļi",
      "postal_code": "LV-5323",
      "country_code": "LV",
      "latitude": 56.3597,
      "longitude": 26.6006,
      "admin_name1": "Preiļu nov."
    },
    {
      "place_name": "Zeimuļi-Puzāki",
      "postal_code": "LV-5311",
      "country_code": "LV",
      "latitude": 56.4675,
      "longitude": 26.8183,
      "admin_name1": "Preiļu nov."
    },
    {
      "place_name": "Lielie Gavari",
      "postal_code": "LV-5301",
      "country_code": "LV",
      "latitude": 56.3274,
      "longitude": 26.6773,
      "admin_name1": "Preiļu nov."
    },
    {
      "place_name": "Ivanovka",
      "postal_code": "LV-5326",
      "country_code": "LV",
      "latitude": 56.3721,
      "longitude": 26.7425,
      "admin_name1": "Preiļu nov."
    },
    {
      "place_name": "Riebiņi",
      "postal_code": "LV-5326",
      "country_code": "LV",
      "latitude": 56.3428,
      "longitude": 26.7999,
      "admin_name1": "Preiļu nov."
    },
    {
      "place_name": "Ezernieki",
      "postal_code": "LV-5318",
      "country_code": "LV",
      "latitude": 56.2652,
      "longitude": 26.8678,
      "admin_name1": "Preiļu nov."
    },
    {
      "place_name": "Griguļi",
      "postal_code": "LV-5329",
      "country_code": "LV",
      "latitude": 56.2123,
      "longitude": 26.8597,
      "admin_name1": "Preiļu nov."
    },
    {
      "place_name": "Jureiši",
      "postal_code": "LV-5329",
      "country_code": "LV",
      "latitude": 56.2123,
      "longitude": 26.8597,
      "admin_name1": "Preiļu nov."
    },
    {
      "place_name": "Rutuļi",
      "postal_code": "LV-5329",
      "country_code": "LV",
      "latitude": 56.2123,
      "longitude": 26.8597,
      "admin_name1": "Preiļu nov."
    },
    {
      "place_name": "Andriveņi",
      "postal_code": "LV-5335",
      "country_code": "LV",
      "latitude": 56.2116,
      "longitude": 26.5741,
      "admin_name1": "Preiļu nov."
    },
    {
      "place_name": "Butkas",
      "postal_code": "LV-5335",
      "country_code": "LV",
      "latitude": 56.2116,
      "longitude": 26.5741,
      "admin_name1": "Preiļu nov."
    },
    {
      "place_name": "Sila Čeirāni",
      "postal_code": "LV-5337",
      "country_code": "LV",
      "latitude": 56.2643,
      "longitude": 26.5944,
      "admin_name1": "Preiļu nov."
    },
    {
      "place_name": "Gruzdinauka",
      "postal_code": "LV-5337",
      "country_code": "LV",
      "latitude": 56.2643,
      "longitude": 26.5944,
      "admin_name1": "Preiļu nov."
    },
    {
      "place_name": "Muhi",
      "postal_code": "LV-4611",
      "country_code": "LV",
      "latitude": 56.6166,
      "longitude": 27.2357,
      "admin_name1": "Rēzeknes nov."
    },
    {
      "place_name": "Vabaļi",
      "postal_code": "LV-4611",
      "country_code": "LV",
      "latitude": 56.5899,
      "longitude": 27.2243,
      "admin_name1": "Rēzeknes nov."
    },
    {
      "place_name": "Juzupole",
      "postal_code": "LV-4612",
      "country_code": "LV",
      "latitude": 56.6369,
      "longitude": 27.4507,
      "admin_name1": "Rēzeknes nov."
    },
    {
      "place_name": "Sokorņi",
      "postal_code": "LV-4617",
      "country_code": "LV",
      "latitude": 56.4105,
      "longitude": 27.386,
      "admin_name1": "Rēzeknes nov."
    },
    {
      "place_name": "Otrie Baltiņi",
      "postal_code": "LV-4617",
      "country_code": "LV",
      "latitude": 56.3765,
      "longitude": 27.5252,
      "admin_name1": "Rēzeknes nov."
    },
    {
      "place_name": "Karpuškina",
      "postal_code": "LV-4617",
      "country_code": "LV",
      "latitude": 56.4105,
      "longitude": 27.386,
      "admin_name1": "Rēzeknes nov."
    },
    {
      "place_name": "Kolpaki",
      "postal_code": "LV-4617",
      "country_code": "LV",
      "latitude": 56.4105,
      "longitude": 27.386,
      "admin_name1": "Rēzeknes nov."
    },
    {
      "place_name": "Kakarvīši",
      "postal_code": "LV-4615",
      "country_code": "LV",
      "latitude": 56.6485,
      "longitude": 27.2254,
      "admin_name1": "Rēzeknes nov."
    },
    {
      "place_name": "Skūškova",
      "postal_code": "LV-4615",
      "country_code": "LV",
      "latitude": 56.6999,
      "longitude": 27.1224,
      "admin_name1": "Rēzeknes nov."
    },
    {
      "place_name": "Šejevka",
      "postal_code": "LV-4623",
      "country_code": "LV",
      "latitude": 56.2931,
      "longitude": 27.0732,
      "admin_name1": "Rēzeknes nov."
    },
    {
      "place_name": "Dubina",
      "postal_code": "LV-4623",
      "country_code": "LV",
      "latitude": 56.2931,
      "longitude": 27.0732,
      "admin_name1": "Rēzeknes nov."
    },
    {
      "place_name": "Manuhina",
      "postal_code": "LV-4641",
      "country_code": "LV",
      "latitude": 56.5054,
      "longitude": 27.3854,
      "admin_name1": "Rēzeknes nov."
    },
    {
      "place_name": "Niperova",
      "postal_code": "LV-4641",
      "country_code": "LV",
      "latitude": 56.5118,
      "longitude": 27.4555,
      "admin_name1": "Rēzeknes nov."
    },
    {
      "place_name": "Voseļi",
      "postal_code": "LV-4619",
      "country_code": "LV",
      "latitude": 56.6628,
      "longitude": 27.3934,
      "admin_name1": "Rēzeknes nov."
    },
    {
      "place_name": "Malinovka",
      "postal_code": "LV-4616",
      "country_code": "LV",
      "latitude": 56.3078,
      "longitude": 27.5903,
      "admin_name1": "Rēzeknes nov."
    },
    {
      "place_name": "Krasnoselka",
      "postal_code": "LV-4616",
      "country_code": "LV",
      "latitude": 56.3719,
      "longitude": 27.4283,
      "admin_name1": "Rēzeknes nov."
    },
    {
      "place_name": "Suņova",
      "postal_code": "LV-4625",
      "country_code": "LV",
      "latitude": 56.5822,
      "longitude": 27.4814,
      "admin_name1": "Rēzeknes nov."
    },
    {
      "place_name": "Brusova",
      "postal_code": "LV-4625",
      "country_code": "LV",
      "latitude": 56.572,
      "longitude": 27.4601,
      "admin_name1": "Rēzeknes nov."
    },
    {
      "place_name": "Pokuļi",
      "postal_code": "LV-4625",
      "country_code": "LV",
      "latitude": 56.5683,
      "longitude": 27.5222,
      "admin_name1": "Rēzeknes nov."
    },
    {
      "place_name": "Soboļi",
      "postal_code": "LV-4627",
      "country_code": "LV",
      "latitude": 56.3826,
      "longitude": 27.2994,
      "admin_name1": "Rēzeknes nov."
    },
    {
      "place_name": "Griščati",
      "postal_code": "LV-4630",
      "country_code": "LV",
      "latitude": 56.3703,
      "longitude": 27.1838,
      "admin_name1": "Rēzeknes nov."
    },
    {
      "place_name": "Orenīši",
      "postal_code": "LV-4631",
      "country_code": "LV",
      "latitude": 56.6792,
      "longitude": 26.9233,
      "admin_name1": "Rēzeknes nov."
    },
    {
      "place_name": "Gaiduļi",
      "postal_code": "LV-4633",
      "country_code": "LV",
      "latitude": 56.4354,
      "longitude": 27.3044,
      "admin_name1": "Rēzeknes nov."
    },
    {
      "place_name": "Andronova",
      "postal_code": "LV-4633",
      "country_code": "LV",
      "latitude": 56.4672,
      "longitude": 27.2253,
      "admin_name1": "Rēzeknes nov."
    },
    {
      "place_name": "Osnīši",
      "postal_code": "LV-4634",
      "country_code": "LV",
      "latitude": 56.6357,
      "longitude": 26.9517,
      "admin_name1": "Rēzeknes nov."
    },
    {
      "place_name": "Dagumnīki",
      "postal_code": "LV-4634",
      "country_code": "LV",
      "latitude": 56.6357,
      "longitude": 26.9517,
      "admin_name1": "Rēzeknes nov."
    },
    {
      "place_name": "Baļtina",
      "postal_code": "LV-4648",
      "country_code": "LV",
      "latitude": 56.6385,
      "longitude": 27.0258,
      "admin_name1": "Rēzeknes nov."
    },
    {
      "place_name": "Razgaļi",
      "postal_code": "LV-4652",
      "country_code": "LV",
      "latitude": 56.677,
      "longitude": 27.3449,
      "admin_name1": "Rēzeknes nov."
    },
    {
      "place_name": "Jaudzemļi",
      "postal_code": "LV-4652",
      "country_code": "LV",
      "latitude": 56.677,
      "longitude": 27.3449,
      "admin_name1": "Rēzeknes nov."
    },
    {
      "place_name": "Sārņi",
      "postal_code": "LV-4652",
      "country_code": "LV",
      "latitude": 56.677,
      "longitude": 27.3449,
      "admin_name1": "Rēzeknes nov."
    },
    {
      "place_name": "Bierzinīki",
      "postal_code": "LV-4652",
      "country_code": "LV",
      "latitude": 56.677,
      "longitude": 27.3449,
      "admin_name1": "Rēzeknes nov."
    },
    {
      "place_name": "Rudukova",
      "postal_code": "LV-4652",
      "country_code": "LV",
      "latitude": 56.677,
      "longitude": 27.3449,
      "admin_name1": "Rēzeknes nov."
    },
    {
      "place_name": "Bolbiši",
      "postal_code": "LV-4645",
      "country_code": "LV",
      "latitude": 56.4989,
      "longitude": 27.0659,
      "admin_name1": "Rēzeknes nov."
    },
    {
      "place_name": "Tiskādi",
      "postal_code": "LV-4636",
      "country_code": "LV",
      "latitude": 56.4502,
      "longitude": 27.0513,
      "admin_name1": "Rēzeknes nov."
    },
    {
      "place_name": "Silanži",
      "postal_code": "LV-4636",
      "country_code": "LV",
      "latitude": 56.4266,
      "longitude": 27.0751,
      "admin_name1": "Rēzeknes nov."
    },
    {
      "place_name": "Lejas Ančupāni",
      "postal_code": "LV-4604",
      "country_code": "LV",
      "latitude": 56.5426,
      "longitude": 27.3482,
      "admin_name1": "Rēzeknes nov."
    },
    {
      "place_name": "Sokolki",
      "postal_code": "LV-4640",
      "country_code": "LV",
      "latitude": 56.5134,
      "longitude": 26.9998,
      "admin_name1": "Rēzeknes nov."
    },
    {
      "place_name": "Akremi",
      "postal_code": "LV-4640",
      "country_code": "LV",
      "latitude": 56.5134,
      "longitude": 26.9998,
      "admin_name1": "Rēzeknes nov."
    },
    {
      "place_name": "Bokāni",
      "postal_code": "LV-4640",
      "country_code": "LV",
      "latitude": 56.4986,
      "longitude": 27.029,
      "admin_name1": "Rēzeknes nov."
    },
    {
      "place_name": "Taukuļi",
      "postal_code": "LV-4640",
      "country_code": "LV",
      "latitude": 56.5134,
      "longitude": 26.9998,
      "admin_name1": "Rēzeknes nov."
    },
    {
      "place_name": "Meža Tuči",
      "postal_code": "LV-4628",
      "country_code": "LV",
      "latitude": 56.631,
      "longitude": 26.7989,
      "admin_name1": "Rēzeknes nov."
    },
    {
      "place_name": "Ķūļciems",
      "postal_code": "LV-3283",
      "country_code": "LV",
      "latitude": 57.2659,
      "longitude": 23.0317,
      "admin_name1": "Talsu nov."
    },
    {
      "place_name": "Garlene",
      "postal_code": "LV-3285",
      "country_code": "LV",
      "latitude": 57.2612,
      "longitude": 22.8031,
      "admin_name1": "Talsu nov."
    },
    {
      "place_name": "Pāce",
      "postal_code": "LV-3270",
      "country_code": "LV",
      "latitude": 57.4965,
      "longitude": 22.2761,
      "admin_name1": "Talsu nov."
    },
    {
      "place_name": "Cirstes",
      "postal_code": "LV-3270",
      "country_code": "LV",
      "latitude": 57.5167,
      "longitude": 22.3631,
      "admin_name1": "Talsu nov."
    },
    {
      "place_name": "Žocene",
      "postal_code": "LV-3264",
      "country_code": "LV",
      "latitude": 57.5422,
      "longitude": 22.7098,
      "admin_name1": "Talsu nov."
    },
    {
      "place_name": "Ozolnieki",
      "postal_code": "LV-3133",
      "country_code": "LV",
      "latitude": 56.9199,
      "longitude": 23.2174,
      "admin_name1": "Tukuma nov."
    },
    {
      "place_name": "Grenči",
      "postal_code": "LV-3135",
      "country_code": "LV",
      "latitude": 56.8972,
      "longitude": 22.8749,
      "admin_name1": "Tukuma nov."
    },
    {
      "place_name": "Rūpnieki",
      "postal_code": "LV-4219",
      "country_code": "LV",
      "latitude": 57.781,
      "longitude": 25.1687,
      "admin_name1": "Valmieras nov."
    },
    {
      "place_name": "Ventspils",
      "postal_code": "LV-3604",
      "country_code": "LV",
      "latitude": 57.3948,
      "longitude": 21.5612,
      "admin_name1": "Ventspils"
    },
    {
      "place_name": "Amele",
      "postal_code": "LV-3613",
      "country_code": "LV",
      "latitude": 57.3763,
      "longitude": 22.229,
      "admin_name1": "Ventspils nov."
    },
    {
      "place_name": "Oviši",
      "postal_code": "LV-3601",
      "country_code": "LV",
      "latitude": 57.5686,
      "longitude": 21.7172,
      "admin_name1": "Ventspils nov."
    },
    {
      "place_name": "Priežu sils",
      "postal_code": "LV-5456",
      "country_code": "LV",
      "latitude": 56.0096,
      "longitude": 26.4083,
      "admin_name1": "Augšdaugavas nov."
    },
    {
      "place_name": "Vasiļova",
      "postal_code": "LV-5459",
      "country_code": "LV",
      "latitude": 55.9955,
      "longitude": 26.6775,
      "admin_name1": "Augšdaugavas nov."
    },
    {
      "place_name": "Zaķupūrs",
      "postal_code": "LV-5463",
      "country_code": "LV",
      "latitude": 56.099,
      "longitude": 26.4125,
      "admin_name1": "Augšdaugavas nov."
    },
    {
      "place_name": "Aizupe",
      "postal_code": "LV-5473",
      "country_code": "LV",
      "latitude": 55.8928,
      "longitude": 26.417,
      "admin_name1": "Augšdaugavas nov."
    },
    {
      "place_name": "Prudiniški",
      "postal_code": "LV-5465",
      "country_code": "LV",
      "latitude": 55.848,
      "longitude": 26.7113,
      "admin_name1": "Augšdaugavas nov."
    },
    {
      "place_name": "Grustanišķi",
      "postal_code": "LV-5481",
      "country_code": "LV",
      "latitude": 56.0658,
      "longitude": 26.7708,
      "admin_name1": "Augšdaugavas nov."
    },
    {
      "place_name": "Tumšupe",
      "postal_code": "LV-2135",
      "country_code": "LV",
      "latitude": 57.0127,
      "longitude": 24.6218,
      "admin_name1": "Ropažu nov."
    },
    {
      "place_name": "Mežezeri",
      "postal_code": "LV-2121",
      "country_code": "LV",
      "latitude": 56.8781,
      "longitude": 24.2657,
      "admin_name1": "Salaspils nov."
    },
    {
      "place_name": "Pēterupe",
      "postal_code": "LV-2160",
      "country_code": "LV",
      "latitude": 57.2521,
      "longitude": 24.421,
      "admin_name1": "Saulkrastu nov."
    },
    {
      "place_name": "Pabaži",
      "postal_code": "LV-2162",
      "country_code": "LV",
      "latitude": 57.2613,
      "longitude": 24.5936,
      "admin_name1": "Saulkrastu nov."
    },
    {
      "place_name": "Sidgunda",
      "postal_code": "LV-2152",
      "country_code": "LV",
      "latitude": 56.9604,
      "longitude": 24.9207,
      "admin_name1": "Siguldas nov."
    },
    {
      "place_name": "Blome",
      "postal_code": "LV-4707",
      "country_code": "LV",
      "latitude": 57.6295,
      "longitude": 25.9655,
      "admin_name1": "Smiltenes nov."
    },
    {
      "place_name": "Cimdenieki",
      "postal_code": "LV-3430",
      "country_code": "LV",
      "latitude": 56.5258,
      "longitude": 21.0973,
      "admin_name1": "Dienvidkurzemes nov."
    },
    {
      "place_name": "Pērkone",
      "postal_code": "LV-3473",
      "country_code": "LV",
      "latitude": 56.4568,
      "longitude": 21.0164,
      "admin_name1": "Dienvidkurzemes nov."
    },
    {
      "place_name": "Kalngale",
      "postal_code": "LV-2163",
      "country_code": "LV",
      "latitude": 57.0791,
      "longitude": 24.1592,
      "admin_name1": "Ādažu nov."
    },
    {
      "place_name": "Valdlauči",
      "postal_code": "LV-2111",
      "country_code": "LV",
      "latitude": 56.9043,
      "longitude": 24.1504,
      "admin_name1": "Ķekavas nov."
    },
    {
      "place_name": "Katlakalns",
      "postal_code": "LV-2111",
      "country_code": "LV",
      "latitude": 56.8855,
      "longitude": 24.1867,
      "admin_name1": "Ķekavas nov."
    },
    {
      "place_name": "Stares",
      "postal_code": "LV-5316",
      "country_code": "LV",
      "latitude": 56.3358,
      "longitude": 26.2682,
      "admin_name1": "Līvānu nov."
    },
    {
      "place_name": "Gaigalova",
      "postal_code": "LV-5327",
      "country_code": "LV",
      "latitude": 56.3974,
      "longitude": 26.3952,
      "admin_name1": "Līvānu nov."
    },
    {
      "place_name": "Mālkalni",
      "postal_code": "LV-5327",
      "country_code": "LV",
      "latitude": 56.3974,
      "longitude": 26.3952,
      "admin_name1": "Līvānu nov."
    },
    {
      "place_name": "Spriudi",
      "postal_code": "LV-5328",
      "country_code": "LV",
      "latitude": 56.4399,
      "longitude": 26.4574,
      "admin_name1": "Līvānu nov."
    },
    {
      "place_name": "Lapsas",
      "postal_code": "LV-2107",
      "country_code": "LV",
      "latitude": 56.9256,
      "longitude": 23.8412,
      "admin_name1": "Mārupes nov."
    },
    {
      "place_name": "Grēnes",
      "postal_code": "LV-2127",
      "country_code": "LV",
      "latitude": 56.8034,
      "longitude": 23.975,
      "admin_name1": "Olaines nov."
    },
    {
      "place_name": "Galvāni",
      "postal_code": "LV-5438",
      "country_code": "LV",
      "latitude": 56.0342,
      "longitude": 26.8598,
      "admin_name1": "Augšdaugavas nov."
    },
    {
      "place_name": "Mazie Kuseņi",
      "postal_code": "LV-5438",
      "country_code": "LV",
      "latitude": 56.0282,
      "longitude": 26.8511,
      "admin_name1": "Augšdaugavas nov."
    },
    {
      "place_name": "Zeiļi",
      "postal_code": "LV-5443",
      "country_code": "LV",
      "latitude": 56.0853,
      "longitude": 26.6528,
      "admin_name1": "Augšdaugavas nov."
    },
    {
      "place_name": "Vērdiņi",
      "postal_code": "LV-5443",
      "country_code": "LV",
      "latitude": 56.0853,
      "longitude": 26.6528,
      "admin_name1": "Augšdaugavas nov."
    },
    {
      "place_name": "Mičurinietis",
      "postal_code": "LV-5449",
      "country_code": "LV",
      "latitude": 55.8198,
      "longitude": 26.4521,
      "admin_name1": "Augšdaugavas nov."
    },
    {
      "place_name": "Baraviki",
      "postal_code": "LV-5456",
      "country_code": "LV",
      "latitude": 56.0096,
      "longitude": 26.4083,
      "admin_name1": "Augšdaugavas nov."
    },
    {
      "place_name": "Zalve",
      "postal_code": "LV-5112",
      "country_code": "LV",
      "latitude": 56.3266,
      "longitude": 25.2468,
      "admin_name1": "Aizkraukles nov."
    },
    {
      "place_name": "Brūklāji",
      "postal_code": "LV-4590",
      "country_code": "LV",
      "latitude": 57.0929,
      "longitude": 27.3523,
      "admin_name1": "Balvu nov."
    },
    {
      "place_name": "Bērzkalne",
      "postal_code": "LV-4590",
      "country_code": "LV",
      "latitude": 57.1037,
      "longitude": 27.3495,
      "admin_name1": "Balvu nov."
    },
    {
      "place_name": "Auzāji",
      "postal_code": "LV-4591",
      "country_code": "LV",
      "latitude": 57.1712,
      "longitude": 27.4106,
      "admin_name1": "Balvu nov."
    },
    {
      "place_name": "Vāzovka",
      "postal_code": "LV-4567",
      "country_code": "LV",
      "latitude": 57.034,
      "longitude": 27.5346,
      "admin_name1": "Balvu nov."
    },
    {
      "place_name": "Briežuciems",
      "postal_code": "LV-4595",
      "country_code": "LV",
      "latitude": 56.9623,
      "longitude": 27.5949,
      "admin_name1": "Balvu nov."
    },
    {
      "place_name": "Abriņas",
      "postal_code": "LV-4595",
      "country_code": "LV",
      "latitude": 56.9736,
      "longitude": 27.6177,
      "admin_name1": "Balvu nov."
    },
    {
      "place_name": "Tīreļi",
      "postal_code": "LV-4566",
      "country_code": "LV",
      "latitude": 57.1915,
      "longitude": 27.2016,
      "admin_name1": "Balvu nov."
    },
    {
      "place_name": "Egļuciems",
      "postal_code": "LV-4592",
      "country_code": "LV",
      "latitude": 57.0525,
      "longitude": 27.4822,
      "admin_name1": "Balvu nov."
    },
    {
      "place_name": "Gailīši",
      "postal_code": "LV-4570",
      "country_code": "LV",
      "latitude": 56.9742,
      "longitude": 27.1612,
      "admin_name1": "Balvu nov."
    },
    {
      "place_name": "Zaļmežnieki",
      "postal_code": "LV-4580",
      "country_code": "LV",
      "latitude": 57.181,
      "longitude": 27.3859,
      "admin_name1": "Balvu nov."
    },
    {
      "place_name": "Pakalnieši",
      "postal_code": "LV-4580",
      "country_code": "LV",
      "latitude": 57.2199,
      "longitude": 27.3688,
      "admin_name1": "Balvu nov."
    },
    {
      "place_name": "Vīksnīne",
      "postal_code": "LV-4586",
      "country_code": "LV",
      "latitude": 57.124,
      "longitude": 27.6353,
      "admin_name1": "Balvu nov."
    },
    {
      "place_name": "Mukaušova",
      "postal_code": "LV-4587",
      "country_code": "LV",
      "latitude": 57.0184,
      "longitude": 27.6702,
      "admin_name1": "Balvu nov."
    },
    {
      "place_name": "Gabačova",
      "postal_code": "LV-4587",
      "country_code": "LV",
      "latitude": 57.0696,
      "longitude": 27.6405,
      "admin_name1": "Balvu nov."
    },
    {
      "place_name": "Nikolajevka",
      "postal_code": "LV-4587",
      "country_code": "LV",
      "latitude": 57.0696,
      "longitude": 27.6405,
      "admin_name1": "Balvu nov."
    },
    {
      "place_name": "Baltinava",
      "postal_code": "LV-4594",
      "country_code": "LV",
      "latitude": 56.9439,
      "longitude": 27.644,
      "admin_name1": "Balvu nov."
    },
    {
      "place_name": "Pliešova",
      "postal_code": "LV-4594",
      "country_code": "LV",
      "latitude": 56.9488,
      "longitude": 27.5949,
      "admin_name1": "Balvu nov."
    },
    {
      "place_name": "Kolnumeži",
      "postal_code": "LV-4594",
      "country_code": "LV",
      "latitude": 56.922,
      "longitude": 27.5053,
      "admin_name1": "Balvu nov."
    },
    {
      "place_name": "Morkova",
      "postal_code": "LV-4594",
      "country_code": "LV",
      "latitude": 56.922,
      "longitude": 27.5053,
      "admin_name1": "Balvu nov."
    },
    {
      "place_name": "Auciems",
      "postal_code": "LV-4146",
      "country_code": "LV",
      "latitude": 57.3516,
      "longitude": 25.1771,
      "admin_name1": "Cēsu nov."
    },
    {
      "place_name": "Liepziedi",
      "postal_code": "LV-3701",
      "country_code": "LV",
      "latitude": 56.6602,
      "longitude": 23.2239,
      "admin_name1": "Dobeles nov."
    },
    {
      "place_name": "Ukri",
      "postal_code": "LV-3729",
      "country_code": "LV",
      "latitude": 56.3419,
      "longitude": 23.0582,
      "admin_name1": "Dobeles nov."
    },
    {
      "place_name": "Beļava",
      "postal_code": "LV-4409",
      "country_code": "LV",
      "latitude": 57.2544,
      "longitude": 26.7716,
      "admin_name1": "Gulbenes nov."
    },
    {
      "place_name": "Stāmeriena",
      "postal_code": "LV-4406",
      "country_code": "LV",
      "latitude": 57.2353,
      "longitude": 26.8835,
      "admin_name1": "Gulbenes nov."
    },
    {
      "place_name": "Tirza",
      "postal_code": "LV-4424",
      "country_code": "LV",
      "latitude": 57.141,
      "longitude": 26.4306,
      "admin_name1": "Gulbenes nov."
    },
    {
      "place_name": "Liepas",
      "postal_code": "LV-5221",
      "country_code": "LV",
      "latitude": 56.2547,
      "longitude": 26.0215,
      "admin_name1": "Jēkabpils nov."
    },
    {
      "place_name": "Elkšņi",
      "postal_code": "LV-5217",
      "country_code": "LV",
      "latitude": 56.2482,
      "longitude": 26.0426,
      "admin_name1": "Jēkabpils nov."
    },
    {
      "place_name": "Varieši",
      "postal_code": "LV-5236",
      "country_code": "LV",
      "latitude": 56.4528,
      "longitude": 25.7943,
      "admin_name1": "Jēkabpils nov."
    },
    {
      "place_name": "Jekabpils",
      "postal_code": "LV-5202",
      "country_code": "LV",
      "latitude": 56.5259,
      "longitude": 25.8808,
      "admin_name1": "Jēkabpils nov."
    },
    {
      "place_name": "Eleja",
      "postal_code": "LV-3023",
      "country_code": "LV",
      "latitude": 56.4159,
      "longitude": 23.6833,
      "admin_name1": "Jelgavas nov."
    },
    {
      "place_name": "Jēkabnieki",
      "postal_code": "LV-3028",
      "country_code": "LV",
      "latitude": 56.5306,
      "longitude": 23.6047,
      "admin_name1": "Jelgavas nov."
    },
    {
      "place_name": "Rubeni",
      "postal_code": "LV-5681",
      "country_code": "LV",
      "latitude": 56.0479,
      "longitude": 27.2654,
      "admin_name1": "Krāslavas nov."
    },
    {
      "place_name": "Žaunerāni",
      "postal_code": "LV-5681",
      "country_code": "LV",
      "latitude": 56.0479,
      "longitude": 27.2654,
      "admin_name1": "Krāslavas nov."
    },
    {
      "place_name": "Baļbinova",
      "postal_code": "LV-5664",
      "country_code": "LV",
      "latitude": 55.8582,
      "longitude": 27.5156,
      "admin_name1": "Krāslavas nov."
    },
    {
      "place_name": "Šņokova",
      "postal_code": "LV-5664",
      "country_code": "LV",
      "latitude": 55.8582,
      "longitude": 27.5156,
      "admin_name1": "Krāslavas nov."
    },
    {
      "place_name": "Meža Japini",
      "postal_code": "LV-5652",
      "country_code": "LV",
      "latitude": 55.9731,
      "longitude": 27.0587,
      "admin_name1": "Krāslavas nov."
    },
    {
      "place_name": "Juragova",
      "postal_code": "LV-5660",
      "country_code": "LV",
      "latitude": 55.8815,
      "longitude": 27.3542,
      "admin_name1": "Krāslavas nov."
    },
    {
      "place_name": "Daudziši",
      "postal_code": "LV-5660",
      "country_code": "LV",
      "latitude": 55.8815,
      "longitude": 27.3542,
      "admin_name1": "Krāslavas nov."
    },
    {
      "place_name": "Pakuliški",
      "postal_code": "LV-5660",
      "country_code": "LV",
      "latitude": 55.8815,
      "longitude": 27.3542,
      "admin_name1": "Krāslavas nov."
    },
    {
      "place_name": "Jadlovci",
      "postal_code": "LV-5656",
      "country_code": "LV",
      "latitude": 55.974,
      "longitude": 27.2312,
      "admin_name1": "Krāslavas nov."
    },
    {
      "place_name": "Vidoki",
      "postal_code": "LV-5656",
      "country_code": "LV",
      "latitude": 55.974,
      "longitude": 27.2312,
      "admin_name1": "Krāslavas nov."
    },
    {
      "place_name": "Baltica",
      "postal_code": "LV-5601",
      "country_code": "LV",
      "latitude": 55.9057,
      "longitude": 27.2376,
      "admin_name1": "Krāslavas nov."
    },
    {
      "place_name": "Podboroks",
      "postal_code": "LV-5601",
      "country_code": "LV",
      "latitude": 55.9274,
      "longitude": 27.1967,
      "admin_name1": "Krāslavas nov."
    },
    {
      "place_name": "Podozerci",
      "postal_code": "LV-5666",
      "country_code": "LV",
      "latitude": 55.9674,
      "longitude": 27.5903,
      "admin_name1": "Krāslavas nov."
    },
    {
      "place_name": "Borisovka",
      "postal_code": "LV-5666",
      "country_code": "LV",
      "latitude": 55.9674,
      "longitude": 27.5903,
      "admin_name1": "Krāslavas nov."
    },
    {
      "place_name": "Stanislavova",
      "postal_code": "LV-5666",
      "country_code": "LV",
      "latitude": 55.9674,
      "longitude": 27.5903,
      "admin_name1": "Krāslavas nov."
    },
    {
      "place_name": "Sinkeļi",
      "postal_code": "LV-5666",
      "country_code": "LV",
      "latitude": 55.9674,
      "longitude": 27.5903,
      "admin_name1": "Krāslavas nov."
    },
    {
      "place_name": "Auguļova",
      "postal_code": "LV-5666",
      "country_code": "LV",
      "latitude": 55.9674,
      "longitude": 27.5903,
      "admin_name1": "Krāslavas nov."
    },
    {
      "place_name": "Kaziņči",
      "postal_code": "LV-5671",
      "country_code": "LV",
      "latitude": 56.0152,
      "longitude": 27.3977,
      "admin_name1": "Krāslavas nov."
    },
    {
      "place_name": "Augstkalne",
      "postal_code": "LV-5601",
      "country_code": "LV",
      "latitude": 55.9274,
      "longitude": 27.1967,
      "admin_name1": "Krāslavas nov."
    },
    {
      "place_name": "Rimšāni",
      "postal_code": "LV-5601",
      "country_code": "LV",
      "latitude": 55.9456,
      "longitude": 27.0878,
      "admin_name1": "Krāslavas nov."
    },
    {
      "place_name": "Saksoni",
      "postal_code": "LV-5601",
      "country_code": "LV",
      "latitude": 55.9274,
      "longitude": 27.1967,
      "admin_name1": "Krāslavas nov."
    },
    {
      "place_name": "Bartkeviči",
      "postal_code": "LV-5601",
      "country_code": "LV",
      "latitude": 55.9274,
      "longitude": 27.1967,
      "admin_name1": "Krāslavas nov."
    },
    {
      "place_name": "Veceļi",
      "postal_code": "LV-5651",
      "country_code": "LV",
      "latitude": 55.8915,
      "longitude": 27.1155,
      "admin_name1": "Krāslavas nov."
    },
    {
      "place_name": "Strodi",
      "postal_code": "LV-5687",
      "country_code": "LV",
      "latitude": 56.1091,
      "longitude": 27.2463,
      "admin_name1": "Krāslavas nov."
    },
    {
      "place_name": "Piruški",
      "postal_code": "LV-5687",
      "country_code": "LV",
      "latitude": 56.1347,
      "longitude": 27.3673,
      "admin_name1": "Krāslavas nov."
    },
    {
      "place_name": "Usači",
      "postal_code": "LV-5687",
      "country_code": "LV",
      "latitude": 56.1347,
      "longitude": 27.3673,
      "admin_name1": "Krāslavas nov."
    },
    {
      "place_name": "Blusova",
      "postal_code": "LV-5677",
      "country_code": "LV",
      "latitude": 56.0069,
      "longitude": 27.7628,
      "admin_name1": "Krāslavas nov."
    },
    {
      "place_name": "Apaļi",
      "postal_code": "LV-5677",
      "country_code": "LV",
      "latitude": 56.0069,
      "longitude": 27.7628,
      "admin_name1": "Krāslavas nov."
    },
    {
      "place_name": "Kairīši",
      "postal_code": "LV-5698",
      "country_code": "LV",
      "latitude": 56.0864,
      "longitude": 27.7062,
      "admin_name1": "Krāslavas nov."
    },
    {
      "place_name": "Peickova",
      "postal_code": "LV-5695",
      "country_code": "LV",
      "latitude": 56.1679,
      "longitude": 27.906,
      "admin_name1": "Krāslavas nov."
    },
    {
      "place_name": "Basi",
      "postal_code": "LV-3312",
      "country_code": "LV",
      "latitude": 56.9043,
      "longitude": 21.6991,
      "admin_name1": "Kuldīgas nov."
    },
    {
      "place_name": "Vilgāle",
      "postal_code": "LV-3332",
      "country_code": "LV",
      "latitude": 56.7678,
      "longitude": 21.9414,
      "admin_name1": "Kuldīgas nov."
    },
    {
      "place_name": "Padure",
      "postal_code": "LV-3321",
      "country_code": "LV",
      "latitude": 57.0194,
      "longitude": 21.9077,
      "admin_name1": "Kuldīgas nov."
    },
    {
      "place_name": "Turlava",
      "postal_code": "LV-3329",
      "country_code": "LV",
      "latitude": 56.8352,
      "longitude": 21.7706,
      "admin_name1": "Kuldīgas nov."
    },
    {
      "place_name": "Vārme",
      "postal_code": "LV-3333",
      "country_code": "LV",
      "latitude": 56.873,
      "longitude": 22.2372,
      "admin_name1": "Kuldīgas nov."
    },
    {
      "place_name": "Pāle",
      "postal_code": "LV-4052",
      "country_code": "LV",
      "latitude": 57.699,
      "longitude": 24.6711,
      "admin_name1": "Limbažu nov."
    },
    {
      "place_name": "Mandegas",
      "postal_code": "LV-4025",
      "country_code": "LV",
      "latitude": 57.3317,
      "longitude": 24.4952,
      "admin_name1": "Limbažu nov."
    },
    {
      "place_name": "Kliši",
      "postal_code": "LV-5707",
      "country_code": "LV",
      "latitude": 56.4373,
      "longitude": 28.1803,
      "admin_name1": "Ludzas nov."
    },
    {
      "place_name": "Križuta",
      "postal_code": "LV-5735",
      "country_code": "LV",
      "latitude": 56.5148,
      "longitude": 27.5423,
      "admin_name1": "Ludzas nov."
    },
    {
      "place_name": "Būrušķi",
      "postal_code": "LV-5701",
      "country_code": "LV",
      "latitude": 56.5122,
      "longitude": 27.7266,
      "admin_name1": "Ludzas nov."
    },
    {
      "place_name": "Padari",
      "postal_code": "LV-5748",
      "country_code": "LV",
      "latitude": 56.2397,
      "longitude": 27.9485,
      "admin_name1": "Ludzas nov."
    },
    {
      "place_name": "Luņi",
      "postal_code": "LV-5748",
      "country_code": "LV",
      "latitude": 56.2706,
      "longitude": 28.0405,
      "admin_name1": "Ludzas nov."
    },
    {
      "place_name": "Horoševa",
      "postal_code": "LV-5729",
      "country_code": "LV",
      "latitude": 56.412,
      "longitude": 27.945,
      "admin_name1": "Ludzas nov."
    },
    {
      "place_name": "Juzefinova",
      "postal_code": "LV-5730",
      "country_code": "LV",
      "latitude": 56.4524,
      "longitude": 27.7578,
      "admin_name1": "Ludzas nov."
    },
    {
      "place_name": "Barsuki",
      "postal_code": "LV-5733",
      "country_code": "LV",
      "latitude": 56.3698,
      "longitude": 27.7726,
      "admin_name1": "Ludzas nov."
    },
    {
      "place_name": "Jačmenišče",
      "postal_code": "LV-5733",
      "country_code": "LV",
      "latitude": 56.3698,
      "longitude": 27.7726,
      "admin_name1": "Ludzas nov."
    },
    {
      "place_name": "Kivdolova",
      "postal_code": "LV-5745",
      "country_code": "LV",
      "latitude": 56.4642,
      "longitude": 27.6284,
      "admin_name1": "Ludzas nov."
    },
    {
      "place_name": "Nalogi",
      "postal_code": "LV-5739",
      "country_code": "LV",
      "latitude": 56.2544,
      "longitude": 27.7651,
      "admin_name1": "Ludzas nov."
    },
    {
      "place_name": "Goliševa",
      "postal_code": "LV-5704",
      "country_code": "LV",
      "latitude": 56.7402,
      "longitude": 27.8154,
      "admin_name1": "Ludzas nov."
    },
    {
      "place_name": "Kaspari",
      "postal_code": "LV-5725",
      "country_code": "LV",
      "latitude": 56.6597,
      "longitude": 27.5296,
      "admin_name1": "Ludzas nov."
    },
    {
      "place_name": "Mortuzāni",
      "postal_code": "LV-5737",
      "country_code": "LV",
      "latitude": 56.7263,
      "longitude": 27.6134,
      "admin_name1": "Ludzas nov."
    },