[
  [
    {
      "place_name": "Kachindamoto",
      "postal_code": "209104",
      "country_code": "MW",
      "latitude": -14.3606,
      "longitude": 34.2637,
      "admin_name1": "Central Region"
    },
    {
      "place_name": "Mphomwa",
      "postal_code": "201107",
      "country_code": "MW",
      "latitude": -12.8075,
      "longitude": 33.4334,
      "admin_name1": "Central Region"
    },
    {
      "place_name": "Chimbuna",
      "postal_code": "201310",
      "country_code": "MW",
      "latitude": -13.0,
      "longitude": 33.4167,
      "admin_name1": "Central Region"
    },
    {
      "place_name": "Area 17",
      "postal_code": "207217",
      "country_code": "MW",
      "latitude": -14.0196,
      "longitude": 33.6841,
      "admin_name1": "Central Region"
    },
    {
      "place_name": "Ntcheu BOMA",
      "postal_code": "210100",
      "country_code": "MW",
      "latitude": -14.75,
      "longitude": 34.75,
      "admin_name1": "Central Region"
    },
    {
      "place_name": "Kanyenda",
      "postal_code": "202102",
      "country_code": "MW",
      "latitude": -12.4676,
      "longitude": 34.0893,
      "admin_name1": "Central Region"
    },
    {
      "place_name": "Kalimanjira",
      "postal_code": "202106",
      "country_code": "MW",
      "latitude": -12.8042,
      "longitude": 34.083,
      "admin_name1": "Central Region"
    },
    {
      "place_name": "Maganga",
      "postal_code": "208106",
      "country_code": "MW",
      "latitude": -13.875,
      "longitude": 34.5778,
      "admin_name1": "Central Region"
    },
    {
      "place_name": "Kameme",
      "postal_code": "101101",
      "country_code": "MW",
      "latitude": -9.5667,
      "longitude": 33.0833,
      "admin_name1": "Northern Region"
    },
    {
      "place_name": "Songwe",
      "postal_code": "102101",
      "country_code": "MW",
      "latitude": -10.1115,
      "longitude": 33.8815,
      "admin_name1": "Northern Region"
    },
    {
      "place_name": "Ekwendeni Township",
      "postal_code": "104103",
      "country_code": "MW",
      "latitude": -11.8543,
      "longitude": 33.6078,
      "admin_name1": "Northern Region"
    },
    {
      "place_name": "Mzukuzuku",
      "postal_code": "104108",
      "country_code": "MW",
      "latitude": -11.8543,
      "longitude": 33.6078,
      "admin_name1": "Northern Region"
    },
    {
      "place_name": "Khosolo Gwaza Jere",
      "postal_code": "104113",
      "country_code": "MW",
      "latitude": -11.8543,
      "longitude": 33.6078,
      "admin_name1": "Northern Region"
    },
    {
      "place_name": "Katawa",
      "postal_code": "105211",
      "country_code": "MW",
      "latitude": -10.9333,
      "longitude": 34.0167,
      "admin_name1": "Northern Region"
    },
    {
      "place_name": "Mwalweni",
      "postal_code": "103101",
      "country_code": "MW",
      "latitude": -10.8029,
      "longitude": 33.8052,
      "admin_name1": "Northern Region"
    },
    {
      "place_name": "Mwankhunikira",
      "postal_code": "103106",
      "country_code": "MW",
      "latitude": -10.8029,
      "longitude": 33.8052,
      "admin_name1": "Northern Region"
    },
    {
      "place_name": "Nyika National Park",
      "postal_code": "103112",
      "country_code": "MW",
      "latitude": -10.8029,
      "longitude": 33.8052,
      "admin_name1": "Northern Region"
    },
    {
      "place_name": "Lengwe National Park",
      "postal_code": "315114",
      "country_code": "MW",
      "latitude": -16.1667,
      "longitude": 34.75,
      "admin_name1": "Southern Region"
    },
    {
      "place_name": "Mpunga",
      "postal_code": "306108",
      "country_code": "MW",
      "latitude": -14.8,
      "longitude": 35.5833,
      "admin_name1": "Southern Region"
    },
    {
      "place_name": "Mikomwa",
      "postal_code": "301404",
      "country_code": "MW",
      "latitude": -14.393,
      "longitude": 35.3466,
      "admin_name1": "Southern Region"
    },
    {
      "place_name": "Mapanga",
      "postal_code": "312201",
      "country_code": "MW",
      "latitude": -15.6473,
      "longitude": 34.9396,
      "admin_name1": "Southern Region"
    },
    {
      "place_name": "Misesa",
      "postal_code": "312234",
      "country_code": "MW",
      "latitude": -15.6473,
      "longitude": 34.9396,
      "admin_name1": "Southern Region"
    },
    {
      "place_name": "Chiwembe",
      "postal_code": "312235",
      "country_code": "MW",
      "latitude": -15.8344,
      "longitude": 35.0509,
      "admin_name1": "Southern Region"
    },
    {
      "place_name": "Msamala",
      "postal_code": "302107",
      "country_code": "MW",
      "latitude": -15.0484,
      "longitude": 35.0591,
      "admin_name1": "Southern Region"
    },
    {
      "place_name": "Chikumbu",
      "postal_code": "308104",
      "country_code": "MW",
      "latitude": -15.4667,
      "longitude": 35.35,
      "admin_name1": "Southern Region"
    },
    {
      "place_name": "Chiwalo",
      "postal_code": "307102",
      "country_code": "MW",
      "latitude": -14.7333,
      "longitude": 35.5333,
      "admin_name1": "Southern Region"
    },
    {
      "place_name": "Chakhaza",
      "postal_code": "204101",
      "country_code": "MW",
      "latitude": -13.65,
      "longitude": 33.7333,
      "admin_name1": "Central Region"
    },
    {
      "place_name": "Chiwere",
      "postal_code": "204109",
      "country_code": "MW",
      "latitude": -13.7667,
      "longitude": 34.1333,
      "admin_name1": "Central Region"
    },
    {
      "place_name": "Area 9",
      "postal_code": "207209",
      "country_code": "MW",
      "latitude": -14.0196,
      "longitude": 33.6841,
      "admin_name1": "Central Region"
    },
    {
      "place_name": "Area 12",
      "postal_code": "207212",
      "country_code": "MW",
      "latitude": -14.0196,
      "longitude": 33.6841,
      "admin_name1": "Central Region"
    },
    {
      "place_name": "Area 23",
      "postal_code": "207223",
      "country_code": "MW",
      "latitude": -14.0168,
      "longitude": 33.7941,
      "admin_name1": "Central Region"
    },
    {
      "place_name": "Area 25",
      "postal_code": "207225",
      "country_code": "MW",
      "latitude": -13.8795,
      "longitude": 33.7242,
      "admin_name1": "Central Region"
    },
    {
      "place_name": "Kambwiri",
      "postal_code": "208107",
      "country_code": "MW",
      "latitude": -13.7955,
      "longitude": 34.4081,
      "admin_name1": "Central Region"
    },
    {
      "place_name": "Nthalire",
      "postal_code": "101108",
      "country_code": "MW",
      "latitude": -10.3349,
      "longitude": 33.6257,
      "admin_name1": "Northern Region"
    },
    {
      "place_name": "Chindi",
      "postal_code": "104105",
      "country_code": "MW",
      "latitude": -11.45,
      "longitude": 33.4167,
      "admin_name1": "Northern Region"
    },
    {
      "place_name": "Kwethemule",
      "postal_code": "310111",
      "country_code": "MW",
      "latitude": -16.1058,
      "longitude": 35.1506,
      "admin_name1": "Southern Region"
    },
    {
      "place_name": "Mbwana Nyambi",
      "postal_code": "301106",
      "country_code": "MW",
      "latitude": -14.393,
      "longitude": 35.3466,
      "admin_name1": "Southern Region"
    },
    {
      "place_name": "Mangochi Central Township",
      "postal_code": "301400",
      "country_code": "MW",
      "latitude": -14.393,
      "longitude": 35.3466,
      "admin_name1": "Southern Region"
    },
    {
      "place_name": "Makata",
      "postal_code": "311108",
      "country_code": "MW",
      "latitude": -15.7872,
      "longitude": 35.0305,
      "admin_name1": "Southern Region"
    },
    {
      "place_name": "Kanjedza",
      "postal_code": "312227",
      "country_code": "MW",
      "latitude": -15.8175,
      "longitude": 35.0474,
      "admin_name1": "Southern Region"
    },
    {
      "place_name": "Dedza Township",
      "postal_code": "209100",
      "country_code": "MW",
      "latitude": -14.2627,
      "longitude": 34.1856,
      "admin_name1": "Central Region"
    },
    {
      "place_name": "Dzoole",
      "postal_code": "204102",
      "country_code": "MW",
      "latitude": -13.5791,
      "longitude": 33.6588,
      "admin_name1": "Central Region"
    },
    {
      "place_name": "Msakambewa",
      "postal_code": "204106",
      "country_code": "MW",
      "latitude": -13.5357,
      "longitude": 33.9178,
      "admin_name1": "Central Region"
    },
    {
      "place_name": "Lukwa",
      "postal_code": "201119",
      "country_code": "MW",
      "latitude": -13.1,
      "longitude": 33.45,
      "admin_name1": "Central Region"
    },
    {
      "place_name": "Tsabango",
      "postal_code": "206112",
      "country_code": "MW",
      "latitude": -14.0196,
      "longitude": 33.6841,
      "admin_name1": "Central Region"
    },
    {
      "place_name": "Area 24",
      "postal_code": "207224",
      "country_code": "MW",
      "latitude": -14.026,
      "longitude": 33.7956,
      "admin_name1": "Central Region"
    },
    {
      "place_name": "Pitala",
      "postal_code": "205104",
      "country_code": "MW",
      "latitude": -13.7623,
      "longitude": 33.08,
      "admin_name1": "Central Region"
    },
    {
      "place_name": "Fukamapiri",
      "postal_code": "106112",
      "country_code": "MW",
      "latitude": -11.952,
      "longitude": 34.1163,
      "admin_name1": "Northern Region"
    },
    {
      "place_name": "Boyidi",
      "postal_code": "310104",
      "country_code": "MW",
      "latitude": -16.1058,
      "longitude": 35.1506,
      "admin_name1": "Southern Region"
    },
    {
      "place_name": "Mbawela",
      "postal_code": "310113",
      "country_code": "MW",
      "latitude": -16.1058,
      "longitude": 35.1506,
      "admin_name1": "Southern Region"
    },
    {
      "place_name": "Namabvi",
      "postal_code": "301102",
      "country_code": "MW",
      "latitude": -14.393,
      "longitude": 35.3466,
      "admin_name1": "Southern Region"
    },
    {
      "place_name": "Malemia",
      "postal_code": "316105",
      "country_code": "MW",
      "latitude": -16.45,
      "longitude": 34.8833,
      "admin_name1": "Southern Region"
    },
    {
      "place_name": "Mponda Bwino",
      "postal_code": "305216",
      "country_code": "MW",
      "latitude": -15.4301,
      "longitude": 35.4183,
      "admin_name1": "Southern Region"
    },
    {
      "place_name": "Ndirande",
      "postal_code": "312205",
      "country_code": "MW",
      "latitude": -15.7697,
      "longitude": 35.0416,
      "admin_name1": "Southern Region"
    },
    {
      "place_name": "Nancholi",
      "postal_code": "312215",
      "country_code": "MW",
      "latitude": -15.6473,
      "longitude": 34.9396,
      "admin_name1": "Southern Region"
    },
    {
      "place_name": "Chigumula",
      "postal_code": "312238",
      "country_code": "MW",
      "latitude": -15.916,
      "longitude": 35.0554,
      "admin_name1": "Southern Region"
    },
    {
      "place_name": "Tombondiya",
      "postal_code": "308105",
      "country_code": "MW",
      "latitude": -15.9344,
      "longitude": 35.4999,
      "admin_name1": "Southern Region"
    },
    {
      "place_name": "Mtema",
      "postal_code": "206103",
      "country_code": "MW",
      "latitude": -13.8167,
      "longitude": 33.6667,
      "admin_name1": "Central Region"
    },
    {
      "place_name": "Chiseka",
      "postal_code": "206117",
      "country_code": "MW",
      "latitude": -14.0196,
      "longitude": 33.6841,
      "admin_name1": "Central Region"
    },
    {
      "place_name": "Area 3",
      "postal_code": "207203",
      "country_code": "MW",
      "latitude": -14.0196,
      "longitude": 33.6841,
      "admin_name1": "Central Region"
    },
    {
      "place_name": "Area 22",
      "postal_code": "207222",
      "country_code": "MW",
      "latitude": -14.0116,
      "longitude": 33.7991,
      "admin_name1": "Central Region"
    },
    {
      "place_name": "Mchinji BOMA",
      "postal_code": "205100",
      "country_code": "MW",
      "latitude": -13.7623,
      "longitude": 33.08,
      "admin_name1": "Central Region"
    },
    {
      "place_name": "Mkanda",
      "postal_code": "205102",
      "country_code": "MW",
      "latitude": -13.5147,
      "longitude": 32.9597,
      "admin_name1": "Central Region"
    },
    {
      "place_name": "Kwataine",
      "postal_code": "210105",
      "country_code": "MW",
      "latitude": -14.8333,
      "longitude": 34.6833,
      "admin_name1": "Central Region"
    },
    {
      "place_name": "Mwansambo",
      "postal_code": "202108",
      "country_code": "MW",
      "latitude": -13.3093,
      "longitude": 34.1178,
      "admin_name1": "Central Region"
    },
    {
      "place_name": "Ndindi",
      "postal_code": "208109",
      "country_code": "MW",
      "latitude": -13.9725,
      "longitude": 34.5132,
      "admin_name1": "Central Region"
    },
    {
      "place_name": "Malanda",
      "postal_code": "106109",
      "country_code": "MW",
      "latitude": -11.8667,
      "longitude": 34.1667,
      "admin_name1": "Northern Region"
    },
    {
      "place_name": "Ndalama",
      "postal_code": "310108",
      "country_code": "MW",
      "latitude": -16.1058,
      "longitude": 35.1506,
      "admin_name1": "Southern Region"
    },
    {
      "place_name": "Lulanga",
      "postal_code": "301100",
      "country_code": "MW",
      "latitude": -14.7833,
      "longitude": 35.6833,
      "admin_name1": "Southern Region"
    },
    {
      "place_name": "Ngwelero",
      "postal_code": "304110",
      "country_code": "MW",
      "latitude": -15.4301,
      "longitude": 35.4183,
      "admin_name1": "Southern Region"
    },
    {
      "place_name": "Nandolo",
      "postal_code": "305204",
      "country_code": "MW",
      "latitude": -15.4301,
      "longitude": 35.4183,
      "admin_name1": "Southern Region"
    },
    {
      "place_name": "Bangwe",
      "postal_code": "312231",
      "country_code": "MW",
      "latitude": -15.8226,
      "longitude": 35.1006,
      "admin_name1": "Southern Region"
    },
    {
      "place_name": "Mwanza BOMA",
      "postal_code": "314100",
      "country_code": "MW",
      "latitude": -15.6334,
      "longitude": 34.5168,
      "admin_name1": "Southern Region"
    },
    {
      "place_name": "Nkoola",
      "postal_code": "303108",
      "country_code": "MW",
      "latitude": -14.9458,
      "longitude": 35.5737,
      "admin_name1": "Southern Region"
    },
    {
      "place_name": "Nthiramanja",
      "postal_code": "308103",
      "country_code": "MW",
      "latitude": -15.9344,
      "longitude": 35.4999,
      "admin_name1": "Southern Region"
    },
    {
      "place_name": "Chekucheku",
      "postal_code": "313102",
      "country_code": "MW",
      "latitude": -15.4505,
      "longitude": 34.7003,
      "admin_name1": "Southern Region"
    },
    {
      "place_name": "Kachere",
      "postal_code": "209108",
      "country_code": "MW",
      "latitude": -14.4167,
      "longitude": 34.1167,
      "admin_name1": "Central Region"
    },
    {
      "place_name": "Mkukula",
      "postal_code": "204107",
      "country_code": "MW",
      "latitude": -13.7545,
      "longitude": 33.8265,
      "admin_name1": "Central Region"
    },
    {
      "place_name": "Chambwe",
      "postal_code": "201116",
      "country_code": "MW",
      "latitude": -13.2,
      "longitude": 33.65,
      "admin_name1": "Central Region"
    },
    {
      "place_name": "Mponda",
      "postal_code": "201302",
      "country_code": "MW",
      "latitude": -13.6333,
      "longitude": 33.45,
      "admin_name1": "Central Region"
    },
    {
      "place_name": "Mazengera",
      "postal_code": "206108",
      "country_code": "MW",
      "latitude": -14.0667,
      "longitude": 33.9667,
      "admin_name1": "Central Region"
    },
    {
      "place_name": "Masula",
      "postal_code": "206118",
      "country_code": "MW",
      "latitude": -14.1597,
      "longitude": 33.6943,
      "admin_name1": "Central Region"
    },
    {
      "place_name": "Area 34",
      "postal_code": "207234",
      "country_code": "MW",
      "latitude": -14.0196,
      "longitude": 33.6841,
      "admin_name1": "Central Region"
    },
    {
      "place_name": "Area 36",
      "postal_code": "207236",
      "country_code": "MW",
      "latitude": -14.0226,
      "longitude": 33.7847,
      "admin_name1": "Central Region"
    },
    {
      "place_name": "Hilltop",
      "postal_code": "105208",
      "country_code": "MW",
      "latitude": -11.8543,
      "longitude": 33.6078,
      "admin_name1": "Northern Region"
    },
    {
      "place_name": "Mwamlowe",
      "postal_code": "103104",
      "country_code": "MW",
      "latitude": -10.8029,
      "longitude": 33.8052,
      "admin_name1": "Northern Region"
    },
    {
      "place_name": "Monkey Bay Township",
      "postal_code": "301109",
      "country_code": "MW",
      "latitude": -14.393,
      "longitude": 35.3466,
      "admin_name1": "Southern Region"
    },
    {
      "place_name": "Chimwala",
      "postal_code": "301113",
      "country_code": "MW",
      "latitude": -14.6386,
      "longitude": 35.1833,
      "admin_name1": "Southern Region"
    },
    {
      "place_name": "Thundu",
      "postal_code": "301402",
      "country_code": "MW",
      "latitude": -14.393,
      "longitude": 35.3466,
      "admin_name1": "Southern Region"
    },
    {
      "place_name": "Chikole",
      "postal_code": "301411",
      "country_code": "MW",
      "latitude": -14.393,
      "longitude": 35.3466,
      "admin_name1": "Southern Region"
    },
    {
      "place_name": "Kuntaja",
      "postal_code": "311104",
      "country_code": "MW",
      "latitude": -15.513,
      "longitude": 34.4933,
      "admin_name1": "Southern Region"
    },
    {
      "place_name": "Kameza",
      "postal_code": "312207",
      "country_code": "MW",
      "latitude": -15.6473,
      "longitude": 34.9396,
      "admin_name1": "Southern Region"
    },
    {
      "place_name": "Govati",
      "postal_code": "314103",
      "country_code": "MW",
      "latitude": -15.6334,
      "longitude": 34.5168,
      "admin_name1": "Southern Region"
    },
    {
      "place_name": "Jenala",
      "postal_code": "307103",
      "country_code": "MW",
      "latitude": -15.6667,
      "longitude": 35.6667,
      "admin_name1": "Southern Region"
    },
    {
      "place_name": "Symon Likongwe",
      "postal_code": "313103",
      "country_code": "MW",
      "latitude": -15.4505,
      "longitude": 34.7003,
      "admin_name1": "Southern Region"
    },
    {
      "place_name": "Kaphaizi",
      "postal_code": "201108",
      "country_code": "MW",
      "latitude": -13.0,
      "longitude": 33.4167,
      "admin_name1": "Central Region"
    },
    {
      "place_name": "Wimbe",
      "postal_code": "201111",
      "country_code": "MW",
      "latitude": -12.9765,
      "longitude": 33.6837,
      "admin_name1": "Central Region"
    },
    {
      "place_name": "Area 13",
      "postal_code": "207213",
      "country_code": "MW",
      "latitude": -14.0196,
      "longitude": 33.6841,
      "admin_name1": "Central Region"
    },
    {
      "place_name": "Area 35",
      "postal_code": "207235",
      "country_code": "MW",
      "latitude": -14.0196,
      "longitude": 33.6841,
      "admin_name1": "Central Region"
    },
    {
      "place_name": "Mwanza",
      "postal_code": "208103",
      "country_code": "MW",
      "latitude": -13.6,
      "longitude": 33.4667,
      "admin_name1": "Central Region"
    },
    {
      "place_name": "Kambalame",
      "postal_code": "208111",
      "country_code": "MW",
      "latitude": -13.7196,
      "longitude": 34.4018,
      "admin_name1": "Central Region"
    },
    {
      "place_name": "Kilupula",
      "postal_code": "102103",
      "country_code": "MW",
      "latitude": -10.1115,
      "longitude": 33.8815,
      "admin_name1": "Northern Region"
    },
    {
      "place_name": "Kyungu",
      "postal_code": "102104",
      "country_code": "MW",
      "latitude": -10.1115,
      "longitude": 33.8815,
      "admin_name1": "Northern Region"
    },
    {
      "place_name": "Kampingo Sibande",
      "postal_code": "104106",
      "country_code": "MW",
      "latitude": -11.4833,
      "longitude": 33.8,
      "admin_name1": "Northern Region"
    },
    {
      "place_name": "Kaningína",
      "postal_code": "105214",
      "country_code": "MW",
      "latitude": -11.4656,
      "longitude": 34.0207,
      "admin_name1": "Northern Region"
    },
    {
      "place_name": "Mkondowe",
      "postal_code": "106101",
      "country_code": "MW",
      "latitude": -11.0417,
      "longitude": 34.2127,
      "admin_name1": "Northern Region"
    },
    {
      "place_name": "Makhwira",
      "postal_code": "315109",
      "country_code": "MW",
      "latitude": -16.1667,
      "longitude": 34.75,
      "admin_name1": "Southern Region"
    },
    {
      "place_name": "Chilipa",
      "postal_code": "301112",
      "country_code": "MW",
      "latitude": -14.698,
      "longitude": 34.9779,
      "admin_name1": "Southern Region"
    },
    {
      "place_name": "Lake Malawi National Park",
      "postal_code": "301114",
      "country_code": "MW",
      "latitude": -14.393,
      "longitude": 35.3466,
      "admin_name1": "Southern Region"
    },
    {
      "place_name": "Makoko",
      "postal_code": "316107",
      "country_code": "MW",
      "latitude": -17.0022,
      "longitude": 35.1912,
      "admin_name1": "Southern Region"
    },
    {
      "place_name": "Lunzu Township",
      "postal_code": "311107",
      "country_code": "MW",
      "latitude": -15.6473,
      "longitude": 34.9396,
      "admin_name1": "Southern Region"
    },
    {
      "place_name": "Mbayani",
      "postal_code": "312210",
      "country_code": "MW",
      "latitude": -15.7717,
      "longitude": 35.003,
      "admin_name1": "Southern Region"
    },
    {
      "place_name": "Laston Njema",
      "postal_code": "308108",
      "country_code": "MW",
      "latitude": -15.9344,
      "longitude": 35.4999,
      "admin_name1": "Southern Region"
    },
    {
      "place_name": "Chilowamatambe",
      "postal_code": "201115",
      "country_code": "MW",
      "latitude": -13.0,
      "longitude": 33.4167,
      "admin_name1": "Central Region"
    },
    {
      "place_name": "Mangwazu",
      "postal_code": "201117",
      "country_code": "MW",
      "latitude": -13.0,
      "longitude": 33.4167,
      "admin_name1": "Central Region"
    },
    {
      "place_name": "Chidzuma",
      "postal_code": "201124",
      "country_code": "MW",
      "latitude": -13.0,
      "longitude": 33.4167,
      "admin_name1": "Central Region"
    },
    {
      "place_name": "Area 8",
      "postal_code": "207208",
      "country_code": "MW",
      "latitude": -14.0196,
      "longitude": 33.6841,
      "admin_name1": "Central Region"
    },
    {
      "place_name": "Area 14",
      "postal_code": "207214",
      "country_code": "MW",
      "latitude": -14.0196,
      "longitude": 33.6841,
      "admin_name1": "Central Region"
    },
    {
      "place_name": "Area 28",
      "postal_code": "207228",
      "country_code": "MW",
      "latitude": -14.0196,
      "longitude": 33.6841,
      "admin_name1": "Central Region"
    },
    {
      "place_name": "Area 54",
      "postal_code": "207254",
      "country_code": "MW",
      "latitude": -14.0196,
      "longitude": 33.6841,
      "admin_name1": "Central Region"
    },
    {
      "place_name": "Area 56",
      "postal_code": "207256",
      "country_code": "MW",
      "latitude": -14.0196,
      "longitude": 33.6841,
      "admin_name1": "Central Region"
    },
    {
      "place_name": "Mtwalo",
      "postal_code": "104102",
      "country_code": "MW",
      "latitude": -11.3833,
      "longitude": 33.75,
      "admin_name1": "Northern Region"
    },
    {
      "place_name": "Mabulabo",
      "postal_code": "104112",
      "country_code": "MW",
      "latitude": -12.5954,
      "longitude": 33.6011,
      "admin_name1": "Northern Region"
    },
    {
      "place_name": "Chibanja",
      "postal_code": "105205",
      "country_code": "MW",
      "latitude": -11.8543,
      "longitude": 33.6078,
      "admin_name1": "Northern Region"
    },
    {
      "place_name": "Mlilima",
      "postal_code": "315103",
      "country_code": "MW",
      "latitude": -16.1667,
      "longitude": 34.75,
      "admin_name1": "Southern Region"
    },
    {
      "place_name": "Ngolongoliwa",
      "postal_code": "310106",
      "country_code": "MW",
      "latitude": -16.1058,
      "longitude": 35.1506,
      "admin_name1": "Southern Region"
    },
    {
      "place_name": "Ndola",
      "postal_code": "305201",
      "country_code": "MW",
      "latitude": -15.4301,
      "longitude": 35.4183,
      "admin_name1": "Southern Region"
    },
    {
      "place_name": "St Mary",
      "postal_code": "305203",
      "country_code": "MW",
      "latitude": -15.4301,
      "longitude": 35.4183,
      "admin_name1": "Southern Region"
    },
    {
      "place_name": "Masongola",
      "postal_code": "305206",
      "country_code": "MW",
      "latitude": -15.4301,
      "longitude": 35.4183,
      "admin_name1": "Southern Region"
    },
    {
      "place_name": "Three Miles",
      "postal_code": "305217",
      "country_code": "MW",
      "latitude": -15.4301,
      "longitude": 35.4183,
      "admin_name1": "Southern Region"
    },
    {
      "place_name": "Chitawira",
      "postal_code": "312221",
      "country_code": "MW",
      "latitude": -15.6473,
      "longitude": 34.9396,
      "admin_name1": "Southern Region"
    },
    {
      "place_name": "Mudi",
      "postal_code": "312228",
      "country_code": "MW",
      "latitude": -15.8012,
      "longitude": 35.0727,
      "admin_name1": "Southern Region"
    },
    {
      "place_name": "Liwonde",
      "postal_code": "303110",
      "country_code": "MW",
      "latitude": -15.0667,
      "longitude": 35.2254,
      "admin_name1": "Southern Region"
    },
    {
      "place_name": "Kaluluma",
      "postal_code": "201101",
      "country_code": "MW",
      "latitude": -12.5783,
      "longitude": 33.5196,
      "admin_name1": "Central Region"
    },
    {
      "place_name": "Kapalankhwazi",
      "postal_code": "201307",
      "country_code": "MW",
      "latitude": -13.0,
      "longitude": 33.4167,
      "admin_name1": "Central Region"
    },
    {
      "place_name": "Chitukula",
      "postal_code": "206105",
      "country_code": "MW",
      "latitude": -13.7819,
      "longitude": 33.7493,
      "admin_name1": "Central Region"
    },
    {
      "place_name": "Chimutu",
      "postal_code": "206106",
      "country_code": "MW",
      "latitude": -14.0667,
      "longitude": 33.8167,
      "admin_name1": "Central Region"
    },
    {
      "place_name": "Chitekwele",
      "postal_code": "206107",
      "country_code": "MW",
      "latitude": -14.0196,
      "longitude": 33.6841,
      "admin_name1": "Central Region"
    },
    {
      "place_name": "Area 38",
      "postal_code": "207238",
      "country_code": "MW",
      "latitude": -14.0196,
      "longitude": 33.6841,
      "admin_name1": "Central Region"
    },
    {
      "place_name": "Kapondo",
      "postal_code": "205107",
      "country_code": "MW",
      "latitude": -13.7623,
      "longitude": 33.08,
      "admin_name1": "Central Region"
    },
    {
      "place_name": "Mwadzama",
      "postal_code": "202107",
      "country_code": "MW",
      "latitude": -13.4116,
      "longitude": 34.2848,
      "admin_name1": "Central Region"
    },
    {
      "place_name": "Levi Jere",
      "postal_code": "104110",
      "country_code": "MW",
      "latitude": -12.351,
      "longitude": 33.5664,
      "admin_name1": "Northern Region"
    },
    {
      "place_name": "Chapananga",
      "postal_code": "315101",
      "country_code": "MW",
      "latitude": -16.0528,
      "longitude": 34.7777,
      "admin_name1": "Southern Region"
    },
    {
      "place_name": "Majete Game Reserve",
      "postal_code": "315115",
      "country_code": "MW",
      "latitude": -16.1667,
      "longitude": 34.75,
      "admin_name1": "Southern Region"
    },
    {
      "place_name": "Mlumbe",
      "postal_code": "304106",
      "country_code": "MW",
      "latitude": -15.4301,
      "longitude": 35.4183,
      "admin_name1": "Southern Region"
    },
    {
      "place_name": "Somba",
      "postal_code": "311110",
      "country_code": "MW",
      "latitude": -15.8667,
      "longitude": 34.9667,
      "admin_name1": "Southern Region"
    },
    {
      "place_name": "Toleza",
      "postal_code": "302104",
      "country_code": "MW",
      "latitude": -14.9319,
      "longitude": 35.0084,
      "admin_name1": "Southern Region"
    },
    {
      "place_name": "Nkaya",
      "postal_code": "302110",
      "country_code": "MW",
      "latitude": -15.1282,
      "longitude": 35.0298,
      "admin_name1": "Southern Region"
    },
    {
      "place_name": "Chesale",
      "postal_code": "303103",
      "country_code": "MW",
      "latitude": -14.9458,
      "longitude": 35.5737,
      "admin_name1": "Southern Region"
    },
    {
      "place_name": "Kaduya",
      "postal_code": "307105",
      "country_code": "MW",
      "latitude": -15.6667,
      "longitude": 35.6667,
      "admin_name1": "Southern Region"
    },
    {
      "place_name": "Dambe",
      "postal_code": "313101",
      "country_code": "MW",
      "latitude": -15.3819,
      "longitude": 34.5709,
      "admin_name1": "Southern Region"
    },
    {
      "place_name": "Area 27",
      "postal_code": "207227",
      "country_code": "MW",
      "latitude": -14.0196,
      "longitude": 33.6841,
      "admin_name1": "Central Region"
    },
    {
      "place_name": "Phambala",
      "postal_code": "210110",
      "country_code": "MW",
      "latitude": -14.1167,
      "longitude": 33.9667,
      "admin_name1": "Central Region"
    },
    {
      "place_name": "Nthondo",
      "postal_code": "203102",
      "country_code": "MW",
      "latitude": -13.25,
      "longitude": 34.0167,
      "admin_name1": "Central Region"
    },
    {
      "place_name": "Kuluunda",
      "postal_code": "208104",
      "country_code": "MW",
      "latitude": -13.7196,
      "longitude": 34.4018,
      "admin_name1": "Central Region"
    },
    {
      "place_name": "Mkumbira",
      "postal_code": "106106",
      "country_code": "MW",
      "latitude": -11.653,
      "longitude": 34.0532,
      "admin_name1": "Northern Region"
    },
    {
      "place_name": "Kalungu",
      "postal_code": "301406",
      "country_code": "MW",
      "latitude": -14.393,
      "longitude": 35.3466,
      "admin_name1": "Southern Region"
    },
    {
      "place_name": "Mbenje",
      "postal_code": "316102",
      "country_code": "MW",
      "latitude": -16.9804,
      "longitude": 35.2135,
      "admin_name1": "Southern Region"
    },
    {
      "place_name": "Old Naisi",
      "postal_code": "305209",
      "country_code": "MW",
      "latitude": -15.4301,
      "longitude": 35.4183,
      "admin_name1": "Southern Region"
    },
    {
      "place_name": "Chilomoni",
      "postal_code": "312212",
      "country_code": "MW",
      "latitude": -15.7793,
      "longitude": 34.9824,
      "admin_name1": "Southern Region"
    },
    {
      "place_name": "Sitola",
      "postal_code": "303116",
      "country_code": "MW",
      "latitude": -14.9458,
      "longitude": 35.5737,
      "admin_name1": "Southern Region"
    },
    {
      "place_name": "Chankhanga",
      "postal_code": "201305",
      "country_code": "MW",
      "latitude": -13.0,
      "longitude": 33.4167,
      "admin_name1": "Central Region"
    },
    {
      "place_name": "Area 32",
      "postal_code": "207232",
      "country_code": "MW",
      "latitude": -14.0196,
      "longitude": 33.6841,
      "admin_name1": "Central Region"
    },
    {
      "place_name": "Area 55",
      "postal_code": "207255",
      "country_code": "MW",
      "latitude": -13.8343,
      "longitude": 33.7631,
      "admin_name1": "Central Region"
    },
    {
      "place_name": "Malenga Chanzi",
      "postal_code": "202105",
      "country_code": "MW",
      "latitude": -12.8042,
      "longitude": 34.083,
      "admin_name1": "Central Region"
    },
    {
      "place_name": "Kalumo",
      "postal_code": "203105",
      "country_code": "MW",
      "latitude": -13.2957,
      "longitude": 33.908,
      "admin_name1": "Central Region"
    },
    {
      "place_name": "Vuso Jere",
      "postal_code": "203106",
      "country_code": "MW",
      "latitude": -13.2957,
      "longitude": 33.908,
      "admin_name1": "Central Region"
    },
    {
      "place_name": "Chitipa BOMA",
      "postal_code": "101100",
      "country_code": "MW",
      "latitude": -9.9273,
      "longitude": 33.4254,
      "admin_name1": "Northern Region"
    },
    {
      "place_name": "Jaravikuba Munthali",
      "postal_code": "104101",
      "country_code": "MW",
      "latitude": -11.8543,
      "longitude": 33.6078,
      "admin_name1": "Northern Region"
    },
    {
      "place_name": "Mwahenga",
      "postal_code": "103107",
      "country_code": "MW",
      "latitude": -10.9167,
      "longitude": 33.9833,
      "admin_name1": "Northern Region"
    },
    {
      "place_name": "Chikwawa BOMA",
      "postal_code": "315100",
      "country_code": "MW",
      "latitude": -16.1667,
      "longitude": 34.75,
      "admin_name1": "Southern Region"
    },
    {
      "place_name": "Sandaraki",
      "postal_code": "306104",
      "country_code": "MW",
      "latitude": -15.7527,
      "longitude": 35.2158,
      "admin_name1": "Southern Region"
    },
    {
      "place_name": "Kadewere",
      "postal_code": "306105",
      "country_code": "MW",
      "latitude": -15.5,
      "longitude": 35.3833,
      "admin_name1": "Southern Region"
    },
    {
      "place_name": "Nanseta",
      "postal_code": "310107",
      "country_code": "MW",
      "latitude": -16.1058,
      "longitude": 35.1506,
      "admin_name1": "Southern Region"
    },
    {
      "place_name": "Makanjila",
      "postal_code": "301101",
      "country_code": "MW",
      "latitude": -13.7088,
      "longitude": 35.0448,
      "admin_name1": "Southern Region"
    },
    {
      "place_name": "Mtumbwasi",
      "postal_code": "301408",
      "country_code": "MW",
      "latitude": -14.393,
      "longitude": 35.3466,
      "admin_name1": "Southern Region"
    },
    {
      "place_name": "Nsanje BOMA",
      "postal_code": "316100",
      "country_code": "MW",
      "latitude": -16.75,
      "longitude": 35.1667,
      "admin_name1": "Southern Region"
    },
    {
      "place_name": "Mwabvi Game Reserve",
      "postal_code": "316111",
      "country_code": "MW",
      "latitude": -16.75,
      "longitude": 35.1667,
      "admin_name1": "Southern Region"
    },
    {
      "place_name": "Kuntumanji",
      "postal_code": "304103",
      "country_code": "MW",
      "latitude": -15.4301,
      "longitude": 35.4183,
      "admin_name1": "Southern Region"
    },
    {
      "place_name": "Mbiza",
      "postal_code": "304111",
      "country_code": "MW",
      "latitude": -15.4301,
      "longitude": 35.4183,
      "admin_name1": "Southern Region"
    },
    {
      "place_name": "South Lunzu",
      "postal_code": "312206",
      "country_code": "MW",
      "latitude": -15.6473,
      "longitude": 34.9396,
      "admin_name1": "Southern Region"
    },
    {
      "place_name": "Mlomba",
      "postal_code": "303112",
      "country_code": "MW",
      "latitude": -15.0379,
      "longitude": 35.4639,
      "admin_name1": "Southern Region"
    },
    {
      "place_name": "Mlauli",
      "postal_code": "313105",
      "country_code": "MW",
      "latitude": -15.4761,
      "longitude": 34.6363,
      "admin_name1": "Southern Region"
    },
    {
      "place_name": "Dowa BOMA",
      "postal_code": "204100",
      "country_code": "MW",
      "latitude": -13.601,
      "longitude": 33.8238,
      "admin_name1": "Central Region"
    },
    {
      "place_name": "Santhe",
      "postal_code": "201125",
      "country_code": "MW",
      "latitude": -13.467,
      "longitude": 33.3838,
      "admin_name1": "Central Region"
    },
    {
      "place_name": "Kasalika",
      "postal_code": "201306",
      "country_code": "MW",
      "latitude": -13.0333,
      "longitude": 33.5,
      "admin_name1": "Central Region"
    },
    {
      "place_name": "Area 48",
      "postal_code": "207248",
      "country_code": "MW",
      "latitude": -14.0196,
      "longitude": 33.6841,
      "admin_name1": "Central Region"
    },
    {
      "place_name": "Area 51",
      "postal_code": "207251",
      "country_code": "MW",
      "latitude": -14.0196,
      "longitude": 33.6841,
      "admin_name1": "Central Region"
    },
    {
      "place_name": "Pemba",
      "postal_code": "208108",
      "country_code": "MW",
      "latitude": -13.8199,
      "longitude": 34.5126,
      "admin_name1": "Central Region"
    },
    {
      "place_name": "Bulambya Songwe",
      "postal_code": "101102",
      "country_code": "MW",
      "latitude": -9.9273,
      "longitude": 33.4254,
      "admin_name1": "Northern Region"
    },
    {
      "place_name": "Luwinga",
      "postal_code": "105203",
      "country_code": "MW",
      "latitude": -11.8543,
      "longitude": 33.6078,
      "admin_name1": "Northern Region"
    },
    {
      "place_name": "Msongwe",
      "postal_code": "105216",
      "country_code": "MW",
      "latitude": -11.8543,
      "longitude": 33.6078,
      "admin_name1": "Northern Region"
    },
    {
      "place_name": "Nyaluwanga",
      "postal_code": "106104",
      "country_code": "MW",
      "latitude": -11.653,
      "longitude": 34.0532,
      "admin_name1": "Northern Region"
    },
    {
      "place_name": "Zilakoma",
      "postal_code": "106113",
      "country_code": "MW",
      "latitude": -12.0905,
      "longitude": 34.0557,
      "admin_name1": "Northern Region"
    },
    {
      "place_name": "Onga",
      "postal_code": "306106",
      "country_code": "MW",
      "latitude": -15.35,
      "longitude": 35.3833,
      "admin_name1": "Southern Region"
    },
    {
      "place_name": "Chimaliro",
      "postal_code": "310105",
      "country_code": "MW",
      "latitude": -16.1058,
      "longitude": 35.1506,
      "admin_name1": "Southern Region"
    },
    {
      "place_name": "Namiwawa",
      "postal_code": "312213",
      "country_code": "MW",
      "latitude": -15.6473,
      "longitude": 34.9396,
      "admin_name1": "Southern Region"
    },
    {
      "place_name": "Balaka",
      "postal_code": "302100",
      "country_code": "MW",
      "latitude": -14.9793,
      "longitude": 34.9557,
      "admin_name1": "Southern Region"
    },
    {
      "place_name": "Kapichira",
      "postal_code": "201113",
      "country_code": "MW",
      "latitude": -12.8833,
      "longitude": 33.9333,
      "admin_name1": "Central Region"
    },
    {
      "place_name": "Chitete",
      "postal_code": "201308",
      "country_code": "MW",
      "latitude": -13.4167,
      "longitude": 33.8333,
      "admin_name1": "Central Region"
    },
    {
      "place_name": "Kabudula",
      "postal_code": "206102",
      "country_code": "MW",
      "latitude": -13.6667,
      "longitude": 33.4167,
      "admin_name1": "Central Region"
    },
    {
      "place_name": "Mbang’ombe",
      "postal_code": "206104",
      "country_code": "MW",
      "latitude": -14.0196,
      "longitude": 33.6841,
      "admin_name1": "Central Region"
    },
    {
      "place_name": "Kalumba",
      "postal_code": "206111",
      "country_code": "MW",
      "latitude": -14.0833,
      "longitude": 33.8167,
      "admin_name1": "Central Region"
    },
    {
      "place_name": "Area 6",
      "postal_code": "207206",
      "country_code": "MW",
      "latitude": -14.0196,
      "longitude": 33.6841,
      "admin_name1": "Central Region"
    },
    {
      "place_name": "Area 31",
      "postal_code": "207231",
      "country_code": "MW",
      "latitude": -14.0196,
      "longitude": 33.6841,
      "admin_name1": "Central Region"
    },
    {
      "place_name": "Area 50",
      "postal_code": "207250",
      "country_code": "MW",
      "latitude": -13.9096,
      "longitude": 33.7701,
      "admin_name1": "Central Region"
    },
    {
      "place_name": "Kapunula",
      "postal_code": "205106",
      "country_code": "MW",
      "latitude": -13.5874,
      "longitude": 32.7819,
      "admin_name1": "Central Region"
    },
    {
      "place_name": "Nyoka",
      "postal_code": "205109",
      "country_code": "MW",
      "latitude": -13.7004,
      "longitude": 32.9056,
      "admin_name1": "Central Region"
    },
    {
      "place_name": "Njolomole",
      "postal_code": "210104",
      "country_code": "MW",
      "latitude": -14.6493,
      "longitude": 34.5579,
      "admin_name1": "Central Region"
    },
    {
      "place_name": "Kasakula",
      "postal_code": "203104",
      "country_code": "MW",
      "latitude": -13.35,
      "longitude": 34.0833,
      "admin_name1": "Central Region"
    },
    {
      "place_name": "Katoto",
      "postal_code": "105206",
      "country_code": "MW",
      "latitude": -11.4592,
      "longitude": 34.0096,
      "admin_name1": "Northern Region"
    },
    {
      "place_name": "Masache",
      "postal_code": "315113",
      "country_code": "MW",
      "latitude": -16.5667,
      "longitude": 34.95,
      "admin_name1": "Southern Region"
    },
    {
      "place_name": "Chitera",
      "postal_code": "306101",
      "country_code": "MW",
      "latitude": -15.7527,
      "longitude": 35.2158,
      "admin_name1": "Southern Region"
    },
    {
      "place_name": "Ndamera",
      "postal_code": "316110",
      "country_code": "MW",
      "latitude": -17.0958,
      "longitude": 35.219,
      "admin_name1": "Southern Region"
    },
    {
      "place_name": "Ntholowa",
      "postal_code": "304107",
      "country_code": "MW",
      "latitude": -15.4301,
      "longitude": 35.4183,
      "admin_name1": "Southern Region"
    },
    {
      "place_name": "Machinjiri",
      "postal_code": "311109",
      "country_code": "MW",
      "latitude": -15.2325,
      "longitude": 35.4146,
      "admin_name1": "Southern Region"
    },
    {
      "place_name": "Chikweo",
      "postal_code": "303105",
      "country_code": "MW",
      "latitude": -14.7648,
      "longitude": 35.6691,
      "admin_name1": "Southern Region"
    },
    {
      "place_name": "Mkhumba",
      "postal_code": "307104",
      "country_code": "MW",
      "latitude": -15.6667,
      "longitude": 35.6667,
      "admin_name1": "Southern Region"
    },
    {
      "place_name": "Mdunga",
      "postal_code": "201114",
      "country_code": "MW",
      "latitude": -12.9863,
      "longitude": 33.8332,
      "admin_name1": "Central Region"
    },
    {
      "place_name": "Chipala",
      "postal_code": "201301",
      "country_code": "MW",
      "latitude": -13.0,
      "longitude": 33.4167,
      "admin_name1": "Central Region"
    },
    {
      "place_name": "Zulu",
      "postal_code": "205111",
      "country_code": "MW",
      "latitude": -13.8147,
      "longitude": 32.9688,
      "admin_name1": "Central Region"
    },
    {
      "place_name": "Chakhumbira",
      "postal_code": "210102",
      "country_code": "MW",
      "latitude": -14.5667,
      "longitude": 34.7,
      "admin_name1": "Central Region"
    },
    {
      "place_name": "Nkhotakota Game Reserve",
      "postal_code": "202109",
      "country_code": "MW",
      "latitude": -12.8042,
      "longitude": 34.083,
      "admin_name1": "Central Region"
    },
    {
      "place_name": "Mwirang’ombe",
      "postal_code": "102105",
      "country_code": "MW",
      "latitude": -10.1115,
      "longitude": 33.8815,
      "admin_name1": "Northern Region"
    },
    {
      "place_name": "Chapinduka",
      "postal_code": "103105",
      "country_code": "MW",
      "latitude": -10.8029,
      "longitude": 33.8052,
      "admin_name1": "Northern Region"
    },
    {
      "place_name": "Zolekere",
      "postal_code": "103111",
      "country_code": "MW",
      "latitude": -10.8029,
      "longitude": 33.8052,
      "admin_name1": "Northern Region"
    },
    {
      "place_name": "Changata",
      "postal_code": "310112",
      "country_code": "MW",
      "latitude": -16.1058,
      "longitude": 35.1506,
      "admin_name1": "Southern Region"
    },
    {
      "place_name": "Chichiri",
      "postal_code": "312225",
      "country_code": "MW",
      "latitude": -15.8025,
      "longitude": 35.0475,
      "admin_name1": "Southern Region"
    },
    {
      "place_name": "Namiyango",
      "postal_code": "312232",
      "country_code": "MW",
      "latitude": -15.6473,
      "longitude": 34.9396,
      "admin_name1": "Southern Region"
    },
    {
      "place_name": "Njewa",
      "postal_code": "206113",
      "country_code": "MW",
      "latitude": -13.9833,
      "longitude": 33.7167,
      "admin_name1": "Central Region"
    },
    {
      "place_name": "Area 53",
      "postal_code": "207253",
      "country_code": "MW",
      "latitude": -14.0196,
      "longitude": 33.6841,
      "admin_name1": "Central Region"
    },
    {
      "place_name": "Mwakaboko",
      "postal_code": "102102",
      "country_code": "MW",
      "latitude": -10.1115,
      "longitude": 33.8815,
      "admin_name1": "Northern Region"
    },
    {
      "place_name": "Mzimba BOMA",
      "postal_code": "104100",
      "country_code": "MW",
      "latitude": -11.8543,
      "longitude": 33.6078,
      "admin_name1": "Northern Region"
    },
    {
      "place_name": "Zolozolo",
      "postal_code": "105207",
      "country_code": "MW",
      "latitude": -11.8543,
      "longitude": 33.6078,
      "admin_name1": "Northern Region"
    },
    {
      "place_name": "Chasefu",
      "postal_code": "105212",
      "country_code": "MW",
      "latitude": -11.8543,
      "longitude": 33.6078,
      "admin_name1": "Northern Region"
    },
    {
      "place_name": "M’bwana",
      "postal_code": "106103",
      "country_code": "MW",
      "latitude": -11.653,
      "longitude": 34.0532,
      "admin_name1": "Northern Region"
    },
    {
      "place_name": "Bvumbwe",
      "postal_code": "310101",
      "country_code": "MW",
      "latitude": -15.9167,
      "longitude": 35.0667,
      "admin_name1": "Southern Region"
    },
    {
      "place_name": "Chimombo",
      "postal_code": "316108",
      "country_code": "MW",
      "latitude": -17.0167,
      "longitude": 35.2333,
      "admin_name1": "Southern Region"
    },
    {
      "place_name": "Nyachikadza",
      "postal_code": "316109",
      "country_code": "MW",
      "latitude": -17.1167,
      "longitude": 35.3,
      "admin_name1": "Southern Region"
    },
    {
      "place_name": "Zomba Mountain Reserve",
      "postal_code": "304112",
      "country_code": "MW",
      "latitude": -15.4301,
      "longitude": 35.4183,
      "admin_name1": "Southern Region"
    },
    {
      "place_name": "Thom Allan",
      "postal_code": "305213",
      "country_code": "MW",
      "latitude": -15.4301,
      "longitude": 35.4183,
      "admin_name1": "Southern Region"
    },
    {
      "place_name": "Chigaru",
      "postal_code": "311101",
      "country_code": "MW",
      "latitude": -15.3626,
      "longitude": 34.9397,
      "admin_name1": "Southern Region"
    },
    {
      "place_name": "Kapeni",
      "postal_code": "311106",
      "country_code": "MW",
      "latitude": -15.785,
      "longitude": 35.0085,
      "admin_name1": "Southern Region"
    },
    {
      "place_name": "Chilobwe",
      "postal_code": "312217",
      "country_code": "MW",
      "latitude": -15.8301,
      "longitude": 35.0069,
      "admin_name1": "Southern Region"
    },
    {
      "place_name": "Nchinguza",
      "postal_code": "303106",
      "country_code": "MW",
      "latitude": -14.9458,
      "longitude": 35.5737,
      "admin_name1": "Southern Region"
    },
    {
      "place_name": "Kasumbu",
      "postal_code": "209103",
      "country_code": "MW",
      "latitude": -14.3,
      "longitude": 34.35,
      "admin_name1": "Central Region"
    },
    {
      "place_name": "Chilikumwendo",
      "postal_code": "209107",
      "country_code": "MW",
      "latitude": -14.2167,
      "longitude": 33.95,
      "admin_name1": "Central Region"
    },
    {
      "place_name": "Kayembe",
      "postal_code": "204103",
      "country_code": "MW",
      "latitude": -13.6331,
      "longitude": 33.6001,
      "admin_name1": "Central Region"
    },
    {
      "place_name": "M’nyanja",
      "postal_code": "201105",
      "country_code": "MW",
      "latitude": -13.0,
      "longitude": 33.4167,
      "admin_name1": "Central Region"
    },
    {
      "place_name": "Chaima",
      "postal_code": "201123",
      "country_code": "MW",
      "latitude": -13.3167,
      "longitude": 33.4833,
      "admin_name1": "Central Region"
    },
    {
      "place_name": "Area 15",
      "postal_code": "207215",
      "country_code": "MW",
      "latitude": -14.0196,
      "longitude": 33.6841,
      "admin_name1": "Central Region"
    },
    {
      "place_name": "Tsikulamowa",
      "postal_code": "210111",
      "country_code": "MW",
      "latitude": -14.75,
      "longitude": 34.75,
      "admin_name1": "Central Region"
    },
    {
      "place_name": "Salima Township",
      "postal_code": "208100",
      "country_code": "MW",
      "latitude": -13.7196,
      "longitude": 34.4018,
      "admin_name1": "Central Region"
    },
    {
      "place_name": "Nankumba",
      "postal_code": "301108",
      "country_code": "MW",
      "latitude": -14.3645,
      "longitude": 34.8227,
      "admin_name1": "Southern Region"
    },
    {
      "place_name": "Chirunga",
      "postal_code": "305205",
      "country_code": "MW",
      "latitude": -15.4301,
      "longitude": 35.4183,
      "admin_name1": "Southern Region"
    },
    {
      "place_name": "Nyambadwe",
      "postal_code": "312211",
      "country_code": "MW",
      "latitude": -15.7737,
      "longitude": 35.022,
      "admin_name1": "Southern Region"
    },
    {
      "place_name": "Mulanje BOMA",
      "postal_code": "308100",
      "country_code": "MW",
      "latitude": -16.0316,
      "longitude": 35.5,
      "admin_name1": "Southern Region"
    },
    {
      "place_name": "Chauma",
      "postal_code": "209102",
      "country_code": "MW",
      "latitude": -14.2627,
      "longitude": 34.1856,
      "admin_name1": "Central Region"
    },
    {
      "place_name": "Chisemphere",
      "postal_code": "201103",
      "country_code": "MW",
      "latitude": -13.2333,
      "longitude": 33.4667,
      "admin_name1": "Central Region"
    },
    {
      "place_name": "Area 30",
      "postal_code": "207230",
      "country_code": "MW",
      "latitude": -14.0196,
      "longitude": 33.6841,
      "admin_name1": "Central Region"
    },
    {
      "place_name": "Mkutumula",
      "postal_code": "210107",
      "country_code": "MW",
      "latitude": -14.846,
      "longitude": 34.8927,
      "admin_name1": "Central Region"
    },
    {
      "place_name": "Chikho",
      "postal_code": "203107",
      "country_code": "MW",
      "latitude": -13.3839,
      "longitude": 34.0834,
      "admin_name1": "Central Region"
    },
    {
      "place_name": "Karonga",
      "postal_code": "208105",
      "country_code": "MW",
      "latitude": -13.7707,
      "longitude": 34.4405,
      "admin_name1": "Central Region"
    },
    {
      "place_name": "Masasa",
      "postal_code": "105215",
      "country_code": "MW",
      "latitude": -12.0167,
      "longitude": 34.6167,
      "admin_name1": "Northern Region"
    },
    {
      "place_name": "Kachulu",
      "postal_code": "103102",
      "country_code": "MW",
      "latitude": -10.8029,
      "longitude": 33.8052,
      "admin_name1": "Northern Region"
    },
    {
      "place_name": "Njikula",
      "postal_code": "103103",
      "country_code": "MW",
      "latitude": -10.8029,
      "longitude": 33.8052,
      "admin_name1": "Northern Region"
    },
    {
      "place_name": "Nsabwe",
      "postal_code": "310114",
      "country_code": "MW",
      "latitude": -16.3333,
      "longitude": 35.2167,
      "admin_name1": "Southern Region"
    },
    {
      "place_name": "Koche",
      "postal_code": "301401",
      "country_code": "MW",
      "latitude": -14.393,
      "longitude": 35.3466,
      "admin_name1": "Southern Region"
    },
    {
      "place_name": "Zomba CBD",
      "postal_code": "305200",
      "country_code": "MW",
      "latitude": -15.4301,
      "longitude": 35.4183,
      "admin_name1": "Southern Region"
    },
    {
      "place_name": "Phalula",
      "postal_code": "302109",
      "country_code": "MW",
      "latitude": -15.2244,
      "longitude": 34.8903,
      "admin_name1": "Southern Region"
    },
    {
      "place_name": "Liwonde Township",
      "postal_code": "303101",
      "country_code": "MW",
      "latitude": -14.9458,
      "longitude": 35.5737,
      "admin_name1": "Southern Region"
    },
    {
      "place_name": "Kapoloma",
      "postal_code": "303107",
      "country_code": "MW",
      "latitude": -14.7333,
      "longitude": 35.5667,
      "admin_name1": "Southern Region"
    },
    {
      "place_name": "Nsanama",
      "postal_code": "303113",
      "country_code": "MW",
      "latitude": -14.9667,
      "longitude": 35.5167,
      "admin_name1": "Southern Region"
    },
    {
      "place_name": "Tambala",
      "postal_code": "209101",
      "country_code": "MW",
      "latitude": -14.0333,
      "longitude": 34.2333,
      "admin_name1": "Central Region"
    },
    {
      "place_name": "Njombwa",
      "postal_code": "201120",
      "country_code": "MW",
      "latitude": -13.3,
      "longitude": 33.5167,
      "admin_name1": "Central Region"
    },
    {
      "place_name": "Kasungu National Park",
      "postal_code": "201126",
      "country_code": "MW",
      "latitude": -13.0,
      "longitude": 33.4167,
      "admin_name1": "Central Region"
    },
    {
      "place_name": "Gundani",
      "postal_code": "201311",
      "country_code": "MW",
      "latitude": -13.05,
      "longitude": 33.5,
      "admin_name1": "Central Region"
    },
    {
      "place_name": "Area 1",
      "postal_code": "207201",
      "country_code": "MW",
      "latitude": -14.0012,
      "longitude": 33.7727,
      "admin_name1": "Central Region"
    },
    {
      "place_name": "Kazyozyo",
      "postal_code": "205105",
      "country_code": "MW",
      "latitude": -13.5676,
      "longitude": 32.8613,
      "admin_name1": "Central Region"
    },
    {
      "place_name": "Wasambo",
      "postal_code": "102106",
      "country_code": "MW",
      "latitude": -10.1115,
      "longitude": 33.8815,
      "admin_name1": "Northern Region"
    },
    {
      "place_name": "Nkhata Bay BOMA",
      "postal_code": "106100",
      "country_code": "MW",
      "latitude": -11.653,
      "longitude": 34.0532,
      "admin_name1": "Northern Region"
    },
    {
      "place_name": "Ngowe",
      "postal_code": "315112",
      "country_code": "MW",
      "latitude": -16.1667,
      "longitude": 34.75,
      "admin_name1": "Southern Region"
    },
    {
      "place_name": "Thyolo BOMA",
      "postal_code": "310100",
      "country_code": "MW",
      "latitude": -16.1058,
      "longitude": 35.1506,
      "admin_name1": "Southern Region"
    },
    {
      "place_name": "Chiunda",
      "postal_code": "301107",
      "country_code": "MW",
      "latitude": -14.7595,
      "longitude": 35.3817,
      "admin_name1": "Southern Region"
    },
    {
      "place_name": "Mlolo",
      "postal_code": "316101",
      "country_code": "MW",
      "latitude": -16.75,
      "longitude": 35.1667,
      "admin_name1": "Southern Region"
    },
    {
      "place_name": "Nkagula",
      "postal_code": "304105",
      "country_code": "MW",
      "latitude": -15.4301,
      "longitude": 35.4183,
      "admin_name1": "Southern Region"
    },
    {
      "place_name": "Matawale",
      "postal_code": "305212",
      "country_code": "MW",
      "latitude": -15.4301,
      "longitude": 35.4183,
      "admin_name1": "Southern Region"
    },
    {
      "place_name": "Kunthembwe",
      "postal_code": "311103",
      "country_code": "MW",
      "latitude": -15.6473,
      "longitude": 34.9396,
      "admin_name1": "Southern Region"
    },
    {
      "place_name": "Maone",
      "postal_code": "312203",
      "country_code": "MW",
      "latitude": -15.6473,
      "longitude": 34.9396,
      "admin_name1": "Southern Region"
    },
    {
      "place_name": "Chimwankhunda",
      "postal_code": "312218",
      "country_code": "MW",
      "latitude": -15.6473,
      "longitude": 34.9396,
      "admin_name1": "Southern Region"
    },
    {
      "place_name": "Limbe",
      "postal_code": "312229",
      "country_code": "MW",
      "latitude": -15.809,
      "longitude": 35.0602,
      "admin_name1": "Southern Region"
    },
    {
      "place_name": "Nazombe",
      "postal_code": "307106",
      "country_code": "MW",
      "latitude": -15.6667,
      "longitude": 35.6667,
      "admin_name1": "Southern Region"
    },
    {
      "place_name": "Neno BOMA",
      "postal_code": "313100",
      "country_code": "MW",
      "latitude": -15.4505,
      "longitude": 34.7003,
      "admin_name1": "Southern Region"
    },
    {
      "place_name": "Mawawa",
      "postal_code": "201118",
      "country_code": "MW",
      "latitude": -13.1,
      "longitude": 33.3833,
      "admin_name1": "Central Region"
    },
    {
      "place_name": "Area 16",
      "postal_code": "207216",
      "country_code": "MW",
      "latitude": -14.0196,
      "longitude": 33.6841,
      "admin_name1": "Central Region"
    },
    {
      "place_name": "Area 39",
      "postal_code": "207239",
      "country_code": "MW",
      "latitude": -14.0196,
      "longitude": 33.6841,
      "admin_name1": "Central Region"
    },
    {
      "place_name": "Area 41",
      "postal_code": "207241",
      "country_code": "MW",
      "latitude": -14.0196,
      "longitude": 33.6841,
      "admin_name1": "Central Region"
    },
    {
      "place_name": "Chilooko",
      "postal_code": "203101",
      "country_code": "MW",
      "latitude": -13.2957,
      "longitude": 33.908,
      "admin_name1": "Central Region"
    },
    {
      "place_name": "Mzilawaingwe",
      "postal_code": "105210",
      "country_code": "MW",
      "latitude": -11.8543,
      "longitude": 33.6078,
      "admin_name1": "Northern Region"
    },
    {
      "place_name": "Nchema",
      "postal_code": "306103",
      "country_code": "MW",
      "latitude": -15.7527,
      "longitude": 35.2158,
      "admin_name1": "Southern Region"
    },
    {
      "place_name": "Nkhulambe",
      "postal_code": "307107",
      "country_code": "MW",
      "latitude": -15.6667,
      "longitude": 35.6667,
      "admin_name1": "Southern Region"
    },
    {
      "place_name": "Simlemba",
      "postal_code": "201106",
      "country_code": "MW",
      "latitude": -12.7444,
      "longitude": 33.6745,
      "admin_name1": "Central Region"
    },
    {
      "place_name": "Kasungu Central Township",
      "postal_code": "201300",
      "country_code": "MW",
      "latitude": -13.0,
      "longitude": 33.4167,
      "admin_name1": "Central Region"
    },
    {
      "place_name": "Bunda",
      "postal_code": "201303",
      "country_code": "MW",
      "latitude": -13.0,
      "longitude": 33.4167,
      "admin_name1": "Central Region"
    },
    {
      "place_name": "Kamvunguti",
      "postal_code": "201309",
      "country_code": "MW",
      "latitude": -13.0,
      "longitude": 33.4167,
      "admin_name1": "Central Region"
    },
    {
      "place_name": "Chadza",
      "postal_code": "206110",
      "country_code": "MW",
      "latitude": -14.157,
      "longitude": 33.8429,
      "admin_name1": "Central Region"
    },
    {
      "place_name": "Area 20",
      "postal_code": "207220",
      "country_code": "MW",
      "latitude": -14.0196,
      "longitude": 33.6841,
      "admin_name1": "Central Region"
    },
    {
      "place_name": "Area 26",
      "postal_code": "207226",
      "country_code": "MW",
      "latitude": -14.0196,
      "longitude": 33.6841,
      "admin_name1": "Central Region"
    },
    {
      "place_name": "Area 47",
      "postal_code": "207247",
      "country_code": "MW",
      "latitude": -13.9581,
      "longitude": 33.7548,
      "admin_name1": "Central Region"
    },
    {
      "place_name": "Area 49",
      "postal_code": "207249",
      "country_code": "MW",
      "latitude": -13.9209,
      "longitude": 33.7467,
      "admin_name1": "Central Region"
    },
    {
      "place_name": "Goodson Ganya",
      "postal_code": "210103",
      "country_code": "MW",
      "latitude": -14.75,
      "longitude": 34.75,
      "admin_name1": "Central Region"
    },
    {
      "place_name": "Kabunduli",
      "postal_code": "106110",
      "country_code": "MW",
      "latitude": -11.7333,
      "longitude": 34.0667,
      "admin_name1": "Northern Region"
    },
    {
      "place_name": "Chikulamayembe",
      "postal_code": "103109",
      "country_code": "MW",
      "latitude": -10.8029,
      "longitude": 33.8052,
      "admin_name1": "Northern Region"
    },
    {
      "place_name": "Mkumpha",
      "postal_code": "107101",
      "country_code": "MW",
      "latitude": -12.0607,
      "longitude": 34.7361,
      "admin_name1": "Northern Region"
    },
    {
      "place_name": "Tengani",
      "postal_code": "316104",
      "country_code": "MW",
      "latitude": -16.7333,
      "longitude": 35.2667,
      "admin_name1": "Southern Region"
    },
    {
      "place_name": "Nkolokosa",
      "postal_code": "312220",
      "country_code": "MW",
      "latitude": -15.8143,
      "longitude": 35.0031,
      "admin_name1": "Southern Region"
    },
    {
      "place_name": "Kawinga",
      "postal_code": "303111",
      "country_code": "MW",
      "latitude": -14.85,
      "longitude": 35.55,
      "admin_name1": "Southern Region"
    },
    {
      "place_name": "Mkula",
      "postal_code": "303117",
      "country_code": "MW",
      "latitude": -15.1723,
      "longitude": 35.3115,
      "admin_name1": "Southern Region"
    },
    {
      "place_name": "Juma",
      "postal_code": "308101",
      "country_code": "MW",
      "latitude": -14.6167,
      "longitude": 35.6,
      "admin_name1": "Southern Region"
    },
    {
      "place_name": "Chisikwa",
      "postal_code": "201100",
      "country_code": "MW",
      "latitude": -14.0,
      "longitude": 33.4833,
      "admin_name1": "Central Region"
    },
    {
      "place_name": "Area 29",
      "postal_code": "207229",
      "country_code": "MW",
      "latitude": -14.0196,
      "longitude": 33.6841,
      "admin_name1": "Central Region"
    },
    {
      "place_name": "Area 42",
      "postal_code": "207242",
      "country_code": "MW",
      "latitude": -14.0196,
      "longitude": 33.6841,
      "admin_name1": "Central Region"
    },
    {
      "place_name": "Area 44",
      "postal_code": "207244",
      "country_code": "MW",
      "latitude": -13.9607,
      "longitude": 33.8526,
      "admin_name1": "Central Region"
    },
    {
      "place_name": "Nthengatenga",
      "postal_code": "101107",
      "country_code": "MW",
      "latitude": -9.9273,
      "longitude": 33.4254,
      "admin_name1": "Northern Region"
    },
    {
      "place_name": "Wavikaza",
      "postal_code": "101109",
      "country_code": "MW",
      "latitude": -9.9273,
      "longitude": 33.4254,
      "admin_name1": "Northern Region"
    },
    {
      "place_name": "Lunyangwa",
      "postal_code": "105213",
      "country_code": "MW",
      "latitude": -11.8543,
      "longitude": 33.6078,
      "admin_name1": "Northern Region"
    },
    {
      "place_name": "Timbiri",
      "postal_code": "106105",
      "country_code": "MW",
      "latitude": -11.5428,
      "longitude": 34.192,
      "admin_name1": "Northern Region"
    },
    {
      "place_name": "Kasisi",
      "postal_code": "315102",
      "country_code": "MW",
      "latitude": -15.9577,
      "longitude": 34.7718,
      "admin_name1": "Southern Region"
    },
    {
      "place_name": "Nchalo Township",
      "postal_code": "315108",
      "country_code": "MW",
      "latitude": -16.1667,
      "longitude": 34.75,
      "admin_name1": "Southern Region"
    },
    {
      "place_name": "Nkanamwano",
      "postal_code": "301405",
      "country_code": "MW",
      "latitude": -14.393,
      "longitude": 35.3466,
      "admin_name1": "Southern Region"
    },
    {
      "place_name": "Bangula Township",
      "postal_code": "316103",
      "country_code": "MW",
      "latitude": -16.75,
      "longitude": 35.1667,
      "admin_name1": "Southern Region"
    },
    {
      "place_name": "Chinamwali",
      "postal_code": "305211",
      "country_code": "MW",
      "latitude": -15.4301,
      "longitude": 35.4183,
      "admin_name1": "Southern Region"
    },
    {
      "place_name": "Blantyre CBD",
      "postal_code": "312200",
      "country_code": "MW",
      "latitude": -15.6473,
      "longitude": 34.9396,
      "admin_name1": "Southern Region"
    },
    {
      "place_name": "Nthache",
      "postal_code": "314102",
      "country_code": "MW",
      "latitude": -15.6334,
      "longitude": 34.5168,
      "admin_name1": "Southern Region"
    },
    {
      "place_name": "Kalembo",
      "postal_code": "302102",
      "country_code": "MW",
      "latitude": -14.8446,
      "longitude": 35.1692,
      "admin_name1": "Southern Region"
    },
    {
      "place_name": "Ngokwe",
      "postal_code": "303104",
      "country_code": "MW",
      "latitude": -14.75,
      "longitude": 35.6167,
      "admin_name1": "Southern Region"
    },
    {
      "place_name": "Migowi Township",
      "postal_code": "307101",
      "country_code": "MW",
      "latitude": -15.6667,
      "longitude": 35.6667,
      "admin_name1": "Southern Region"
    },
    {
      "place_name": "Mponela Township",
      "postal_code": "204105",
      "country_code": "MW",
      "latitude": -13.601,
      "longitude": 33.8238,
      "admin_name1": "Central Region"
    },
    {
      "place_name": "Area 19",
      "postal_code": "207219",
      "country_code": "MW",
      "latitude": -14.0196,
      "longitude": 33.6841,
      "admin_name1": "Central Region"
    },
    {
      "place_name": "Area 58",
      "postal_code": "207258",
      "country_code": "MW",
      "latitude": -14.0196,
      "longitude": 33.6841,
      "admin_name1": "Central Region"
    },
    {
      "place_name": "Kafuzila",
      "postal_code": "202101",
      "country_code": "MW",
      "latitude": -12.3,
      "longitude": 34.0333,
      "admin_name1": "Central Region"
    },
    {
      "place_name": "Boghoyo",
      "postal_code": "106102",
      "country_code": "MW",
      "latitude": -11.1023,
      "longitude": 34.2252,
      "admin_name1": "Northern Region"
    },
    {
      "place_name": "Rumphi BOMA",
      "postal_code": "103100",
      "country_code": "MW",
      "latitude": -11.0186,
      "longitude": 33.8575,
      "admin_name1": "Northern Region"
    },
    {
      "place_name": "Sadzi",
      "postal_code": "305215",
      "country_code": "MW",
      "latitude": -15.4301,
      "longitude": 35.4183,
      "admin_name1": "Southern Region"
    },
    {
      "place_name": "Angelogothere",
      "postal_code": "312236",
      "country_code": "MW",
      "latitude": -15.6473,
      "longitude": 34.9396,
      "admin_name1": "Southern Region"
    },
    {
      "place_name": "Amidu",
      "postal_code": "302103",
      "country_code": "MW",
      "latitude": -15.0484,
      "longitude": 35.0591,
      "admin_name1": "Southern Region"
    },
    {
      "place_name": "Nyambi",
      "postal_code": "303102",
      "country_code": "MW",
      "latitude": -14.6597,
      "longitude": 35.6276,
      "admin_name1": "Southern Region"
    },
    {
      "place_name": "Liwonde National Park",
      "postal_code": "303118",
      "country_code": "MW",
      "latitude": -14.9458,
      "longitude": 35.5737,
      "admin_name1": "Southern Region"
    },
    {
      "place_name": "Chulu",
      "postal_code": "201104",
      "country_code": "MW",
      "latitude": -12.82,
      "longitude": 33.3086,
      "admin_name1": "Central Region"
    },
    {
      "place_name": "Area 10",
      "postal_code": "207210",
      "country_code": "MW",
      "latitude": -14.0196,
      "longitude": 33.6841,
      "admin_name1": "Central Region"
    },
    {
      "place_name": "Area 46",
      "postal_code": "207246",
      "country_code": "MW",
      "latitude": -14.0196,
      "longitude": 33.6841,
      "admin_name1": "Central Region"
    },
    {
      "place_name": "Makwangwala",
      "postal_code": "210106",
      "country_code": "MW",
      "latitude": -14.8,
      "longitude": 34.7667,
      "admin_name1": "Central Region"
    },
    {
      "place_name": "Mchengautuwa",
      "postal_code": "105204",
      "country_code": "MW",
      "latitude": -11.8543,
      "longitude": 33.6078,
      "admin_name1": "Northern Region"
    },
    {
      "place_name": "Chiputula",
      "postal_code": "105209",
      "country_code": "MW",
      "latitude": -11.4415,
      "longitude": 34.0165,
      "admin_name1": "Northern Region"
    },
    {
      "place_name": "Maseya",
      "postal_code": "315105",
      "country_code": "MW",
      "latitude": -16.1667,
      "longitude": 34.75,
      "admin_name1": "Southern Region"
    },
    {
      "place_name": "Mpama",
      "postal_code": "306102",
      "country_code": "MW",
      "latitude": -14.6077,
      "longitude": 35.469,
      "admin_name1": "Southern Region"
    },
    {
      "place_name": "Nkapita",
      "postal_code": "304101",
      "country_code": "MW",
      "latitude": -15.4301,
      "longitude": 35.4183,
      "admin_name1": "Southern Region"
    },
    {
      "place_name": "Nkolokoti",
      "postal_code": "312204",
      "country_code": "MW",
      "latitude": -15.6473,
      "longitude": 34.9396,
      "admin_name1": "Southern Region"
    },
    {
      "place_name": "Mposa",
      "postal_code": "303114",
      "country_code": "MW",
      "latitude": -15.1667,
      "longitude": 35.5167,
      "admin_name1": "Southern Region"
    },
    {
      "place_name": "Mabuka",
      "postal_code": "308106",
      "country_code": "MW",
      "latitude": -15.9344,
      "longitude": 35.4999,
      "admin_name1": "Southern Region"
    },
    {
      "place_name": "Kaphuka",
      "postal_code": "209106",
      "country_code": "MW",
      "latitude": -14.15,
      "longitude": 34.1667,
      "admin_name1": "Central Region"
    },
    {
      "place_name": "Kalumbu",
      "postal_code": "206109",
      "country_code": "MW",
      "latitude": -14.1351,
      "longitude": 33.9471,
      "admin_name1": "Central Region"
    },
    {
      "place_name": "Area 4",
      "postal_code": "207204",
      "country_code": "MW",
      "latitude": -14.0196,
      "longitude": 33.6841,
      "admin_name1": "Central Region"
    },
    {
      "place_name": "Mlonyeni",
      "postal_code": "205110",
      "country_code": "MW",
      "latitude": -13.8582,
      "longitude": 33.026,
      "admin_name1": "Central Region"
    },
    {
      "place_name": "Mpando",
      "postal_code": "210109",
      "country_code": "MW",
      "latitude": -13.4333,
      "longitude": 33.85,
      "admin_name1": "Central Region"
    },
    {
      "place_name": "Chipoka Township",
      "postal_code": "208110",
      "country_code": "MW",
      "latitude": -13.7196,
      "longitude": 34.4018,
      "admin_name1": "Central Region"
    },
    {
      "place_name": "Mwenewenya",
      "postal_code": "101106",
      "country_code": "MW",
      "latitude": -10.1121,
      "longitude": 33.5742,
      "admin_name1": "Northern Region"
    },
    {
      "place_name": "Jenda Township",
      "postal_code": "104111",
      "country_code": "MW",
      "latitude": -11.8543,
      "longitude": 33.6078,
      "admin_name1": "Northern Region"
    },
    {
      "place_name": "Malenga Mzoma",
      "postal_code": "106111",
      "country_code": "MW",
      "latitude": -11.9323,
      "longitude": 34.1334,
      "admin_name1": "Northern Region"
    },
    {
      "place_name": "Mphuka",
      "postal_code": "310103",
      "country_code": "MW",
      "latitude": -16.2333,
      "longitude": 34.6833,
      "admin_name1": "Southern Region"
    },
    {
      "place_name": "Mwasa",
      "postal_code": "301409",
      "country_code": "MW",
      "latitude": -14.393,
      "longitude": 35.3466,
      "admin_name1": "Southern Region"
    },
    {
      "place_name": "Msikisi",
      "postal_code": "301412",
      "country_code": "MW",
      "latitude": -14.393,
      "longitude": 35.3466,
      "admin_name1": "Southern Region"
    },
    {
      "place_name": "Mwambo",
      "postal_code": "304109",
      "country_code": "MW",
      "latitude": -15.4356,
      "longitude": 35.5144,
      "admin_name1": "Southern Region"
    },
    {
      "place_name": "Cobbe",
      "postal_code": "305219",
      "country_code": "MW",
      "latitude": -15.4301,
      "longitude": 35.4183,
      "admin_name1": "Southern Region"
    },
    {
      "place_name": "Chileka",
      "postal_code": "311105",
      "country_code": "MW",
      "latitude": -15.6679,
      "longitude": 34.9376,
      "admin_name1": "Southern Region"
    },
    {
      "place_name": "Zingwangwa",
      "postal_code": "312216",
      "country_code": "MW",
      "latitude": -15.8186,
      "longitude": 35.0154,
      "admin_name1": "Southern Region"
    },
    {
      "place_name": "BCA",
      "postal_code": "312233",
      "country_code": "MW",
      "latitude": -15.6473,
      "longitude": 34.9396,
      "admin_name1": "Southern Region"
    },
    {
      "place_name": "Kanduku",
      "postal_code": "314101",
      "country_code": "MW",
      "latitude": -15.5617,
      "longitude": 34.5026,
      "admin_name1": "Southern Region"
    },
    {
      "place_name": "Nkanda",
      "postal_code": "308102",
      "country_code": "MW",
      "latitude": -15.9344,
      "longitude": 35.4999,
      "admin_name1": "Southern Region"
    },
    {
      "place_name": "Lumbadzi Township",
      "postal_code": "204108",
      "country_code": "MW",
      "latitude": -13.601,
      "longitude": 33.8238,
      "admin_name1": "Central Region"
    },
    {
      "place_name": "Kalolo",
      "postal_code": "206115",
      "country_code": "MW",
      "latitude": -14.0,
      "longitude": 33.3833,
      "admin_name1": "Central Region"
    },
    {
      "place_name": "Masumbankhunda",
      "postal_code": "206116",
      "country_code": "MW",
      "latitude": -14.0196,
      "longitude": 33.6841,
      "admin_name1": "Central Region"
    },
    {
      "place_name": "Nkhotakota BOMA",
      "postal_code": "202100",
      "country_code": "MW",
      "latitude": -12.8042,
      "longitude": 34.083,
      "admin_name1": "Central Region"
    },
    {
      "place_name": "Lwangwa",
      "postal_code": "101105",
      "country_code": "MW",
      "latitude": -9.9273,
      "longitude": 33.4254,
      "admin_name1": "Northern Region"
    },
    {
      "place_name": "Fukamalaza",
      "postal_code": "106108",
      "country_code": "MW",
      "latitude": -11.75,
      "longitude": 34.2333,
      "admin_name1": "Northern Region"
    },
    {
      "place_name": "Chisovya",
      "postal_code": "103108",
      "country_code": "MW",
      "latitude": -10.8029,
      "longitude": 33.8052,
      "admin_name1": "Northern Region"
    },
    {
      "place_name": "Likoma BOMA",
      "postal_code": "107100",
      "country_code": "MW",
      "latitude": -12.0607,
      "longitude": 34.7361,
      "admin_name1": "Northern Region"
    },
    {
      "place_name": "Jalasi",
      "postal_code": "301105",
      "country_code": "MW",
      "latitude": -14.3635,
      "longitude": 35.4454,
      "admin_name1": "Southern Region"
    },
    {
      "place_name": "Msukamwere",
      "postal_code": "301407",
      "country_code": "MW",
      "latitude": -14.393,
      "longitude": 35.3466,
      "admin_name1": "Southern Region"
    },
    {
      "place_name": "Chirimba",
      "postal_code": "312208",
      "country_code": "MW",
      "latitude": -15.6473,
      "longitude": 34.9396,
      "admin_name1": "Southern Region"
    },
    {
      "place_name": "Mpingwe",
      "postal_code": "312230",
      "country_code": "MW",
      "latitude": -15.8106,
      "longitude": 35.0713,
      "admin_name1": "Southern Region"
    },
    {
      "place_name": "Che Somba",
      "postal_code": "312237",
      "country_code": "MW",
      "latitude": -15.6473,
      "longitude": 34.9396,
      "admin_name1": "Southern Region"
    },
    {
      "place_name": "Chanthunya",
      "postal_code": "302108",
      "country_code": "MW",
      "latitude": -15.0484,
      "longitude": 35.0591,
      "admin_name1": "Southern Region"
    },
    {
      "place_name": "Phalombe BOMA",
      "postal_code": "307100",
      "country_code": "MW",
      "latitude": -15.6667,
      "longitude": 35.6667,
      "admin_name1": "Southern Region"
    },
    {
      "place_name": "Zalewa Township",
      "postal_code": "313104",
      "country_code": "MW",
      "latitude": -15.4505,
      "longitude": 34.7003,
      "admin_name1": "Southern Region"
    },
    {
      "place_name": "Chisinga",
      "postal_code": "201102",
      "country_code": "MW",
      "latitude": -13.0,
      "longitude": 33.4167,
      "admin_name1": "Central Region"
    },
    {
      "place_name": "Kaomba",
      "postal_code": "201110",
      "country_code": "MW",
      "latitude": -13.1,
      "longitude": 33.5,
      "admin_name1": "Central Region"
    },
    {
      "place_name": "Kawamba",
      "postal_code": "201121",
      "country_code": "MW",
      "latitude": -13.2969,
      "longitude": 33.341,
      "admin_name1": "Central Region"
    },
    {
      "place_name": "Belele",
      "postal_code": "201304",
      "country_code": "MW",
      "latitude": -13.0,
      "longitude": 33.4167,
      "admin_name1": "Central Region"
    },
    {
      "place_name": "Khongoni",
      "postal_code": "206101",
      "country_code": "MW",
      "latitude": -13.8528,
      "longitude": 33.3737,
      "admin_name1": "Central Region"
    },
    {
      "place_name": "Area 18",
      "postal_code": "207218",
      "country_code": "MW",
      "latitude": -13.9417,
      "longitude": 33.766,
      "admin_name1": "Central Region"
    },
    {
      "place_name": "Area 21",
      "postal_code": "207221",
      "country_code": "MW",
      "latitude": -13.9937,
      "longitude": 33.8112,
      "admin_name1": "Central Region"
    },
    {
      "place_name": "Area 33",
      "postal_code": "207233",
      "country_code": "MW",
      "latitude": -14.0196,
      "longitude": 33.6841,
      "admin_name1": "Central Region"
    },
    {
      "place_name": "Area 40",
      "postal_code": "207240",
      "country_code": "MW",
      "latitude": -14.0196,
      "longitude": 33.6841,
      "admin_name1": "Central Region"
    },
    {
      "place_name": "Area 43",
      "postal_code": "207243",
      "country_code": "MW",
      "latitude": -14.0196,
      "longitude": 33.6841,
      "admin_name1": "Central Region"
    },
    {
      "place_name": "Area 45",
      "postal_code": "207245",
      "country_code": "MW",
      "latitude": -14.0196,
      "longitude": 33.6841,
      "admin_name1": "Central Region"
    },
    {
      "place_name": "Mduwa",
      "postal_code": "205108",
      "country_code": "MW",
      "latitude": -13.7211,
      "longitude": 33.0853,
      "admin_name1": "Central Region"
    },
    {
      "place_name": "Champiti",
      "postal_code": "210108",
      "country_code": "MW",
      "latitude": -14.75,
      "longitude": 34.75,
      "admin_name1": "Central Region"
    },
    {
      "place_name": "Mpherembe",
      "postal_code": "104104",
      "country_code": "MW",
      "latitude": -11.2833,
      "longitude": 33.6,
      "admin_name1": "Northern Region"
    },
    {
      "place_name": "Mzuzu CBD",
      "postal_code": "105200",
      "country_code": "MW",
      "latitude": -11.8543,
      "longitude": 33.6078,
      "admin_name1": "Northern Region"
    },
    {
      "place_name": "Mankhambira",
      "postal_code": "106107",
      "country_code": "MW",
      "latitude": -11.7206,
      "longitude": 34.2958,
      "admin_name1": "Northern Region"
    },
    {
      "place_name": "Likoswe",
      "postal_code": "306107",
      "country_code": "MW",
      "latitude": -15.7527,
      "longitude": 35.2158,
      "admin_name1": "Southern Region"
    },
    {
      "place_name": "Thukuta",
      "postal_code": "310115",
      "country_code": "MW",
      "latitude": -16.1058,
      "longitude": 35.1506,
      "admin_name1": "Southern Region"
    },
    {
      "place_name": "Ndege",
      "postal_code": "301410",
      "country_code": "MW",
      "latitude": -14.393,
      "longitude": 35.3466,
      "admin_name1": "Southern Region"
    },
    {
      "place_name": "Mtiya",
      "postal_code": "305218",
      "country_code": "MW",
      "latitude": -15.4301,
      "longitude": 35.4183,
      "admin_name1": "Southern Region"
    },
    {
      "place_name": "Mpemba",
      "postal_code": "311111",
      "country_code": "MW",
      "latitude": -15.8833,
      "longitude": 34.95,
      "admin_name1": "Southern Region"
    },
    {
      "place_name": "Chemusa",
      "postal_code": "312209",
      "country_code": "MW",
      "latitude": -15.6473,
      "longitude": 34.9396,
      "admin_name1": "Southern Region"
    },
    {
      "place_name": "Kamenya Gwaza",
      "postal_code": "209105",
      "country_code": "MW",
      "latitude": -14.3667,
      "longitude": 34.45,
      "admin_name1": "Central Region"
    },
    {
      "place_name": "Area 2",
      "postal_code": "207202",
      "country_code": "MW",
      "latitude": -14.0196,
      "longitude": 33.6841,
      "admin_name1": "Central Region"
    },
    {
      "place_name": "Area 5",
      "postal_code": "207205",
      "country_code": "MW",
      "latitude": -14.0196,
      "longitude": 33.6841,
      "admin_name1": "Central Region"
    },
    {
      "place_name": "Area 57",
      "postal_code": "207257",
      "country_code": "MW",
      "latitude": -14.0106,
      "longitude": 33.7022,
      "admin_name1": "Central Region"
    },
    {
      "place_name": "Mavwere",
      "postal_code": "205113",
      "country_code": "MW",
      "latitude": -13.7623,
      "longitude": 33.08,
      "admin_name1": "Central Region"
    },
    {
      "place_name": "Ntchisi BOMA",
      "postal_code": "203100",
      "country_code": "MW",
      "latitude": -13.5277,
      "longitude": 33.9149,
      "admin_name1": "Central Region"
    },
    {
      "place_name": "Vwaza Marsh Reserve",
      "postal_code": "104114",
      "country_code": "MW",
      "latitude": -11.8543,
      "longitude": 33.6078,
      "admin_name1": "Northern Region"
    },
    {
      "place_name": "Lupaso",
      "postal_code": "105202",
      "country_code": "MW",
      "latitude": -11.8543,
      "longitude": 33.6078,
      "admin_name1": "Northern Region"
    },
    {
      "place_name": "Ngabu Township",
      "postal_code": "315111",
      "country_code": "MW",
      "latitude": -16.1667,
      "longitude": 34.75,
      "admin_name1": "Southern Region"
    },
    {
      "place_name": "Chiradzulu BOMA",
      "postal_code": "306100",
      "country_code": "MW",
      "latitude": -15.6746,
      "longitude": 35.1407,
      "admin_name1": "Southern Region"
    },
    {
      "place_name": "Luchenza Township",
      "postal_code": "309300",
      "country_code": "MW",
      "latitude": -16.1058,
      "longitude": 35.1506,
      "admin_name1": "Southern Region"
    },
    {
      "place_name": "Nchilamwela",
      "postal_code": "310109",
      "country_code": "MW",
      "latitude": -16.1058,
      "longitude": 35.1506,
      "admin_name1": "Southern Region"
    },
    {
      "place_name": "Kapichi",
      "postal_code": "310110",
      "country_code": "MW",
      "latitude": -16.1058,
      "longitude": 35.1506,
      "admin_name1": "Southern Region"
    },
    {
      "place_name": "Chikowi",
      "postal_code": "304108",
      "country_code": "MW",
      "latitude": -15.4167,
      "longitude": 35.3,
      "admin_name1": "Southern Region"
    },
    {
      "place_name": "Malonje",
      "postal_code": "305210",
      "country_code": "MW",
      "latitude": -15.3667,
      "longitude": 35.35,
      "admin_name1": "Southern Region"
    },
    {
      "place_name": "Naperi",
      "postal_code": "312222",
      "country_code": "MW",
      "latitude": -15.6473,
      "longitude": 34.9396,
      "admin_name1": "Southern Region"
    },
    {
      "place_name": "Chinyonga",
      "postal_code": "312226",
      "country_code": "MW",
      "latitude": -15.6473,
      "longitude": 34.9396,
      "admin_name1": "Southern Region"
    },
    {
      "place_name": "Sunganinzeru",
      "postal_code": "308107",
      "country_code": "MW",
      "latitude": -15.9344,
      "longitude": 35.4999,
      "admin_name1": "Southern Region"
    },
    {
      "place_name": "Mulanje Mountain Reserve",
      "postal_code": "308109",
      "country_code": "MW",
      "latitude": -15.9344,
      "longitude": 35.4999,
      "admin_name1": "Southern Region"
    },
    {
      "place_name": "Mponela",
      "postal_code": "204104",
      "country_code": "MW",
      "latitude": -13.5319,
      "longitude": 33.7401,
      "admin_name1": "Central Region"
    },
    {
      "place_name": "Mwase",
      "postal_code": "201109",
      "country_code": "MW",
      "latitude": -13.0667,
      "longitude": 33.4333,
      "admin_name1": "Central Region"
    },
    {
      "place_name": "Nthunduwala",
      "postal_code": "201122",
      "country_code": "MW",
      "latitude": -13.0,
      "longitude": 33.4167,
      "admin_name1": "Central Region"
    },
    {
      "place_name": "Malili",
      "postal_code": "206114",
      "country_code": "MW",
      "latitude": -14.0784,
      "longitude": 33.6959,
      "admin_name1": "Central Region"
    },
    {
      "place_name": "Area 7",
      "postal_code": "207207",
      "country_code": "MW",
      "latitude": -13.987,
      "longitude": 33.798,
      "admin_name1": "Central Region"
    },
    {
      "place_name": "Area 11",
      "postal_code": "207211",
      "country_code": "MW",
      "latitude": -14.0196,
      "longitude": 33.6841,
      "admin_name1": "Central Region"
    },
    {
      "place_name": "Area 37",
      "postal_code": "207237",
      "country_code": "MW",
      "latitude": -14.0196,
      "longitude": 33.6841,
      "admin_name1": "Central Region"
    },
    {
      "place_name": "Simphasi",
      "postal_code": "205112",
      "country_code": "MW",
      "latitude": -13.7623,
      "longitude": 33.08,
      "admin_name1": "Central Region"
    },
    {
      "place_name": "Dwangwa Township",
      "postal_code": "202103",
      "country_code": "MW",
      "latitude": -12.8042,
      "longitude": 34.083,
      "admin_name1": "Central Region"
    },
    {
      "place_name": "Malenga",
      "postal_code": "203103",
      "country_code": "MW",
      "latitude": -13.3337,
      "longitude": 33.8904,
      "admin_name1": "Central Region"
    },
    {
      "place_name": "Mwabulambya",
      "postal_code": "101103",
      "country_code": "MW",
      "latitude": -9.9273,
      "longitude": 33.4254,
      "admin_name1": "Northern Region"
    },
    {
      "place_name": "M’mbelwa",
      "postal_code": "104107",
      "country_code": "MW",
      "latitude": -11.6264,
      "longitude": 33.6159,
      "admin_name1": "Northern Region"
    },
    {
      "place_name": "Ntonda",
      "postal_code": "301111",
      "country_code": "MW",
      "latitude": -14.5239,
      "longitude": 35.3744,
      "admin_name1": "Southern Region"
    },
    {
      "place_name": "Mulunguzi",
      "postal_code": "305208",
      "country_code": "MW",
      "latitude": -15.4301,
      "longitude": 35.4183,
      "admin_name1": "Southern Region"
    },
    {
      "place_name": "Machinja BOMA",
      "postal_code": "303100",
      "country_code": "MW",
      "latitude": -14.9458,
      "longitude": 35.5737,
      "admin_name1": "Southern Region"
    },
    {
      "place_name": "Kapelula",
      "postal_code": "201112",
      "country_code": "MW",
      "latitude": -12.9062,
      "longitude": 33.8019,
      "admin_name1": "Central Region"
    },
    {
      "place_name": "Area 52",
      "postal_code": "207252",
      "country_code": "MW",
      "latitude": -14.0196,
      "longitude": 33.6841,
      "admin_name1": "Central Region"
    },
    {
      "place_name": "Mphonde",
      "postal_code": "202104",
      "country_code": "MW",
      "latitude": -12.8011,
      "longitude": 34.2245,
      "admin_name1": "Central Region"
    },
    {
      "place_name": "Msosa",
      "postal_code": "208101",
      "country_code": "MW",
      "latitude": -13.7196,
      "longitude": 34.4018,
      "admin_name1": "Central Region"
    },
    {
      "place_name": "Khombedza",
      "postal_code": "208102",
      "country_code": "MW",
      "latitude": -13.7196,
      "longitude": 34.4018,
      "admin_name1": "Central Region"
    },
    {
      "place_name": "Mwenemisuku",
      "postal_code": "101104",
      "country_code": "MW",
      "latitude": -9.9273,
      "longitude": 33.4254,
      "admin_name1": "Northern Region"
    },
    {
      "place_name": "Mzikubola",
      "postal_code": "104109",
      "country_code": "MW",
      "latitude": -11.8543,
      "longitude": 33.6078,
      "admin_name1": "Northern Region"
    },
    {
      "place_name": "Khorongo",
      "postal_code": "105201",
      "country_code": "MW",
      "latitude": -11.8543,
      "longitude": 33.6078,
      "admin_name1": "Northern Region"
    },
    {
      "place_name": "Ndakwela",
      "postal_code": "315106",
      "country_code": "MW",
      "latitude": -16.1667,
      "longitude": 34.75,
      "admin_name1": "Southern Region"
    },
    {
      "place_name": "Ngabu",
      "postal_code": "315110",
      "country_code": "MW",
      "latitude": -16.4943,
      "longitude": 34.9115,
      "admin_name1": "Southern Region"
    },
    {
      "place_name": "Nkalo",
      "postal_code": "306109",
      "country_code": "MW",
      "latitude": -15.7527,
      "longitude": 35.2158,
      "admin_name1": "Southern Region"
    },
    {
      "place_name": "Chowe",
      "postal_code": "301104",
      "country_code": "MW",
      "latitude": -14.393,
      "longitude": 35.3466,
      "admin_name1": "Southern Region"
    },
    {
      "place_name": "Chigawe",
      "postal_code": "301403",
      "country_code": "MW",
      "latitude": -14.393,
      "longitude": 35.3466,
      "admin_name1": "Southern Region"
    },
    {
      "place_name": "Zakazaka",
      "postal_code": "305202",
      "country_code": "MW",
      "latitude": -15.4301,
      "longitude": 35.4183,
      "admin_name1": "Southern Region"
    },
    {
      "place_name": "Mangasanja",
      "postal_code": "305207",
      "country_code": "MW",
      "latitude": -15.4301,
      "longitude": 35.4183,
      "admin_name1": "Southern Region"
    },
    {
      "place_name": "Kachenga",
      "postal_code": "302101",
      "country_code": "MW",
      "latitude": -15.0484,
      "longitude": 35.0591,
      "admin_name1": "Southern Region"
    }
  ]
]