[
  [
    {
      "place_name": "Nusajaya",
      "postal_code": "79523",
      "country_code": "MY",
      "latitude": 1.5014,
      "longitude": 103.6439,
      "admin_name1": "Johor"
    },
    {
      "place_name": "Johor Bahru",
      "postal_code": "80400",
      "country_code": "MY",
      "latitude": 1.5017,
      "longitude": 103.7414,
      "admin_name1": "Johor"
    },
    {
      "place_name": "Sungai Mati",
      "postal_code": "81500",
      "country_code": "MY",
      "latitude": 1.5141,
      "longitude": 103.7014,
      "admin_name1": "Johor"
    },
    {
      "place_name": "Ayer Tawar 4",
      "postal_code": "81920",
      "country_code": "MY",
      "latitude": 1.5058,
      "longitude": 103.9501,
      "admin_name1": "Johor"
    },
    {
      "place_name": "Kluang",
      "postal_code": "86300",
      "country_code": "MY",
      "latitude": 1.7632,
      "longitude": 103.6076,
      "admin_name1": "Johor"
    },
    {
      "place_name": "Alor Setar",
      "postal_code": "05680",
      "country_code": "MY",
      "latitude": 6.1194,
      "longitude": 100.3677,
      "admin_name1": "Kedah"
    },
    {
      "place_name": "Kota Kuala Muda",
      "postal_code": "08500",
      "country_code": "MY",
      "latitude": 5.7405,
      "longitude": 100.4243,
      "admin_name1": "Kedah"
    },
    {
      "place_name": "Kuala Lumpur",
      "postal_code": "50554",
      "country_code": "MY",
      "latitude": 3.139,
      "longitude": 101.6869,
      "admin_name1": "Kuala Lumpur"
    },
    {
      "place_name": "Setapak",
      "postal_code": "53300",
      "country_code": "MY",
      "latitude": 3.1876,
      "longitude": 101.7102,
      "admin_name1": "Kuala Lumpur"
    },
    {
      "place_name": "Labuan",
      "postal_code": "87011",
      "country_code": "MY",
      "latitude": 5.2913,
      "longitude": 115.2459,
      "admin_name1": "Labuan"
    },
    {
      "place_name": "Melaka",
      "postal_code": "75902",
      "country_code": "MY",
      "latitude": 2.2057,
      "longitude": 102.2562,
      "admin_name1": "Melaka"
    },
    {
      "place_name": "Tanjong Kling",
      "postal_code": "76400",
      "country_code": "MY",
      "latitude": 2.244,
      "longitude": 102.1837,
      "admin_name1": "Melaka"
    },
    {
      "place_name": "Sungai Rambai",
      "postal_code": "77400",
      "country_code": "MY",
      "latitude": 2.1619,
      "longitude": 102.4309,
      "admin_name1": "Melaka"
    },
    {
      "place_name": "Seremban",
      "postal_code": "70534",
      "country_code": "MY",
      "latitude": 2.7186,
      "longitude": 101.949,
      "admin_name1": "Negeri Sembilan"
    },
    {
      "place_name": "Simpang Durian",
      "postal_code": "72400",
      "country_code": "MY",
      "latitude": 3.0168,
      "longitude": 102.1793,
      "admin_name1": "Negeri Sembilan"
    },
    {
      "place_name": "Gemencheh",
      "postal_code": "73309",
      "country_code": "MY",
      "latitude": 2.5946,
      "longitude": 102.4134,
      "admin_name1": "Negeri Sembilan"
    },
    {
      "place_name": "Kuantan",
      "postal_code": "25551",
      "country_code": "MY",
      "latitude": 3.825,
      "longitude": 103.3239,
      "admin_name1": "Pahang"
    },
    {
      "place_name": "Balok",
      "postal_code": "26080",
      "country_code": "MY",
      "latitude": 3.9442,
      "longitude": 103.2863,
      "admin_name1": "Pahang"
    },
    {
      "place_name": "Jerantut",
      "postal_code": "27040",
      "country_code": "MY",
      "latitude": 3.9721,
      "longitude": 102.3729,
      "admin_name1": "Pahang"
    },
    {
      "place_name": "Kuala Lipis",
      "postal_code": "27200",
      "country_code": "MY",
      "latitude": 4.0629,
      "longitude": 102.1071,
      "admin_name1": "Pahang"
    },
    {
      "place_name": "Temerloh",
      "postal_code": "28030",
      "country_code": "MY",
      "latitude": 3.6371,
      "longitude": 102.5241,
      "admin_name1": "Pahang"
    },
    {
      "place_name": "Putrajaya",
      "postal_code": "62300",
      "country_code": "MY",
      "latitude": 2.9264,
      "longitude": 101.6964,
      "admin_name1": "Putrajaya"
    },
    {
      "place_name": "Kangar",
      "postal_code": "01532",
      "country_code": "MY",
      "latitude": 6.4455,
      "longitude": 100.2002,
      "admin_name1": "Perlis"
    },
    {
      "place_name": "Pulau Pinang",
      "postal_code": "10582",
      "country_code": "MY",
      "latitude": 5.4614,
      "longitude": 100.2192,
      "admin_name1": "Pulau Pinang"
    },
    {
      "place_name": "Balik Pulau",
      "postal_code": "11020",
      "country_code": "MY",
      "latitude": 5.3662,
      "longitude": 100.238,
      "admin_name1": "Pulau Pinang"
    },
    {
      "place_name": "Ipoh",
      "postal_code": "30450",
      "country_code": "MY",
      "latitude": 4.6162,
      "longitude": 101.086,
      "admin_name1": "Perak"
    },
    {
      "place_name": "Chemor",
      "postal_code": "31200",
      "country_code": "MY",
      "latitude": 4.7281,
      "longitude": 101.12,
      "admin_name1": "Perak"
    },
    {
      "place_name": "Mambang Di Awan",
      "postal_code": "31900",
      "country_code": "MY",
      "latitude": 4.0777,
      "longitude": 101.2424,
      "admin_name1": "Perak"
    },
    {
      "place_name": "Kuala Kangsar",
      "postal_code": "33009",
      "country_code": "MY",
      "latitude": 4.7727,
      "longitude": 100.9403,
      "admin_name1": "Perak"
    },
    {
      "place_name": "Sungkai",
      "postal_code": "35600",
      "country_code": "MY",
      "latitude": 4.112,
      "longitude": 101.2529,
      "admin_name1": "Perak"
    },
    {
      "place_name": "Kota Kinabalu",
      "postal_code": "88630",
      "country_code": "MY",
      "latitude": 5.8594,
      "longitude": 118.1013,
      "admin_name1": "Sabah"
    },
    {
      "place_name": "Kudat",
      "postal_code": "89059",
      "country_code": "MY",
      "latitude": 6.8285,
      "longitude": 116.7241,
      "admin_name1": "Sabah"
    },
    {
      "place_name": "Beluran",
      "postal_code": "90100",
      "country_code": "MY",
      "latitude": 5.9945,
      "longitude": 117.3361,
      "admin_name1": "Sabah"
    },
    {
      "place_name": "Sandakan",
      "postal_code": "90300",
      "country_code": "MY",
      "latitude": 5.8456,
      "longitude": 118.0571,
      "admin_name1": "Sabah"
    },
    {
      "place_name": "Shah Alam",
      "postal_code": "40604",
      "country_code": "MY",
      "latitude": 3.0906,
      "longitude": 101.5296,
      "admin_name1": "Selangor"
    },
    {
      "place_name": "Petaling Jaya",
      "postal_code": "46783",
      "country_code": "MY",
      "latitude": 3.1071,
      "longitude": 101.6083,
      "admin_name1": "Selangor"
    },
    {
      "place_name": "Sungai Buloh",
      "postal_code": "47100",
      "country_code": "MY",
      "latitude": 3.2445,
      "longitude": 101.56,
      "admin_name1": "Selangor"
    },
    {
      "place_name": "Kuching",
      "postal_code": "93516",
      "country_code": "MY",
      "latitude": 1.531,
      "longitude": 110.3442,
      "admin_name1": "Sarawak"
    },
    {
      "place_name": "Pusa",
      "postal_code": "94950",
      "country_code": "MY",
      "latitude": 1.6097,
      "longitude": 111.4337,
      "admin_name1": "Sarawak"
    },
    {
      "place_name": "Sarikei",
      "postal_code": "96109",
      "country_code": "MY",
      "latitude": 2.1178,
      "longitude": 111.5212,
      "admin_name1": "Sarawak"
    },
    {
      "place_name": "Tatau",
      "postal_code": "97200",
      "country_code": "MY",
      "latitude": 2.5733,
      "longitude": 112.6906,
      "admin_name1": "Sarawak"
    },
    {
      "place_name": "Kuala Terengganu",
      "postal_code": "20566",
      "country_code": "MY",
      "latitude": 5.3117,
      "longitude": 103.1199,
      "admin_name1": "Terengganu"
    },
    {
      "place_name": "Marang",
      "postal_code": "21600",
      "country_code": "MY",
      "latitude": 5.2424,
      "longitude": 103.126,
      "admin_name1": "Terengganu"
    },
    {
      "place_name": "Kuala Berang",
      "postal_code": "21700",
      "country_code": "MY",
      "latitude": 5.1048,
      "longitude": 102.9733,
      "admin_name1": "Terengganu"
    },
    {
      "place_name": "Ulu Tiram",
      "postal_code": "81800",
      "country_code": "MY",
      "latitude": 1.6728,
      "longitude": 103.6325,
      "admin_name1": "Johor"
    },
    {
      "place_name": "Jitra",
      "postal_code": "06009",
      "country_code": "MY",
      "latitude": 6.2663,
      "longitude": 100.4271,
      "admin_name1": "Kedah"
    },
    {
      "place_name": "Kodiang",
      "postal_code": "06100",
      "country_code": "MY",
      "latitude": 6.2045,
      "longitude": 100.3746,
      "admin_name1": "Kedah"
    },
    {
      "place_name": "Kota Bharu",
      "postal_code": "15504",
      "country_code": "MY",
      "latitude": 6.122,
      "longitude": 102.2523,
      "admin_name1": "Kelantan"
    },
    {
      "place_name": "Ayer Keroh",
      "postal_code": "75450",
      "country_code": "MY",
      "latitude": 2.2872,
      "longitude": 102.2759,
      "admin_name1": "Melaka"
    },
    {
      "place_name": "Durian Tunggal",
      "postal_code": "76100",
      "country_code": "MY",
      "latitude": 2.3013,
      "longitude": 102.2842,
      "admin_name1": "Melaka"
    },
    {
      "place_name": "Mantin",
      "postal_code": "71707",
      "country_code": "MY",
      "latitude": 2.8226,
      "longitude": 101.9,
      "admin_name1": "Negeri Sembilan"
    },
    {
      "place_name": "Labu",
      "postal_code": "71907",
      "country_code": "MY",
      "latitude": 2.7633,
      "longitude": 101.7696,
      "admin_name1": "Negeri Sembilan"
    },
    {
      "place_name": "Raub",
      "postal_code": "27607",
      "country_code": "MY",
      "latitude": 3.7926,
      "longitude": 101.8584,
      "admin_name1": "Pahang"
    },
    {
      "place_name": "Kemayan",
      "postal_code": "28340",
      "country_code": "MY",
      "latitude": 3.251,
      "longitude": 102.5593,
      "admin_name1": "Pahang"
    },
    {
      "place_name": "Karak",
      "postal_code": "28610",
      "country_code": "MY",
      "latitude": 3.4551,
      "longitude": 102.0424,
      "admin_name1": "Pahang"
    },
    {
      "place_name": "Nibong Tebal",
      "postal_code": "14320",
      "country_code": "MY",
      "latitude": 5.1894,
      "longitude": 100.4501,
      "admin_name1": "Pulau Pinang"
    },
    {
      "place_name": "Changkat Keruing",
      "postal_code": "32500",
      "country_code": "MY",
      "latitude": 4.2702,
      "longitude": 100.8909,
      "admin_name1": "Perak"
    },
    {
      "place_name": "Gerik",
      "postal_code": "33320",
      "country_code": "MY",
      "latitude": 5.4506,
      "longitude": 101.1319,
      "admin_name1": "Perak"
    },
    {
      "place_name": "Taiping",
      "postal_code": "34000",
      "country_code": "MY",
      "latitude": 4.7969,
      "longitude": 100.7934,
      "admin_name1": "Perak"
    },
    {
      "place_name": "Bagan Serai",
      "postal_code": "34300",
      "country_code": "MY",
      "latitude": 4.8687,
      "longitude": 100.6968,
      "admin_name1": "Perak"
    },
    {
      "place_name": "Simpang Ampat Semanggol",
      "postal_code": "34400",
      "country_code": "MY",
      "latitude": 4.9211,
      "longitude": 100.7084,
      "admin_name1": "Perak"
    },
    {
      "place_name": "Teluk Intan",
      "postal_code": "36030",
      "country_code": "MY",
      "latitude": 4.1617,
      "longitude": 101.0354,
      "admin_name1": "Perak"
    },
    {
      "place_name": "Keningau",
      "postal_code": "89000",
      "country_code": "MY",
      "latitude": 5.3561,
      "longitude": 116.3049,
      "admin_name1": "Sabah"
    },
    {
      "place_name": "Kuala Penyu",
      "postal_code": "89749",
      "country_code": "MY",
      "latitude": 5.4914,
      "longitude": 115.5491,
      "admin_name1": "Sabah"
    },
    {
      "place_name": "Tawau",
      "postal_code": "91008",
      "country_code": "MY",
      "latitude": 4.2825,
      "longitude": 117.9148,
      "admin_name1": "Sabah"
    },
    {
      "place_name": "Lahad Datu",
      "postal_code": "91127",
      "country_code": "MY",
      "latitude": 5.0488,
      "longitude": 118.3593,
      "admin_name1": "Sabah"
    },
    {
      "place_name": "Semporna",
      "postal_code": "91300",
      "country_code": "MY",
      "latitude": 4.4363,
      "longitude": 118.5318,
      "admin_name1": "Sabah"
    },
    {
      "place_name": "Klang",
      "postal_code": "41150",
      "country_code": "MY",
      "latitude": 3.0489,
      "longitude": 101.4877,
      "admin_name1": "Selangor"
    },
    {
      "place_name": "Sabak Bernam",
      "postal_code": "45207",
      "country_code": "MY",
      "latitude": 3.7317,
      "longitude": 100.9384,
      "admin_name1": "Selangor"
    },
    {
      "place_name": "Puchong",
      "postal_code": "47130",
      "country_code": "MY",
      "latitude": 2.9881,
      "longitude": 101.6053,
      "admin_name1": "Selangor"
    },
    {
      "place_name": "Siburan",
      "postal_code": "94200",
      "country_code": "MY",
      "latitude": 1.3148,
      "longitude": 110.3751,
      "admin_name1": "Sarawak"
    },
    {
      "place_name": "Roban",
      "postal_code": "95300",
      "country_code": "MY",
      "latitude": 1.8838,
      "longitude": 111.3155,
      "admin_name1": "Sarawak"
    },
    {
      "place_name": "Spaoh",
      "postal_code": "95600",
      "country_code": "MY",
      "latitude": 1.6533,
      "longitude": 111.5983,
      "admin_name1": "Sarawak"
    },
    {
      "place_name": "Bintangor",
      "postal_code": "96507",
      "country_code": "MY",
      "latitude": 2.2138,
      "longitude": 111.5514,
      "admin_name1": "Sarawak"
    },
    {
      "place_name": "Bintulu",
      "postal_code": "97010",
      "country_code": "MY",
      "latitude": 3.1906,
      "longitude": 113.0901,
      "admin_name1": "Sarawak"
    },
    {
      "place_name": "Jerteh",
      "postal_code": "22000",
      "country_code": "MY",
      "latitude": 5.6111,
      "longitude": 102.5729,
      "admin_name1": "Terengganu"
    },
    {
      "place_name": "Labis",
      "postal_code": "85300",
      "country_code": "MY",
      "latitude": 2.2604,
      "longitude": 103.5458,
      "admin_name1": "Johor"
    },
    {
      "place_name": "Mersing",
      "postal_code": "86800",
      "country_code": "MY",
      "latitude": 2.3043,
      "longitude": 103.7599,
      "admin_name1": "Johor"
    },
    {
      "place_name": "Endau",
      "postal_code": "86900",
      "country_code": "MY",
      "latitude": 2.5415,
      "longitude": 103.542,
      "admin_name1": "Johor"
    },
    {
      "place_name": "Pendang",
      "postal_code": "06750",
      "country_code": "MY",
      "latitude": 5.9562,
      "longitude": 100.4823,
      "admin_name1": "Kedah"
    },
    {
      "place_name": "Bedong",
      "postal_code": "08110",
      "country_code": "MY",
      "latitude": 5.6793,
      "longitude": 100.4423,
      "admin_name1": "Kedah"
    },
    {
      "place_name": "Jeniang",
      "postal_code": "08320",
      "country_code": "MY",
      "latitude": 5.8343,
      "longitude": 100.6252,
      "admin_name1": "Kedah"
    },
    {
      "place_name": "Sungai Petani",
      "postal_code": "08600",
      "country_code": "MY",
      "latitude": 5.7803,
      "longitude": 100.5201,
      "admin_name1": "Kedah"
    },
    {
      "place_name": "Bachok",
      "postal_code": "16030",
      "country_code": "MY",
      "latitude": 6.0547,
      "longitude": 102.3868,
      "admin_name1": "Kelantan"
    },
    {
      "place_name": "Merlimau",
      "postal_code": "77300",
      "country_code": "MY",
      "latitude": 2.198,
      "longitude": 102.3718,
      "admin_name1": "Melaka"
    },
    {
      "place_name": "Port Dickson",
      "postal_code": "71000",
      "country_code": "MY",
      "latitude": 2.5932,
      "longitude": 101.8413,
      "admin_name1": "Negeri Sembilan"
    },
    {
      "place_name": "Rompin",
      "postal_code": "73500",
      "country_code": "MY",
      "latitude": 2.694,
      "longitude": 102.4612,
      "admin_name1": "Negeri Sembilan"
    },
    {
      "place_name": "Pekan",
      "postal_code": "26620",
      "country_code": "MY",
      "latitude": 3.5087,
      "longitude": 103.0262,
      "admin_name1": "Pahang"
    },
    {
      "place_name": "Bukit Mertajam",
      "postal_code": "14007",
      "country_code": "MY",
      "latitude": 5.3538,
      "longitude": 100.4744,
      "admin_name1": "Pulau Pinang"
    },
    {
      "place_name": "Putatan",
      "postal_code": "88721",
      "country_code": "MY",
      "latitude": 5.4204,
      "longitude": 116.7968,
      "admin_name1": "Sabah"
    },
    {
      "place_name": "Kota Marudu",
      "postal_code": "89107",
      "country_code": "MY",
      "latitude": 6.4852,
      "longitude": 116.7328,
      "admin_name1": "Sabah"
    },
    {
      "place_name": "Kajang",
      "postal_code": "43007",
      "country_code": "MY",
      "latitude": 2.9977,
      "longitude": 101.7864,
      "admin_name1": "Selangor"
    },
    {
      "place_name": "Kuala Kubu Baru",
      "postal_code": "44110",
      "country_code": "MY",
      "latitude": 3.0224,
      "longitude": 101.7237,
      "admin_name1": "Selangor"
    },
    {
      "place_name": "Batang Berjuntai",
      "postal_code": "45600",
      "country_code": "MY",
      "latitude": 3.3036,
      "longitude": 101.46,
      "admin_name1": "Selangor"
    },
    {
      "place_name": "Rawang",
      "postal_code": "48010",
      "country_code": "MY",
      "latitude": 3.3351,
      "longitude": 101.5498,
      "admin_name1": "Selangor"
    },
    {
      "place_name": "Limbang",
      "postal_code": "98707",
      "country_code": "MY",
      "latitude": 4.3466,
      "longitude": 115.1836,
      "admin_name1": "Sarawak"
    },
    {
      "place_name": "Muar",
      "postal_code": "84000",
      "country_code": "MY",
      "latitude": 2.0051,
      "longitude": 102.7335,
      "admin_name1": "Johor"
    },
    {
      "place_name": "Segamat",
      "postal_code": "85000",
      "country_code": "MY",
      "latitude": 2.3134,
      "longitude": 102.9786,
      "admin_name1": "Johor"
    },
    {
      "place_name": "Langkawi",
      "postal_code": "07007",
      "country_code": "MY",
      "latitude": 6.3233,
      "longitude": 99.8547,
      "admin_name1": "Kedah"
    },
    {
      "place_name": "Merbok",
      "postal_code": "08407",
      "country_code": "MY",
      "latitude": 5.7246,
      "longitude": 100.3688,
      "admin_name1": "Kedah"
    },
    {
      "place_name": "Serdang",
      "postal_code": "09800",
      "country_code": "MY",
      "latitude": 5.4765,
      "longitude": 100.5938,
      "admin_name1": "Kedah"
    },
    {
      "place_name": "Rembau",
      "postal_code": "71309",
      "country_code": "MY",
      "latitude": 2.5797,
      "longitude": 102.1024,
      "admin_name1": "Negeri Sembilan"
    },
    {
      "place_name": "Gemas",
      "postal_code": "73480",
      "country_code": "MY",
      "latitude": 2.6705,
      "longitude": 102.5451,
      "admin_name1": "Negeri Sembilan"
    },
    {
      "place_name": "Kuala Rompin",
      "postal_code": "26810",
      "country_code": "MY",
      "latitude": 2.8956,
      "longitude": 103.3812,
      "admin_name1": "Pahang"
    },
    {
      "place_name": "Arau",
      "postal_code": "02607",
      "country_code": "MY",
      "latitude": 6.415,
      "longitude": 100.2823,
      "admin_name1": "Perlis"
    },
    {
      "place_name": "Simpang Ampat",
      "postal_code": "14120",
      "country_code": "MY",
      "latitude": 5.3037,
      "longitude": 100.4439,
      "admin_name1": "Pulau Pinang"
    },
    {
      "place_name": "Pusing",
      "postal_code": "31550",
      "country_code": "MY",
      "latitude": 4.5117,
      "longitude": 100.9917,
      "admin_name1": "Perak"
    },
    {
      "place_name": "Malim Nawar",
      "postal_code": "31700",
      "country_code": "MY",
      "latitude": 4.3844,
      "longitude": 101.1174,
      "admin_name1": "Perak"
    },
    {
      "place_name": "Selama",
      "postal_code": "34120",
      "country_code": "MY",
      "latitude": 5.1677,
      "longitude": 100.6876,
      "admin_name1": "Perak"
    },
    {
      "place_name": "Changkat Jering",
      "postal_code": "34850",
      "country_code": "MY",
      "latitude": 4.7067,
      "longitude": 100.832,
      "admin_name1": "Perak"
    },
    {
      "place_name": "Tanjong Malim",
      "postal_code": "35910",
      "country_code": "MY",
      "latitude": 3.8618,
      "longitude": 101.4197,
      "admin_name1": "Perak"
    },
    {
      "place_name": "Bagan Datoh",
      "postal_code": "36100",
      "country_code": "MY",
      "latitude": 3.9793,
      "longitude": 100.7593,
      "admin_name1": "Perak"
    },
    {
      "place_name": "Sipitang",
      "postal_code": "89850",
      "country_code": "MY",
      "latitude": 5.0331,
      "longitude": 115.5728,
      "admin_name1": "Sabah"
    },
    {
      "place_name": "Tanjong Karang",
      "postal_code": "45500",
      "country_code": "MY",
      "latitude": 3.316,
      "longitude": 101.3201,
      "admin_name1": "Selangor"
    },
    {
      "place_name": "Bau",
      "postal_code": "94009",
      "country_code": "MY",
      "latitude": 1.418,
      "longitude": 110.1614,
      "admin_name1": "Sarawak"
    },
    {
      "place_name": "Serian",
      "postal_code": "94700",
      "country_code": "MY",
      "latitude": 1.2438,
      "longitude": 110.2563,
      "admin_name1": "Sarawak"
    },
    {
      "place_name": "Permaisuri",
      "postal_code": "22109",
      "country_code": "MY",
      "latitude": 5.5837,
      "longitude": 102.7858,
      "admin_name1": "Terengganu"
    },
    {
      "place_name": "Cukai",
      "postal_code": "24007",
      "country_code": "MY",
      "latitude": 4.2327,
      "longitude": 103.4152,
      "admin_name1": "Terengganu"
    },
    {
      "place_name": "Jementah",
      "postal_code": "85200",
      "country_code": "MY",
      "latitude": 2.1737,
      "longitude": 102.9493,
      "admin_name1": "Johor"
    },
    {
      "place_name": "Kulim",
      "postal_code": "09000",
      "country_code": "MY",
      "latitude": 5.4724,
      "longitude": 100.5385,
      "admin_name1": "Kedah"
    },
    {
      "place_name": "Tumpat",
      "postal_code": "16210",
      "country_code": "MY",
      "latitude": 6.1183,
      "longitude": 102.1386,
      "admin_name1": "Kelantan"
    },
    {
      "place_name": "Pasir Mas",
      "postal_code": "17009",
      "country_code": "MY",
      "latitude": 6.0427,
      "longitude": 102.1391,
      "admin_name1": "Kelantan"
    },
    {
      "place_name": "Batu Caves",
      "postal_code": "68100",
      "country_code": "MY",
      "latitude": 3.2251,
      "longitude": 101.6803,
      "admin_name1": "Kuala Lumpur"
    },
    {
      "place_name": "Alor Gajah",
      "postal_code": "78000",
      "country_code": "MY",
      "latitude": 2.3618,
      "longitude": 102.2215,
      "admin_name1": "Melaka"
    },
    {
      "place_name": "Bandar Seri Jempol",
      "postal_code": "72127",
      "country_code": "MY",
      "latitude": 2.8708,
      "longitude": 102.2548,
      "admin_name1": "Negeri Sembilan"
    },
    {
      "place_name": "Simpang Pertang",
      "postal_code": "72307",
      "country_code": "MY",
      "latitude": 2.9571,
      "longitude": 102.3035,
      "admin_name1": "Negeri Sembilan"
    },
    {
      "place_name": "Gambang",
      "postal_code": "26310",
      "country_code": "MY",
      "latitude": 3.7071,
      "longitude": 103.0815,
      "admin_name1": "Pahang"
    },
    {
      "place_name": "Sungai Koyan",
      "postal_code": "27650",
      "country_code": "MY",
      "latitude": 4.1582,
      "longitude": 101.84,
      "admin_name1": "Pahang"
    },
    {
      "place_name": "Pangkor",
      "postal_code": "32300",
      "country_code": "MY",
      "latitude": 4.2597,
      "longitude": 100.6095,
      "admin_name1": "Perak"
    },
    {
      "place_name": "Slim River",
      "postal_code": "35820",
      "country_code": "MY",
      "latitude": 3.814,
      "longitude": 101.4223,
      "admin_name1": "Perak"
    },
    {
      "place_name": "Menumbok",
      "postal_code": "89767",
      "country_code": "MY",
      "latitude": 5.3195,
      "longitude": 115.3756,
      "admin_name1": "Sabah"
    },
    {
      "place_name": "Kapar",
      "postal_code": "42200",
      "country_code": "MY",
      "latitude": 3.1331,
      "longitude": 101.4207,
      "admin_name1": "Selangor"
    },
    {
      "place_name": "Subang Jaya",
      "postal_code": "47507",
      "country_code": "MY",
      "latitude": 3.0439,
      "longitude": 101.5807,
      "admin_name1": "Selangor"
    },
    {
      "place_name": "Gombak",
      "postal_code": "53100",
      "country_code": "MY",
      "latitude": 3.268,
      "longitude": 101.6764,
      "admin_name1": "Selangor"
    },
    {
      "place_name": "Lawas",
      "postal_code": "98857",
      "country_code": "MY",
      "latitude": 4.8211,
      "longitude": 115.4274,
      "admin_name1": "Sarawak"
    },
    {
      "place_name": "Kuala Besut",
      "postal_code": "22307",
      "country_code": "MY",
      "latitude": 5.8201,
      "longitude": 102.5377,
      "admin_name1": "Terengganu"
    },
    {
      "place_name": "Ayer Tawar 5",
      "postal_code": "81920",
      "country_code": "MY",
      "latitude": 2.1308,
      "longitude": 102.4472,
      "admin_name1": "Johor"
    },
    {
      "place_name": "Pontian",
      "postal_code": "82000",
      "country_code": "MY",
      "latitude": 1.5666,
      "longitude": 103.3873,
      "admin_name1": "Johor"
    },
    {
      "place_name": "Yong Peng",
      "postal_code": "83700",
      "country_code": "MY",
      "latitude": 1.9139,
      "longitude": 103.1326,
      "admin_name1": "Johor"
    },
    {
      "place_name": "Alor Star",
      "postal_code": "05460",
      "country_code": "MY",
      "latitude": 6.1194,
      "longitude": 100.3677,
      "admin_name1": "Kedah"
    },
    {
      "place_name": "Langgar",
      "postal_code": "06509",
      "country_code": "MY",
      "latitude": 6.1237,
      "longitude": 100.4445,
      "admin_name1": "Kedah"
    },
    {
      "place_name": "Kuala Kedah",
      "postal_code": "06600",
      "country_code": "MY",
      "latitude": 5.9919,
      "longitude": 100.3635,
      "admin_name1": "Kedah"
    },
    {
      "place_name": "Ayer Lanas",
      "postal_code": "17700",
      "country_code": "MY",
      "latitude": 5.8142,
      "longitude": 101.9253,
      "admin_name1": "Kelantan"
    },
    {
      "place_name": "Cheras",
      "postal_code": "56100",
      "country_code": "MY",
      "latitude": 3.1105,
      "longitude": 101.7389,
      "admin_name1": "Kuala Lumpur"
    },
    {
      "place_name": "Batu Kikir",
      "postal_code": "72209",
      "country_code": "MY",
      "latitude": 2.8441,
      "longitude": 102.3136,
      "admin_name1": "Negeri Sembilan"
    },
    {
      "place_name": "Tampin",
      "postal_code": "73009",
      "country_code": "MY",
      "latitude": 2.4898,
      "longitude": 102.2377,
      "admin_name1": "Negeri Sembilan"
    },
    {
      "place_name": "Jelutong",
      "postal_code": "11600",
      "country_code": "MY",
      "latitude": 5.3956,
      "longitude": 100.3111,
      "admin_name1": "Pulau Pinang"
    },
    {
      "place_name": "Kepala Batas",
      "postal_code": "13210",
      "country_code": "MY",
      "latitude": 5.5048,
      "longitude": 100.4282,
      "admin_name1": "Pulau Pinang"
    },
    {
      "place_name": "Perai",
      "postal_code": "13600",
      "country_code": "MY",
      "latitude": 5.3769,
      "longitude": 100.3848,
      "admin_name1": "Pulau Pinang"
    },
    {
      "place_name": "Batu Kurau",
      "postal_code": "34520",
      "country_code": "MY",
      "latitude": 4.9876,
      "longitude": 100.8302,
      "admin_name1": "Perak"
    },
    {
      "place_name": "Hutan Melintang",
      "postal_code": "36400",
      "country_code": "MY",
      "latitude": 4.0333,
      "longitude": 100.9471,
      "admin_name1": "Perak"
    },
    {
      "place_name": "Likas",
      "postal_code": "88856",
      "country_code": "MY",
      "latitude": 6.008,
      "longitude": 116.1256,
      "admin_name1": "Sabah"
    },
    {
      "place_name": "Penampang",
      "postal_code": "89509",
      "country_code": "MY",
      "latitude": 5.8794,
      "longitude": 116.104,
      "admin_name1": "Sabah"
    },
    {
      "place_name": "Bongawan",
      "postal_code": "89708",
      "country_code": "MY",
      "latitude": 5.4835,
      "longitude": 115.7834,
      "admin_name1": "Sabah"
    },
    {
      "place_name": "Membakut",
      "postal_code": "89727",
      "country_code": "MY",
      "latitude": 5.5243,
      "longitude": 115.6889,
      "admin_name1": "Sabah"
    },
    {
      "place_name": "Nabawan",
      "postal_code": "89950",
      "country_code": "MY",
      "latitude": 4.7676,
      "longitude": 116.4017,
      "admin_name1": "Sabah"
    },
    {
      "place_name": "Bukit Rotan",
      "postal_code": "45700",
      "country_code": "MY",
      "latitude": 3.1956,
      "longitude": 101.3926,
      "admin_name1": "Selangor"
    },
    {
      "place_name": "Cyberjaya",
      "postal_code": "63100",
      "country_code": "MY",
      "latitude": 2.9251,
      "longitude": 101.6574,
      "admin_name1": "Selangor"
    },
    {
      "place_name": "Kapit",
      "postal_code": "96807",
      "country_code": "MY",
      "latitude": 1.9098,
      "longitude": 113.6356,
      "admin_name1": "Sarawak"
    },
    {
      "place_name": "Ketengah Jaya",
      "postal_code": "23300",
      "country_code": "MY",
      "latitude": 4.4348,
      "longitude": 103.3763,
      "admin_name1": "Terengganu"
    },
    {
      "place_name": "Kukup",
      "postal_code": "82300",
      "country_code": "MY",
      "latitude": 1.423,
      "longitude": 103.4425,
      "admin_name1": "Johor"
    },
    {
      "place_name": "Senggarang",
      "postal_code": "83200",
      "country_code": "MY",
      "latitude": 1.8138,
      "longitude": 103.0467,
      "admin_name1": "Johor"
    },
    {
      "place_name": "Yan",
      "postal_code": "06910",
      "country_code": "MY",
      "latitude": 5.8336,
      "longitude": 100.3925,
      "admin_name1": "Kedah"
    },
    {
      "place_name": "Wakaf Bharu",
      "postal_code": "16040",
      "country_code": "MY",
      "latitude": 6.0573,
      "longitude": 102.1743,
      "admin_name1": "Kelantan"
    },
    {
      "place_name": "Nilai",
      "postal_code": "71800",
      "country_code": "MY",
      "latitude": 2.8093,
      "longitude": 101.8334,
      "admin_name1": "Negeri Sembilan"
    },
    {
      "place_name": "Sungai Lembing",
      "postal_code": "26200",
      "country_code": "MY",
      "latitude": 3.8104,
      "longitude": 102.9129,
      "admin_name1": "Pahang"
    },
    {
      "place_name": "Chini",
      "postal_code": "26690",
      "country_code": "MY",
      "latitude": 3.2106,
      "longitude": 103.0223,
      "admin_name1": "Pahang"
    },
    {
      "place_name": "Bruas",
      "postal_code": "32700",
      "country_code": "MY",
      "latitude": 4.7499,
      "longitude": 100.837,
      "admin_name1": "Perak"
    },
    {
      "place_name": "Lenggong",
      "postal_code": "33420",
      "country_code": "MY",
      "latitude": 5.1596,
      "longitude": 101.0009,
      "admin_name1": "Perak"
    },
    {
      "place_name": "Tamparuli",
      "postal_code": "89257",
      "country_code": "MY",
      "latitude": 6.117,
      "longitude": 116.2675,
      "admin_name1": "Sabah"
    },
    {
      "place_name": "Papar",
      "postal_code": "89609",
      "country_code": "MY",
      "latitude": 5.6064,
      "longitude": 115.9625,
      "admin_name1": "Sabah"
    },
    {
      "place_name": "Tambunan",
      "postal_code": "89659",
      "country_code": "MY",
      "latitude": 5.6915,
      "longitude": 116.3775,
      "admin_name1": "Sabah"
    },
    {
      "place_name": "Hulu Langat",
      "postal_code": "43100",
      "country_code": "MY",
      "latitude": 3.0719,
      "longitude": 101.8347,
      "admin_name1": "Selangor"
    },
    {
      "place_name": "Kerling",
      "postal_code": "44100",
      "country_code": "MY",
      "latitude": 3.5566,
      "longitude": 101.5612,
      "admin_name1": "Selangor"
    },
    {
      "place_name": "Simunjan",
      "postal_code": "94809",
      "country_code": "MY",
      "latitude": 1.1862,
      "longitude": 110.9032,
      "admin_name1": "Sarawak"
    },
    {
      "place_name": "Sri Aman",
      "postal_code": "95000",
      "country_code": "MY",
      "latitude": 1.3177,
      "longitude": 111.3894,
      "admin_name1": "Sarawak"
    },
    {
      "place_name": "Sibu",
      "postal_code": "96000",
      "country_code": "MY",
      "latitude": 2.2086,
      "longitude": 111.6,
      "admin_name1": "Sarawak"
    },
    {
      "place_name": "Chalok",
      "postal_code": "21450",
      "country_code": "MY",
      "latitude": 5.3867,
      "longitude": 102.8676,
      "admin_name1": "Terengganu"
    },
    {
      "place_name": "Bandar Baharu",
      "postal_code": "34950",
      "country_code": "MY",
      "latitude": 5.1873,
      "longitude": 100.5156,
      "admin_name1": "Kedah"
    },
    {
      "place_name": "Bandar Pusat Jengka",
      "postal_code": "26460",
      "country_code": "MY",
      "latitude": 3.7263,
      "longitude": 102.5438,
      "admin_name1": "Pahang"
    },
    {
      "place_name": "Tanjong Rambutan",
      "postal_code": "31250",
      "country_code": "MY",
      "latitude": 4.5601,
      "longitude": 101.1448,
      "admin_name1": "Perak"
    },
    {
      "place_name": "Tuaran",
      "postal_code": "89208",
      "country_code": "MY",
      "latitude": 6.1686,
      "longitude": 116.2348,
      "admin_name1": "Sabah"
    },
    {
      "place_name": "Tenghilan",
      "postal_code": "89260",
      "country_code": "MY",
      "latitude": 5.9977,
      "longitude": 116.529,
      "admin_name1": "Sabah"
    },
    {
      "place_name": "Jenjarom",
      "postal_code": "42610",
      "country_code": "MY",
      "latitude": 2.8382,
      "longitude": 101.6827,
      "admin_name1": "Selangor"
    },
    {
      "place_name": "Daro",
      "postal_code": "96200",
      "country_code": "MY",
      "latitude": 2.5321,
      "longitude": 111.5253,
      "admin_name1": "Sarawak"
    },
    {
      "place_name": "Dalat",
      "postal_code": "96300",
      "country_code": "MY",
      "latitude": 2.2853,
      "longitude": 111.9027,
      "admin_name1": "Sarawak"
    },
    {
      "place_name": "Sundar",
      "postal_code": "98800",
      "country_code": "MY",
      "latitude": 3.9777,
      "longitude": 114.0651,
      "admin_name1": "Sarawak"
    },
    {
      "place_name": "Benut",
      "postal_code": "82200",
      "country_code": "MY",
      "latitude": 1.6864,
      "longitude": 103.2713,
      "admin_name1": "Johor"
    },
    {
      "place_name": "Sri Gading",
      "postal_code": "83300",
      "country_code": "MY",
      "latitude": 1.8563,
      "longitude": 102.9259,
      "admin_name1": "Johor"
    },
    {
      "place_name": "Bekok",
      "postal_code": "86500",
      "country_code": "MY",
      "latitude": 2.1332,
      "longitude": 103.4663,
      "admin_name1": "Johor"
    },
    {
      "place_name": "Sik",
      "postal_code": "08200",
      "country_code": "MY",
      "latitude": 5.8207,
      "longitude": 100.6951,
      "admin_name1": "Kedah"
    },
    {
      "place_name": "Kuala Pegang",
      "postal_code": "09110",
      "country_code": "MY",
      "latitude": 5.7874,
      "longitude": 100.6923,
      "admin_name1": "Kedah"
    },
    {
      "place_name": "Kuala Krai",
      "postal_code": "18050",
      "country_code": "MY",
      "latitude": 5.5339,
      "longitude": 102.1996,
      "admin_name1": "Kelantan"
    },
    {
      "place_name": "Dabong",
      "postal_code": "18200",
      "country_code": "MY",
      "latitude": 5.4938,
      "longitude": 102.0523,
      "admin_name1": "Kelantan"
    },
    {
      "place_name": "Bandar Baru Enstek",
      "postal_code": "71760",
      "country_code": "MY",
      "latitude": 2.7526,
      "longitude": 101.7667,
      "admin_name1": "Negeri Sembilan"
    },
    {
      "place_name": "Padang Tengku",
      "postal_code": "27100",
      "country_code": "MY",
      "latitude": 4.1907,
      "longitude": 102.0495,
      "admin_name1": "Pahang"
    },
    {
      "place_name": "Triang",
      "postal_code": "28320",
      "country_code": "MY",
      "latitude": 3.1929,
      "longitude": 102.2939,
      "admin_name1": "Pahang"
    },
    {
      "place_name": "Bentong",
      "postal_code": "28740",
      "country_code": "MY",
      "latitude": 3.2308,
      "longitude": 102.1151,
      "admin_name1": "Pahang"
    },
    {
      "place_name": "Batu Maung",
      "postal_code": "11900",
      "country_code": "MY",
      "latitude": 5.355,
      "longitude": 100.2709,
      "admin_name1": "Pulau Pinang"
    },
    {
      "place_name": "Tanjong Tualang",
      "postal_code": "31800",
      "country_code": "MY",
      "latitude": 4.3912,
      "longitude": 101.0461,
      "admin_name1": "Perak"
    },
    {
      "place_name": "Chenderiang",
      "postal_code": "35300",
      "country_code": "MY",
      "latitude": 4.3111,
      "longitude": 101.2339,
      "admin_name1": "Perak"
    },
    {
      "place_name": "Langkap",
      "postal_code": "36700",
      "country_code": "MY",
      "latitude": 4.2015,
      "longitude": 101.0814,
      "admin_name1": "Perak"
    },
    {
      "place_name": "Kunak",
      "postal_code": "91209",
      "country_code": "MY",
      "latitude": 4.7563,
      "longitude": 118.0895,
      "admin_name1": "Sabah"
    },
    {
      "place_name": "Pelabuhan Klang",
      "postal_code": "42000",
      "country_code": "MY",
      "latitude": 3.0186,
      "longitude": 101.4286,
      "admin_name1": "Selangor"
    },
    {
      "place_name": "Sekinchan",
      "postal_code": "45400",
      "country_code": "MY",
      "latitude": 3.3788,
      "longitude": 101.2798,
      "admin_name1": "Selangor"
    },
    {
      "place_name": "Lubok Antu",
      "postal_code": "95900",
      "country_code": "MY",
      "latitude": 1.2548,
      "longitude": 111.6771,
      "admin_name1": "Sarawak"
    },
    {
      "place_name": "Lutong",
      "postal_code": "98107",
      "country_code": "MY",
      "latitude": 4.4803,
      "longitude": 114.0108,
      "admin_name1": "Sarawak"
    },
    {
      "place_name": "Rengit",
      "postal_code": "83100",
      "country_code": "MY",
      "latitude": 1.664,
      "longitude": 103.2453,
      "admin_name1": "Johor"
    },
    {
      "place_name": "Ayer Hitam",
      "postal_code": "06150",
      "country_code": "MY",
      "latitude": 6.1893,
      "longitude": 100.2859,
      "admin_name1": "Kedah"
    },
    {
      "place_name": "Kuala Ketil",
      "postal_code": "09310",
      "country_code": "MY",
      "latitude": 5.5849,
      "longitude": 100.7507,
      "admin_name1": "Kedah"
    },
    {
      "place_name": "Tanah Merah",
      "postal_code": "17507",
      "country_code": "MY",
      "latitude": 5.8074,
      "longitude": 102.151,
      "admin_name1": "Kelantan"
    },
    {
      "place_name": "Masjid Tanah",
      "postal_code": "78300",
      "country_code": "MY",
      "latitude": 2.3301,
      "longitude": 102.1472,
      "admin_name1": "Melaka"
    },
    {
      "place_name": "Si Rusa",
      "postal_code": "71050",
      "country_code": "MY",
      "latitude": 2.5099,
      "longitude": 102.0049,
      "admin_name1": "Negeri Sembilan"
    },
    {
      "place_name": "Rantau",
      "postal_code": "71209",
      "country_code": "MY",
      "latitude": 2.589,
      "longitude": 101.9629,
      "admin_name1": "Negeri Sembilan"
    },
    {
      "place_name": "Kuala Klawang",
      "postal_code": "71659",
      "country_code": "MY",
      "latitude": 2.9472,
      "longitude": 102.0855,
      "admin_name1": "Negeri Sembilan"
    },
    {
      "place_name": "Pusat Bandar Palong",
      "postal_code": "73450",
      "country_code": "MY",
      "latitude": 2.7332,
      "longitude": 102.5843,
      "admin_name1": "Negeri Sembilan"
    },
    {
      "place_name": "Chenor",
      "postal_code": "28100",
      "country_code": "MY",
      "latitude": 3.5018,
      "longitude": 102.6455,
      "admin_name1": "Pahang"
    },
    {
      "place_name": "Permatang Pauh",
      "postal_code": "13500",
      "country_code": "MY",
      "latitude": 5.3934,
      "longitude": 100.4107,
      "admin_name1": "Pulau Pinang"
    },
    {
      "place_name": "Bidor",
      "postal_code": "35500",
      "country_code": "MY",
      "latitude": 4.1787,
      "longitude": 101.2265,
      "admin_name1": "Perak"
    },
    {
      "place_name": "Ranau",
      "postal_code": "89300",
      "country_code": "MY",
      "latitude": 5.9589,
      "longitude": 116.6402,
      "admin_name1": "Sabah"
    },
    {
      "place_name": "Bekenu",
      "postal_code": "98157",
      "country_code": "MY",
      "latitude": 4.0677,
      "longitude": 113.831,
      "admin_name1": "Sarawak"
    },
    {
      "place_name": "Sungai Tong",
      "postal_code": "21500",
      "country_code": "MY",
      "latitude": 5.2448,
      "longitude": 102.8795,
      "admin_name1": "Terengganu"
    },
    {
      "place_name": "Dungun",
      "postal_code": "23007",
      "country_code": "MY",
      "latitude": 4.7565,
      "longitude": 103.3997,
      "admin_name1": "Terengganu"
    },
    {
      "place_name": "Parit Raja",
      "postal_code": "86400",
      "country_code": "MY",
      "latitude": 1.8605,
      "longitude": 103.1004,
      "admin_name1": "Johor"
    },
    {
      "place_name": "Kahang",
      "postal_code": "86700",
      "country_code": "MY",
      "latitude": 2.1504,
      "longitude": 103.5336,
      "admin_name1": "Johor"
    },
    {
      "place_name": "Linggi",
      "postal_code": "71159",
      "country_code": "MY",
      "latitude": 2.4674,
      "longitude": 102.0523,
      "admin_name1": "Negeri Sembilan"
    },
    {
      "place_name": "Johol",
      "postal_code": "73100",
      "country_code": "MY",
      "latitude": 2.6182,
      "longitude": 102.2701,
      "admin_name1": "Negeri Sembilan"
    },
    {
      "place_name": "Bandar Bera",
      "postal_code": "28200",
      "country_code": "MY",
      "latitude": 3.3437,
      "longitude": 102.5281,
      "admin_name1": "Pahang"
    },
    {
      "place_name": "Kampar",
      "postal_code": "31900",
      "country_code": "MY",
      "latitude": 4.3551,
      "longitude": 101.1252,
      "admin_name1": "Perak"
    },
    {
      "place_name": "Padang Rengas",
      "postal_code": "33700",
      "country_code": "MY",
      "latitude": 4.8174,
      "longitude": 100.8677,
      "admin_name1": "Perak"
    },
    {
      "place_name": "Rantau Panjang",
      "postal_code": "34140",
      "country_code": "MY",
      "latitude": 5.0506,
      "longitude": 100.813,
      "admin_name1": "Perak"
    },
    {
      "place_name": "Kamunting",
      "postal_code": "34600",
      "country_code": "MY",
      "latitude": 4.8263,
      "longitude": 100.7717,
      "admin_name1": "Perak"
    },
    {
      "place_name": "Tapah",
      "postal_code": "35000",
      "country_code": "MY",
      "latitude": 4.3279,
      "longitude": 101.1595,
      "admin_name1": "Perak"
    },
    {
      "place_name": "Kota Belud",
      "postal_code": "89159",
      "country_code": "MY",
      "latitude": 6.3648,
      "longitude": 116.4476,
      "admin_name1": "Sabah"
    },
    {
      "place_name": "Sepang",
      "postal_code": "43900",
      "country_code": "MY",
      "latitude": 2.9765,
      "longitude": 101.7067,
      "admin_name1": "Selangor"
    },
    {
      "place_name": "Lundu",
      "postal_code": "94500",
      "country_code": "MY",
      "latitude": 1.6733,
      "longitude": 109.8363,
      "admin_name1": "Sarawak"
    },
    {
      "place_name": "Julau",
      "postal_code": "96600",
      "country_code": "MY",
      "latitude": 1.783,
      "longitude": 111.9699,
      "admin_name1": "Sarawak"
    },
    {
      "place_name": "Niah",
      "postal_code": "98200",
      "country_code": "MY",
      "latitude": 3.195,
      "longitude": 112.6848,
      "admin_name1": "Sarawak"
    },
    {
      "place_name": "Kupang",
      "postal_code": "09200",
      "country_code": "MY",
      "latitude": 5.6818,
      "longitude": 100.758,
      "admin_name1": "Kedah"
    },
    {
      "place_name": "Bemban",
      "postal_code": "77200",
      "country_code": "MY",
      "latitude": 2.2582,
      "longitude": 102.3555,
      "admin_name1": "Melaka"
    },
    {
      "place_name": "Mentakab",
      "postal_code": "28409",
      "country_code": "MY",
      "latitude": 3.4862,
      "longitude": 102.3283,
      "admin_name1": "Pahang"
    },
    {
      "place_name": "Kuala Perlis",
      "postal_code": "02000",
      "country_code": "MY",
      "latitude": 6.2683,
      "longitude": 100.2088,
      "admin_name1": "Perlis"
    },
    {
      "place_name": "Batu Gajah",
      "postal_code": "31000",
      "country_code": "MY",
      "latitude": 4.4422,
      "longitude": 101.0546,
      "admin_name1": "Perak"
    },
    {
      "place_name": "Bandar Seri Iskandar",
      "postal_code": "32600",
      "country_code": "MY",
      "latitude": 4.3587,
      "longitude": 100.9673,
      "admin_name1": "Perak"
    },
    {
      "place_name": "Lambor Kanan",
      "postal_code": "32900",
      "country_code": "MY",
      "latitude": 4.385,
      "longitude": 100.9163,
      "admin_name1": "Perak"
    },
    {
      "place_name": "Intan",
      "postal_code": "33200",
      "country_code": "MY",
      "latitude": 5.4297,
      "longitude": 101.0342,
      "admin_name1": "Perak"
    },
    {
      "place_name": "Sungai Sumun",
      "postal_code": "36300",
      "country_code": "MY",
      "latitude": 4.0448,
      "longitude": 100.8621,
      "admin_name1": "Perak"
    },
    {
      "place_name": "Tenom",
      "postal_code": "89908",
      "country_code": "MY",
      "latitude": 4.9872,
      "longitude": 115.9241,
      "admin_name1": "Sabah"
    },
    {
      "place_name": "Telok Panglima Garang",
      "postal_code": "42507",
      "country_code": "MY",
      "latitude": 2.9129,
      "longitude": 101.4686,
      "admin_name1": "Selangor"
    },
    {
      "place_name": "Matu",
      "postal_code": "96250",
      "country_code": "MY",
      "latitude": 2.6413,
      "longitude": 111.4437,
      "admin_name1": "Sarawak"
    },
    {
      "place_name": "Kanowit",
      "postal_code": "96700",
      "country_code": "MY",
      "latitude": 1.9416,
      "longitude": 112.0866,
      "admin_name1": "Sarawak"
    },
    {
      "place_name": "Long Lama",
      "postal_code": "98300",
      "country_code": "MY",
      "latitude": 3.9671,
      "longitude": 114.2984,
      "admin_name1": "Sarawak"
    },
    {
      "place_name": "Paka",
      "postal_code": "23100",
      "country_code": "MY",
      "latitude": 4.7314,
      "longitude": 103.358,
      "admin_name1": "Terengganu"
    },
    {
      "place_name": "Parit Jawa",
      "postal_code": "84150",
      "country_code": "MY",
      "latitude": 1.9152,
      "longitude": 102.8197,
      "admin_name1": "Johor"
    },
    {
      "place_name": "Rengam",
      "postal_code": "86300",
      "country_code": "MY",
      "latitude": 1.8498,
      "longitude": 103.3555,
      "admin_name1": "Johor"
    },
    {
      "place_name": "Bandar Bahru",
      "postal_code": "14290",
      "country_code": "MY",
      "latitude": 5.6564,
      "longitude": 100.5422,
      "admin_name1": "Kedah"
    },
    {
      "place_name": "Selandar",
      "postal_code": "77500",
      "country_code": "MY",
      "latitude": 2.384,
      "longitude": 102.3584,
      "admin_name1": "Melaka"
    },
    {
      "place_name": "Kuala Krau",
      "postal_code": "28050",
      "country_code": "MY",
      "latitude": 3.6237,
      "longitude": 102.456,
      "admin_name1": "Pahang"
    },
    {
      "place_name": "Tasek Gelugor",
      "postal_code": "13310",
      "country_code": "MY",
      "latitude": 5.4558,
      "longitude": 100.4549,
      "admin_name1": "Pulau Pinang"
    },
    {
      "place_name": "Seri Manjong",
      "postal_code": "32040",
      "country_code": "MY",
      "latitude": 4.22,
      "longitude": 100.7541,
      "admin_name1": "Perak"
    },
    {
      "place_name": "Selekoh",
      "postal_code": "36200",
      "country_code": "MY",
      "latitude": 3.9955,
      "longitude": 100.768,
      "admin_name1": "Perak"
    },
    {
      "place_name": "Sungai Ayer Tawar",
      "postal_code": "45100",
      "country_code": "MY",
      "latitude": 3.776,
      "longitude": 100.875,
      "admin_name1": "Selangor"
    },
    {
      "place_name": "Jeram",
      "postal_code": "45800",
      "country_code": "MY",
      "latitude": 3.1944,
      "longitude": 101.4281,
      "admin_name1": "Selangor"
    },
    {
      "place_name": "Betong",
      "postal_code": "95709",
      "country_code": "MY",
      "latitude": 1.4196,
      "longitude": 111.5959,
      "admin_name1": "Sarawak"
    },
    {
      "place_name": "Belawai",
      "postal_code": "96150",
      "country_code": "MY",
      "latitude": 1.9636,
      "longitude": 111.0947,
      "admin_name1": "Sarawak"
    },
    {
      "place_name": "Bandar Tenggara",
      "postal_code": "81440",
      "country_code": "MY",
      "latitude": 1.7876,
      "longitude": 103.6699,
      "admin_name1": "Johor"
    },
    {
      "place_name": "Cherang Ruku",
      "postal_code": "16700",
      "country_code": "MY",
      "latitude": 5.8722,
      "longitude": 102.4363,
      "admin_name1": "Kelantan"
    },
    {
      "place_name": "Asahan",
      "postal_code": "77100",
      "country_code": "MY",
      "latitude": 2.38,
      "longitude": 102.4819,
      "admin_name1": "Melaka"
    },
    {
      "place_name": "Brinchang",
      "postal_code": "39100",
      "country_code": "MY",
      "latitude": 4.3557,
      "longitude": 101.6275,
      "admin_name1": "Pahang"
    },
    {
      "place_name": "Gopeng",
      "postal_code": "31600",
      "country_code": "MY",
      "latitude": 4.5193,
      "longitude": 101.1153,
      "admin_name1": "Perak"
    },
    {
      "place_name": "Parit",
      "postal_code": "32800",
      "country_code": "MY",
      "latitude": 4.5504,
      "longitude": 100.9064,
      "admin_name1": "Perak"
    },
    {
      "place_name": "Manong",
      "postal_code": "33800",
      "country_code": "MY",
      "latitude": 4.6523,
      "longitude": 100.8827,
      "admin_name1": "Perak"
    },
    {
      "place_name": "Bangi",
      "postal_code": "43600",
      "country_code": "MY",
      "latitude": 2.9271,
      "longitude": 101.7802,
      "admin_name1": "Selangor"
    },
    {
      "place_name": "Dengkil",
      "postal_code": "43807",
      "country_code": "MY",
      "latitude": 2.8643,
      "longitude": 101.6775,
      "admin_name1": "Selangor"
    },
    {
      "place_name": "Batangkali",
      "postal_code": "44300",
      "country_code": "MY",
      "latitude": 3.2206,
      "longitude": 101.5735,
      "admin_name1": "Selangor"
    },
    {
      "place_name": "Serendah",
      "postal_code": "48200",
      "country_code": "MY",
      "latitude": 3.23,
      "longitude": 101.6374,
      "admin_name1": "Selangor"
    },
    {
      "place_name": "Lingga",
      "postal_code": "94900",
      "country_code": "MY",
      "latitude": 1.3306,
      "longitude": 111.1952,
      "admin_name1": "Sarawak"
    },
    {
      "place_name": "Saratok",
      "postal_code": "95400",
      "country_code": "MY",
      "latitude": 1.6629,
      "longitude": 111.2076,
      "admin_name1": "Sarawak"
    },
    {
      "place_name": "Bukit Payong",
      "postal_code": "21400",
      "country_code": "MY",
      "latitude": 5.2321,
      "longitude": 103.1041,
      "admin_name1": "Terengganu"
    },
    {
      "place_name": "Kijal",
      "postal_code": "24100",
      "country_code": "MY",
      "latitude": 4.436,
      "longitude": 103.4175,
      "admin_name1": "Terengganu"
    },
    {
      "place_name": "Batu Pahat",
      "postal_code": "83000",
      "country_code": "MY",
      "latitude": 1.8578,
      "longitude": 103.0357,
      "admin_name1": "Johor"
    },
    {
      "place_name": "Gurun",
      "postal_code": "08300",
      "country_code": "MY",
      "latitude": 5.8064,
      "longitude": 100.5136,
      "admin_name1": "Kedah"
    },
    {
      "place_name": "Baling",
      "postal_code": "09100",
      "country_code": "MY",
      "latitude": 5.7229,
      "longitude": 100.7831,
      "admin_name1": "Kedah"
    },
    {
      "place_name": "Jaya Gading",
      "postal_code": "26250",
      "country_code": "MY",
      "latitude": 3.8173,
      "longitude": 103.1733,
      "admin_name1": "Pahang"
    },
    {
      "place_name": "Sungai Ruan",
      "postal_code": "27630",
      "country_code": "MY",
      "latitude": 3.7417,
      "longitude": 101.9874,
      "admin_name1": "Pahang"
    },
    {
      "place_name": "Kaki Bukit",
      "postal_code": "02200",
      "country_code": "MY",
      "latitude": 6.6472,
      "longitude": 100.2022,
      "admin_name1": "Perlis"
    },
    {
      "place_name": "Tasek Gelugur",
      "postal_code": "13300",
      "country_code": "MY",
      "latitude": 5.2632,
      "longitude": 100.4846,
      "admin_name1": "Pulau Pinang"
    },
    {
      "place_name": "Chenderong Balai",
      "postal_code": "36600",
      "country_code": "MY",
      "latitude": 4.2992,
      "longitude": 101.0101,
      "admin_name1": "Perak"
    },
    {
      "place_name": "Inanam",
      "postal_code": "88857",
      "country_code": "MY",
      "latitude": 5.9933,
      "longitude": 116.1322,
      "admin_name1": "Sabah"
    },
    {
      "place_name": "Pulau Ketam",
      "postal_code": "42940",
      "country_code": "MY",
      "latitude": 2.9555,
      "longitude": 101.3268,
      "admin_name1": "Selangor"
    },
    {
      "place_name": "Sungai Pelek",
      "postal_code": "43950",
      "country_code": "MY",
      "latitude": 2.8526,
      "longitude": 101.632,
      "admin_name1": "Selangor"
    },
    {
      "place_name": "Sungai Besar",
      "postal_code": "45300",
      "country_code": "MY",
      "latitude": 3.5615,
      "longitude": 101.146,
      "admin_name1": "Selangor"
    },
    {
      "place_name": "KLIA",
      "postal_code": "64000",
      "country_code": "MY",
      "latitude": 2.8239,
      "longitude": 101.687,
      "admin_name1": "Selangor"
    },
    {
      "place_name": "Engkilili",
      "postal_code": "95800",
      "country_code": "MY",
      "latitude": 1.2817,
      "longitude": 110.9074,
      "admin_name1": "Sarawak"
    },
    {
      "place_name": "Ajil",
      "postal_code": "21810",
      "country_code": "MY",
      "latitude": 5.0178,
      "longitude": 103.1339,
      "admin_name1": "Terengganu"
    },
    {
      "place_name": "Kemasek",
      "postal_code": "24200",
      "country_code": "MY",
      "latitude": 4.62,
      "longitude": 103.353,
      "admin_name1": "Terengganu"
    },
    {
      "place_name": "Masai",
      "postal_code": "81750",
      "country_code": "MY",
      "latitude": 1.5558,
      "longitude": 103.7616,
      "admin_name1": "Johor"
    },
    {
      "place_name": "Ayer Tawar 3",
      "postal_code": "81920",
      "country_code": "MY",
      "latitude": 1.721,
      "longitude": 103.8967,
      "admin_name1": "Johor"
    },
    {
      "place_name": "Simpang Rengam",
      "postal_code": "86200",
      "country_code": "MY",
      "latitude": 1.881,
      "longitude": 103.3957,
      "admin_name1": "Johor"
    },
    {
      "place_name": "Jeli",
      "postal_code": "17600",
      "country_code": "MY",
      "latitude": 5.728,
      "longitude": 101.9225,
      "admin_name1": "Kelantan"
    },
    {
      "place_name": "Sungai Udang",
      "postal_code": "76300",
      "country_code": "MY",
      "latitude": 2.2867,
      "longitude": 102.1406,
      "admin_name1": "Melaka"
    },
    {
      "place_name": "Muadzam Shah",
      "postal_code": "26700",
      "country_code": "MY",
      "latitude": 3.2041,
      "longitude": 102.8052,
      "admin_name1": "Pahang"
    },
    {
      "place_name": "Ringlet",
      "postal_code": "39200",
      "country_code": "MY",
      "latitude": 4.2961,
      "longitude": 101.5451,
      "admin_name1": "Pahang"
    },
    {
      "place_name": "Bukit Fraser",
      "postal_code": "49000",
      "country_code": "MY",
      "latitude": 3.7188,
      "longitude": 101.7403,
      "admin_name1": "Pahang"
    },
    {
      "place_name": "Batu Ferringhi",
      "postal_code": "11100",
      "country_code": "MY",
      "latitude": 5.4452,
      "longitude": 100.2911,
      "admin_name1": "Pulau Pinang"
    },
    {
      "place_name": "Lumut",
      "postal_code": "32200",
      "country_code": "MY",
      "latitude": 4.317,
      "longitude": 100.7977,
      "admin_name1": "Perak"
    },
    {
      "place_name": "Tanah Rata",
      "postal_code": "39000",
      "country_code": "MY",
      "latitude": 4.4301,
      "longitude": 101.4165,
      "admin_name1": "Perak"
    },
    {
      "place_name": "Bandar Baru Bangi",
      "postal_code": "43650",
      "country_code": "MY",
      "latitude": 2.9918,
      "longitude": 101.7455,
      "admin_name1": "Selangor"
    },
    {
      "place_name": "Batu Arang",
      "postal_code": "48100",
      "country_code": "MY",
      "latitude": 3.1802,
      "longitude": 101.5034,
      "admin_name1": "Selangor"
    },
    {
      "place_name": "Layang-Layang",
      "postal_code": "81850",
      "country_code": "MY",
      "latitude": 1.7832,
      "longitude": 103.4388,
      "admin_name1": "Johor"
    },
    {
      "place_name": "Pokok Sena",
      "postal_code": "06400",
      "country_code": "MY",
      "latitude": 6.0432,
      "longitude": 100.5221,
      "admin_name1": "Kedah"
    },
    {
      "place_name": "Melor",
      "postal_code": "16400",
      "country_code": "MY",
      "latitude": 5.92,
      "longitude": 102.2742,
      "admin_name1": "Kelantan"
    },
    {
      "place_name": "Pulai Chondong",
      "postal_code": "16600",
      "country_code": "MY",
      "latitude": 5.8908,
      "longitude": 102.2376,
      "admin_name1": "Kelantan"
    },
    {
      "place_name": "Pasir Puteh",
      "postal_code": "16800",
      "country_code": "MY",
      "latitude": 5.8178,
      "longitude": 102.3748,
      "admin_name1": "Kelantan"
    },
    {
      "place_name": "Lubok China",
      "postal_code": "78100",
      "country_code": "MY",
      "latitude": 2.4326,
      "longitude": 102.1127,
      "admin_name1": "Melaka"
    },
    {
      "place_name": "Bahau",
      "postal_code": "72109",
      "country_code": "MY",
      "latitude": 2.8046,
      "longitude": 102.3876,
      "admin_name1": "Negeri Sembilan"
    },
    {
      "place_name": "Bukit Goh",
      "postal_code": "26050",
      "country_code": "MY",
      "latitude": 3.7793,
      "longitude": 102.9106,
      "admin_name1": "Pahang"
    },
    {
      "place_name": "Lurah Bilut",
      "postal_code": "28800",
      "country_code": "MY",
      "latitude": 3.6623,
      "longitude": 101.9202,
      "admin_name1": "Pahang"
    },
    {
      "place_name": "Ayer Itam",
      "postal_code": "11500",
      "country_code": "MY",
      "latitude": 5.3681,
      "longitude": 100.305,
      "admin_name1": "Pulau Pinang"
    },
    {
      "place_name": "Ulu Kinta",
      "postal_code": "31150",
      "country_code": "MY",
      "latitude": 4.6008,
      "longitude": 101.1007,
      "admin_name1": "Perak"
    },
    {
      "place_name": "Seri Manjung",
      "postal_code": "32040",
      "country_code": "MY",
      "latitude": 4.602,
      "longitude": 100.7979,
      "admin_name1": "Perak"
    },
    {
      "place_name": "Enggor",
      "postal_code": "33600",
      "country_code": "MY",
      "latitude": 4.8218,
      "longitude": 100.946,
      "admin_name1": "Perak"
    },
    {
      "place_name": "Matang",
      "postal_code": "34750",
      "country_code": "MY",
      "latitude": 4.7804,
      "longitude": 100.7247,
      "admin_name1": "Perak"
    },
    {
      "place_name": "Debak",
      "postal_code": "95500",
      "country_code": "MY",
      "latitude": 1.5775,
      "longitude": 111.2168,
      "admin_name1": "Sarawak"
    },
    {
      "place_name": "Nanga Medamit",
      "postal_code": "98750",
      "country_code": "MY",
      "latitude": 2.5574,
      "longitude": 113.0012,
      "admin_name1": "Sarawak"
    },
    {
      "place_name": "Gugusan Taib Andak",
      "postal_code": "81450",
      "country_code": "MY",
      "latitude": 1.7601,
      "longitude": 103.6852,
      "admin_name1": "Johor"
    },
    {
      "place_name": "Gerisek",
      "postal_code": "84700",
      "country_code": "MY",
      "latitude": 2.215,
      "longitude": 102.7854,
      "admin_name1": "Johor"
    },
    {
      "place_name": "Kuala Nerang",
      "postal_code": "06300",
      "country_code": "MY",
      "latitude": 6.1461,
      "longitude": 100.5833,
      "admin_name1": "Kedah"
    },
    {
      "place_name": "Tronoh",
      "postal_code": "31750",
      "country_code": "MY",
      "latitude": 4.4306,
      "longitude": 101.014,
      "admin_name1": "Perak"
    },
    {
      "place_name": "Kuala Kurau",
      "postal_code": "34350",
      "country_code": "MY",
      "latitude": 4.9211,
      "longitude": 100.5186,
      "admin_name1": "Perak"
    },
    {
      "place_name": "Behrang Stesen",
      "postal_code": "35950",
      "country_code": "MY",
      "latitude": 3.889,
      "longitude": 101.4121,
      "admin_name1": "Perak"
    },
    {
      "place_name": "Kampung Gajah",
      "postal_code": "36810",
      "country_code": "MY",
      "latitude": 4.4818,
      "longitude": 100.8377,
      "admin_name1": "Perak"
    },
    {
      "place_name": "Banting",
      "postal_code": "42700",
      "country_code": "MY",
      "latitude": 2.9092,
      "longitude": 101.5279,
      "admin_name1": "Selangor"
    },
    {
      "place_name": "Sebuyau",
      "postal_code": "94850",
      "country_code": "MY",
      "latitude": 1.3337,
      "longitude": 110.9275,
      "admin_name1": "Sarawak"
    },
    {
      "place_name": "Balingian",
      "postal_code": "96350",
      "country_code": "MY",
      "latitude": 2.2248,
      "longitude": 111.6044,
      "admin_name1": "Sarawak"
    },
    {
      "place_name": "Al Muktatfi Billah Shah",
      "postal_code": "23400",
      "country_code": "MY",
      "latitude": 4.6199,
      "longitude": 103.2089,
      "admin_name1": "Terengganu"
    },
    {
      "place_name": "Ceneh",
      "postal_code": "24050",
      "country_code": "MY",
      "latitude": 4.1373,
      "longitude": 103.2476,
      "admin_name1": "Terengganu"
    },
    {
      "place_name": "Gelang Patah",
      "postal_code": "81550",
      "country_code": "MY",
      "latitude": 1.4619,
      "longitude": 103.5857,
      "admin_name1": "Johor"
    },
    {
      "place_name": "masai",
      "postal_code": "81750",
      "country_code": "MY",
      "latitude": 1.5641,
      "longitude": 103.7838,
      "admin_name1": "Johor"
    },
    {
      "place_name": "Ayer Tawar 2",
      "postal_code": "81920",
      "country_code": "MY",
      "latitude": 1.7578,
      "longitude": 103.9291,
      "admin_name1": "Johor"
    },
    {
      "place_name": "Kota Bahru",
      "postal_code": "16100",
      "country_code": "MY",
      "latitude": 6.122,
      "longitude": 102.2523,
      "admin_name1": "Kelantan"
    },
    {
      "place_name": "Kem Desa Pahlawan",
      "postal_code": "16500",
      "country_code": "MY",
      "latitude": 5.8938,
      "longitude": 102.2273,
      "admin_name1": "Kelantan"
    },
    {
      "place_name": "Sungai Siput",
      "postal_code": "31050",
      "country_code": "MY",
      "latitude": 4.9134,
      "longitude": 101.0665,
      "admin_name1": "Perak"
    },
    {
      "place_name": "Pengkalan Hulu",
      "postal_code": "33100",
      "country_code": "MY",
      "latitude": 5.4731,
      "longitude": 101.0105,
      "admin_name1": "Perak"
    },
    {
      "place_name": "Semenyih",
      "postal_code": "43500",
      "country_code": "MY",
      "latitude": 2.9982,
      "longitude": 101.8017,
      "admin_name1": "Selangor"
    },
    {
      "place_name": "Ayer Puteh",
      "postal_code": "24050",
      "country_code": "MY",
      "latitude": 4.4703,
      "longitude": 103.1734,
      "admin_name1": "Terengganu"
    },
    {
      "place_name": "Sri Medan",
      "postal_code": "83400",
      "country_code": "MY",
      "latitude": 1.5084,
      "longitude": 103.7136,
      "admin_name1": "Johor"
    },
    {
      "place_name": "Simpang Empat",
      "postal_code": "06650",
      "country_code": "MY",
      "latitude": 6.013,
      "longitude": 100.4018,
      "admin_name1": "Kedah"
    },
    {
      "place_name": "Kota Sarang Semut",
      "postal_code": "06800",
      "country_code": "MY",
      "latitude": 5.9008,
      "longitude": 100.4089,
      "admin_name1": "Kedah"
    },
    {
      "place_name": "Ketereh",
      "postal_code": "16450",
      "country_code": "MY",
      "latitude": 5.9179,
      "longitude": 102.2274,
      "admin_name1": "Kelantan"
    },
    {
      "place_name": "Kuala Sungai Baru",
      "postal_code": "78200",
      "country_code": "MY",
      "latitude": 2.33,
      "longitude": 102.0961,
      "admin_name1": "Melaka"
    },
    {
      "place_name": "Tanjong Ipoh",
      "postal_code": "71500",
      "country_code": "MY",
      "latitude": 2.73,
      "longitude": 102.1526,
      "admin_name1": "Negeri Sembilan"
    },
    {
      "place_name": "Kuala Pilah",
      "postal_code": "72007",
      "country_code": "MY",
      "latitude": 2.749,
      "longitude": 102.2502,
      "admin_name1": "Negeri Sembilan"
    },
    {
      "place_name": "Dong",
      "postal_code": "27400",
      "country_code": "MY",
      "latitude": 3.8834,
      "longitude": 101.983,
      "admin_name1": "Pahang"
    },
    {
      "place_name": "Lanchang",
      "postal_code": "28500",
      "country_code": "MY",
      "latitude": 3.5547,
      "longitude": 102.265,
      "admin_name1": "Pahang"
    },
    {
      "place_name": "Tanjung Bungah",
      "postal_code": "11200",
      "country_code": "MY",
      "latitude": 5.4608,
      "longitude": 100.2814,
      "admin_name1": "Pulau Pinang"
    },
    {
      "place_name": "Kubang Semang",
      "postal_code": "14400",
      "country_code": "MY",
      "latitude": 5.4088,
      "longitude": 100.4837,
      "admin_name1": "Pulau Pinang"
    },
    {
      "place_name": "Kuala Sepetang",
      "postal_code": "34650",
      "country_code": "MY",
      "latitude": 4.9204,
      "longitude": 100.6607,
      "admin_name1": "Perak"
    },
    {
      "place_name": "Simpang",
      "postal_code": "34700",
      "country_code": "MY",
      "latitude": 4.7183,
      "longitude": 100.7986,
      "admin_name1": "Perak"
    },
    {
      "place_name": "Ulu Bernam",
      "postal_code": "36500",
      "country_code": "MY",
      "latitude": 3.9111,
      "longitude": 101.2078,
      "admin_name1": "Perak"
    },
    {
      "place_name": "Kuala Selangor",
      "postal_code": "45000",
      "country_code": "MY",
      "latitude": 3.2457,
      "longitude": 101.3678,
      "admin_name1": "Selangor"
    },
    {
      "place_name": "Mukah",
      "postal_code": "96410",
      "country_code": "MY",
      "latitude": 2.8576,
      "longitude": 111.8762,
      "admin_name1": "Sarawak"
    },
    {
      "place_name": "Kampung Raja",
      "postal_code": "22200",
      "country_code": "MY",
      "latitude": 5.7332,
      "longitude": 102.613,
      "admin_name1": "Terengganu"
    },
    {
      "place_name": "Tangkak",
      "postal_code": "84000",
      "country_code": "MY",
      "latitude": 1.9768,
      "longitude": 102.9125,
      "admin_name1": "Johor"
    },
    {
      "place_name": "Gua Musang",
      "postal_code": "18300",
      "country_code": "MY",
      "latitude": 5.0356,
      "longitude": 102.0247,
      "admin_name1": "Kelantan"
    },
    {
      "place_name": "Sungai Rambai'",
      "postal_code": "77400",
      "country_code": "MY",
      "latitude": 2.1368,
      "longitude": 102.5051,
      "admin_name1": "Melaka"
    },
    {
      "place_name": "Penaga",
      "postal_code": "13100",
      "country_code": "MY",
      "latitude": 5.4632,
      "longitude": 100.4027,
      "admin_name1": "Pulau Pinang"
    },
    {
      "place_name": "Parit Buntar",
      "postal_code": "34200",
      "country_code": "MY",
      "latitude": 4.907,
      "longitude": 100.6029,
      "admin_name1": "Perak"
    },
    {
      "place_name": "Seri Kembangan",
      "postal_code": "43300",
      "country_code": "MY",
      "latitude": 3.0383,
      "longitude": 101.7094,
      "admin_name1": "Selangor"
    },
    {
      "place_name": "Sebauh",
      "postal_code": "97100",
      "country_code": "MY",
      "latitude": 2.7811,
      "longitude": 112.6702,
      "admin_name1": "Sarawak"
    },
    {
      "place_name": "Kota Tinggi",
      "postal_code": "81900",
      "country_code": "MY",
      "latitude": 1.7427,
      "longitude": 103.7788,
      "admin_name1": "Johor"
    },
    {
      "place_name": "Chaah",
      "postal_code": "85400",
      "country_code": "MY",
      "latitude": 2.0491,
      "longitude": 103.1443,
      "admin_name1": "Johor"
    },
    {
      "place_name": "Padang Serai",
      "postal_code": "09410",
      "country_code": "MY",
      "latitude": 5.6077,
      "longitude": 100.6056,
      "admin_name1": "Kedah"
    },
    {
      "place_name": "Pantai Remis",
      "postal_code": "34900",
      "country_code": "MY",
      "latitude": 4.5708,
      "longitude": 100.6901,
      "admin_name1": "Perak"
    },
    {
      "place_name": "Trolak",
      "postal_code": "35700",
      "country_code": "MY",
      "latitude": 3.9577,
      "longitude": 101.3342,
      "admin_name1": "Perak"
    },
    {
      "place_name": "Tanjung Aru",
      "postal_code": "88858",
      "country_code": "MY",
      "latitude": 5.9771,
      "longitude": 116.0678,
      "admin_name1": "Sabah"
    },
    {
      "place_name": "Kota Kinabatangan",
      "postal_code": "90200",
      "country_code": "MY",
      "latitude": 5.2438,
      "longitude": 117.4841,
      "admin_name1": "Sabah"
    },
    {
      "place_name": "Belaga",
      "postal_code": "96900",
      "country_code": "MY",
      "latitude": 2.4811,
      "longitude": 113.6292,
      "admin_name1": "Sarawak"
    },
    {
      "place_name": "Seri Gading",
      "postal_code": "83300",
      "country_code": "MY",
      "latitude": 1.8197,
      "longitude": 103.2399,
      "admin_name1": "Johor"
    },
    {
      "place_name": "Bukit Pasir",
      "postal_code": "84300",
      "country_code": "MY",
      "latitude": 2.1122,
      "longitude": 102.7617,
      "admin_name1": "Johor"
    },
    {
      "place_name": "Pagoh",
      "postal_code": "84600",
      "country_code": "MY",
      "latitude": 2.087,
      "longitude": 102.8871,
      "admin_name1": "Johor"
    },
    {
      "place_name": "Batu Anam",
      "postal_code": "85100",
      "country_code": "MY",
      "latitude": 2.4247,
      "longitude": 102.8497,
      "admin_name1": "Johor"
    },
    {
      "place_name": "Changloon",
      "postal_code": "06010",
      "country_code": "MY",
      "latitude": 6.2371,
      "longitude": 100.4307,
      "admin_name1": "Kedah"
    },
    {
      "place_name": "Temangan",
      "postal_code": "18400",
      "country_code": "MY",
      "latitude": 5.7612,
      "longitude": 102.1769,
      "admin_name1": "Kelantan"
    },
    {
      "place_name": "Tanjong Bungah",
      "postal_code": "11200",
      "country_code": "MY",
      "latitude": 5.4515,
      "longitude": 100.2943,
      "admin_name1": "Pulau Pinang"
    },
    {
      "place_name": "Bayan Lepas",
      "postal_code": "11950",
      "country_code": "MY",
      "latitude": 5.3271,
      "longitude": 100.2851,
      "admin_name1": "Pulau Pinang"
    },
    {
      "place_name": "Sungai Jawi",
      "postal_code": "14200",
      "country_code": "MY",
      "latitude": 5.2156,
      "longitude": 100.5045,
      "admin_name1": "Pulau Pinang"
    },
    {
      "place_name": "TLDM Lumut",
      "postal_code": "32100",
      "country_code": "MY",
      "latitude": 4.8073,
      "longitude": 100.8,
      "admin_name1": "Perak"
    },
    {
      "place_name": "Temoh",
      "postal_code": "35350",
      "country_code": "MY",
      "latitude": 4.3504,
      "longitude": 101.1622,
      "admin_name1": "Perak"
    },
    {
      "place_name": "Kabong",
      "postal_code": "94650",
      "country_code": "MY",
      "latitude": 1.8453,
      "longitude": 111.4252,
      "admin_name1": "Sarawak"
    },
    {
      "place_name": "Pekan Nenas",
      "postal_code": "81500",
      "country_code": "MY",
      "latitude": 1.6627,
      "longitude": 103.4182,
      "admin_name1": "Johor"
    },
    {
      "place_name": "Pengerang",
      "postal_code": "81600",
      "country_code": "MY",
      "latitude": 1.4656,
      "longitude": 103.9435,
      "admin_name1": "Johor"
    },
    {
      "place_name": "Semerah",
      "postal_code": "83600",
      "country_code": "MY",
      "latitude": 1.9075,
      "longitude": 102.8813,
      "admin_name1": "Johor"
    },
    {
      "place_name": "Panchor",
      "postal_code": "84500",
      "country_code": "MY",
      "latitude": 2.0423,
      "longitude": 102.9538,
      "admin_name1": "Johor"
    },
    {
      "place_name": "Bukit Kayu Hitam",
      "postal_code": "06050",
      "country_code": "MY",
      "latitude": 6.3493,
      "longitude": 100.4429,
      "admin_name1": "Kedah"
    },
    {
      "place_name": "Padang Besar",
      "postal_code": "02100",
      "country_code": "MY",
      "latitude": 6.5341,
      "longitude": 100.31,
      "admin_name1": "Perlis"
    },
    {
      "place_name": "Penang Hill",
      "postal_code": "11300",
      "country_code": "MY",
      "latitude": 5.418,
      "longitude": 100.2775,
      "admin_name1": "Pulau Pinang"
    },
    {
      "place_name": "Pulau Indah",
      "postal_code": "42920",
      "country_code": "MY",
      "latitude": 2.9662,
      "longitude": 101.3768,
      "admin_name1": "Selangor"
    },
    {
      "place_name": "Batang Kali",
      "postal_code": "44300",
      "country_code": "MY",
      "latitude": 3.3751,
      "longitude": 101.6306,
      "admin_name1": "Selangor"
    },
    {
      "place_name": "Bandar Penawar",
      "postal_code": "81930",
      "country_code": "MY",
      "latitude": 1.6712,
      "longitude": 103.9725,
      "admin_name1": "Johor"
    },
    {
      "place_name": "Seri Medan",
      "postal_code": "83400",
      "country_code": "MY",
      "latitude": 1.9071,
      "longitude": 103.0757,
      "admin_name1": "Johor"
    },
    {
      "place_name": "Universiti Utara Malaysia",
      "postal_code": "06010",
      "country_code": "MY",
      "latitude": 6.4574,
      "longitude": 100.506,
      "admin_name1": "Kedah"
    },
    {
      "place_name": "Kuala Balah",
      "postal_code": "17610",
      "country_code": "MY",
      "latitude": 5.4526,
      "longitude": 101.9212,
      "admin_name1": "Kelantan"
    },
    {
      "place_name": "USM Pulau Pinang",
      "postal_code": "11800",
      "country_code": "MY",
      "latitude": 5.3572,
      "longitude": 100.3055,
      "admin_name1": "Pulau Pinang"
    },
    {
      "place_name": "Ayer Tawar",
      "postal_code": "32400",
      "country_code": "MY",
      "latitude": 4.3674,
      "longitude": 100.8604,
      "admin_name1": "Perak"
    },
    {
      "place_name": "Trong",
      "postal_code": "34800",
      "country_code": "MY",
      "latitude": 4.6539,
      "longitude": 100.7739,
      "admin_name1": "Perak"
    },
    {
      "place_name": "Tapah Road",
      "postal_code": "35400",
      "country_code": "MY",
      "latitude": 4.2684,
      "longitude": 101.1236,
      "admin_name1": "Perak"
    },
    {
      "place_name": "Kerteh",
      "postal_code": "24300",
      "country_code": "MY",
      "latitude": 4.6985,
      "longitude": 103.3568,
      "admin_name1": "Terengganu"
    },
    {
      "place_name": "Machang",
      "postal_code": "18500",
      "country_code": "MY",
      "latitude": 5.7573,
      "longitude": 102.2168,
      "admin_name1": "Kelantan"
    },
    {
      "place_name": "Bandar Tun Abdul Razak",
      "postal_code": "26900",
      "country_code": "MY",
      "latitude": 2.9499,
      "longitude": 102.6818,
      "admin_name1": "Pahang"
    },
    {
      "place_name": "Genting Highlands",
      "postal_code": "69000",
      "country_code": "MY",
      "latitude": 3.422,
      "longitude": 101.7892,
      "admin_name1": "Pahang"
    },
    {
      "place_name": "Chikus",
      "postal_code": "36750",
      "country_code": "MY",
      "latitude": 4.3082,
      "longitude": 101.0173,
      "admin_name1": "Perak"
    },
    {
      "place_name": "Bandar Puncak Alam",
      "postal_code": "42300",
      "country_code": "MY",
      "latitude": 3.1682,
      "longitude": 101.5271,
      "admin_name1": "Selangor"
    },
    {
      "place_name": "Subang Airport",
      "postal_code": "47200",
      "country_code": "MY",
      "latitude": 3.1851,
      "longitude": 101.6275,
      "admin_name1": "Selangor"
    },
    {
      "place_name": "Ayer Baloi",
      "postal_code": "82100",
      "country_code": "MY",
      "latitude": 1.6927,
      "longitude": 103.2524,
      "admin_name1": "Johor"
    },
    {
      "place_name": "Bukit Gambir",
      "postal_code": "84800",
      "country_code": "MY",
      "latitude": 2.1437,
      "longitude": 102.8537,
      "admin_name1": "Johor"
    },
    {
      "place_name": "Air Keroh",
      "postal_code": "75450",
      "country_code": "MY",
      "latitude": 2.3053,
      "longitude": 102.3346,
      "admin_name1": "Melaka"
    },
    {
      "place_name": "Kampung Kepayang",
      "postal_code": "31300",
      "country_code": "MY",
      "latitude": 4.5595,
      "longitude": 101.0673,
      "admin_name1": "Perak"
    },
    {
      "place_name": "Sitiawan",
      "postal_code": "32000",
      "country_code": "MY",
      "latitude": 4.3227,
      "longitude": 100.8021,
      "admin_name1": "Perak"
    },
    {
      "place_name": "Tanjong Piandang",
      "postal_code": "34250",
      "country_code": "MY",
      "latitude": 4.9011,
      "longitude": 100.5731,
      "admin_name1": "Perak"
    },
    {
      "place_name": "Pulau Carey",
      "postal_code": "42960",
      "country_code": "MY",
      "latitude": 2.8879,
      "longitude": 101.3913,
      "admin_name1": "Selangor"
    },
    {
      "place_name": "Beranang",
      "postal_code": "43700",
      "country_code": "MY",
      "latitude": 2.952,
      "longitude": 101.8261,
      "admin_name1": "Selangor"
    },
    {
      "place_name": "Kota Samarahan",
      "postal_code": "94300",
      "country_code": "MY",
      "latitude": 1.4727,
      "longitude": 110.402,
      "admin_name1": "Sarawak"
    },
    {
      "place_name": "Asajaya",
      "postal_code": "94600",
      "country_code": "MY",
      "latitude": 1.5424,
      "longitude": 110.516,
      "admin_name1": "Sarawak"
    },
    {
      "place_name": "Bukit Besi",
      "postal_code": "23200",
      "country_code": "MY",
      "latitude": 5.0395,
      "longitude": 102.7909,
      "admin_name1": "Terengganu"
    },
    {
      "place_name": "Pasir Gudang",
      "postal_code": "81700",
      "country_code": "MY",
      "latitude": 1.5002,
      "longitude": 103.8273,
      "admin_name1": "Johor"
    },
    {
      "place_name": "Parit Sulong",
      "postal_code": "83500",
      "country_code": "MY",
      "latitude": 1.9663,
      "longitude": 102.9015,
      "admin_name1": "Johor"
    },
    {
      "place_name": "Paloh",
      "postal_code": "86600",
      "country_code": "MY",
      "latitude": 2.1593,
      "longitude": 103.507,
      "admin_name1": "Johor"
    },
    {
      "place_name": "Karangan",
      "postal_code": "09700",
      "country_code": "MY",
      "latitude": 5.5748,
      "longitude": 100.6005,
      "admin_name1": "Kedah"
    },
    {
      "place_name": "Selising",
      "postal_code": "16810",
      "country_code": "MY",
      "latitude": 5.8899,
      "longitude": 102.2958,
      "admin_name1": "Kelantan"
    },
    {
      "place_name": "Kem Trendak",
      "postal_code": "76200",
      "country_code": "MY",
      "latitude": 2.2891,
      "longitude": 102.3256,
      "admin_name1": "Melaka"
    },
    {
      "place_name": "Gelugor",
      "postal_code": "11700",
      "country_code": "MY",
      "latitude": 5.3653,
      "longitude": 100.3067,
      "admin_name1": "Pulau Pinang"
    },
    {
      "place_name": "Tanjong Sepat",
      "postal_code": "42800",
      "country_code": "MY",
      "latitude": 2.7691,
      "longitude": 101.5625,
      "admin_name1": "Selangor"
    },
    {
      "place_name": "Ampang",
      "postal_code": "68000",
      "country_code": "MY",
      "latitude": 3.1549,
      "longitude": 101.7412,
      "admin_name1": "Selangor"
    }
  ]
]