[
  [
    {
      "place_name": "Koné",
      "postal_code": "98859",
      "country_code": "NC",
      "latitude": -21.0595,
      "longitude": 164.8658,
      "admin_name1": "Province Nord"
    },
    {
      "place_name": "Poindimié",
      "postal_code": "98822",
      "country_code": "NC",
      "latitude": -20.9505,
      "longitude": 165.3415,
      "admin_name1": "Province Nord"
    },
    {
      "place_name": "Farino",
      "postal_code": "98880",
      "country_code": "NC",
      "latitude": -21.6651,
      "longitude": 165.776,
      "admin_name1": "Province Sud"
    },
    {
      "place_name": "Pont des Français",
      "postal_code": "98874",
      "country_code": "NC",
      "latitude": -22.2167,
      "longitude": 166.4833,
      "admin_name1": "Province Sud"
    },
    {
      "place_name": "Païta",
      "postal_code": "98890",
      "country_code": "NC",
      "latitude": -22.1299,
      "longitude": 166.3639,
      "admin_name1": "Province Sud"
    },
    {
      "place_name": "Houaïlou",
      "postal_code": "98816",
      "country_code": "NC",
      "latitude": -21.2865,
      "longitude": 165.6343,
      "admin_name1": "Province Nord"
    },
    {
      "place_name": "Bourail",
      "postal_code": "98870",
      "country_code": "NC",
      "latitude": -21.5667,
      "longitude": 165.4667,
      "admin_name1": "Province Sud"
    },
    {
      "place_name": "Sarraméa",
      "postal_code": "98880",
      "country_code": "NC",
      "latitude": -21.6421,
      "longitude": 165.8451,
      "admin_name1": "Province Sud"
    },
    {
      "place_name": "Wé",
      "postal_code": "98820",
      "country_code": "NC",
      "latitude": -20.9169,
      "longitude": 167.2646,
      "admin_name1": "Îles Loyauté"
    },
    {
      "place_name": "La Coulée",
      "postal_code": "98876",
      "country_code": "NC",
      "latitude": -22.2313,
      "longitude": 166.5758,
      "admin_name1": "Province Sud"
    },
    {
      "place_name": "Dumbéa",
      "postal_code": "98836",
      "country_code": "NC",
      "latitude": -22.1496,
      "longitude": 166.4473,
      "admin_name1": "Province Sud"
    },
    {
      "place_name": "Pouébo",
      "postal_code": "98824",
      "country_code": "NC",
      "latitude": -20.3929,
      "longitude": 164.5827,
      "admin_name1": "Province Nord"
    },
    {
      "place_name": "Bouloupari",
      "postal_code": "98812",
      "country_code": "NC",
      "latitude": -21.8607,
      "longitude": 166.0513,
      "admin_name1": "Province Sud"
    },
    {
      "place_name": "Poum",
      "postal_code": "98826",
      "country_code": "NC",
      "latitude": -20.2368,
      "longitude": 164.0292,
      "admin_name1": "Province Nord"
    },
    {
      "place_name": "Chépénéhé",
      "postal_code": "98884",
      "country_code": "NC",
      "latitude": -20.7833,
      "longitude": 167.15,
      "admin_name1": "Îles Loyauté"
    },
    {
      "place_name": "Ouåco",
      "postal_code": "98883",
      "country_code": "NC",
      "latitude": -20.8353,
      "longitude": 164.4694,
      "admin_name1": "Province Nord"
    },
    {
      "place_name": "Bélep",
      "postal_code": "98811",
      "country_code": "NC",
      "latitude": -19.7333,
      "longitude": 163.6667,
      "admin_name1": "Province Nord"
    },
    {
      "place_name": "Ouégoa",
      "postal_code": "98821",
      "country_code": "NC",
      "latitude": -20.3485,
      "longitude": 164.4262,
      "admin_name1": "Province Nord"
    },
    {
      "place_name": "Ponérihouen",
      "postal_code": "98823",
      "country_code": "NC",
      "latitude": -21.0765,
      "longitude": 165.4005,
      "admin_name1": "Province Nord"
    },
    {
      "place_name": "Pouembout",
      "postal_code": "98825",
      "country_code": "NC",
      "latitude": -21.1076,
      "longitude": 164.9834,
      "admin_name1": "Province Nord"
    },
    {
      "place_name": "L’Île des Pins",
      "postal_code": "98832",
      "country_code": "NC",
      "latitude": -22.6167,
      "longitude": 167.4833,
      "admin_name1": "Province Sud"
    },
    {
      "place_name": "Tadine",
      "postal_code": "98828",
      "country_code": "NC",
      "latitude": -21.55,
      "longitude": 167.8833,
      "admin_name1": "Îles Loyauté"
    },
    {
      "place_name": "Thio",
      "postal_code": "98829",
      "country_code": "NC",
      "latitude": -21.6057,
      "longitude": 166.2146,
      "admin_name1": "Province Sud"
    },
    {
      "place_name": "Mou",
      "postal_code": "98885",
      "country_code": "NC",
      "latitude": -21.0936,
      "longitude": 167.399,
      "admin_name1": "Îles Loyauté"
    },
    {
      "place_name": "Kaala-Gomén",
      "postal_code": "98817",
      "country_code": "NC",
      "latitude": -20.6694,
      "longitude": 164.3977,
      "admin_name1": "Province Nord"
    },
    {
      "place_name": "Kouaoua",
      "postal_code": "98818",
      "country_code": "NC",
      "latitude": -21.3957,
      "longitude": 165.8283,
      "admin_name1": "Province Nord"
    },
    {
      "place_name": "Moindou",
      "postal_code": "98819",
      "country_code": "NC",
      "latitude": -21.6986,
      "longitude": 165.6804,
      "admin_name1": "Province Sud"
    },
    {
      "place_name": "Canala",
      "postal_code": "98813",
      "country_code": "NC",
      "latitude": -21.517,
      "longitude": 165.9629,
      "admin_name1": "Province Nord"
    },
    {
      "place_name": "Touho",
      "postal_code": "98831",
      "country_code": "NC",
      "latitude": -20.786,
      "longitude": 165.2423,
      "admin_name1": "Province Nord"
    },
    {
      "place_name": "Le Mont-Dore",
      "postal_code": "98809",
      "country_code": "NC",
      "latitude": -22.2799,
      "longitude": 166.5805,
      "admin_name1": "Province Sud"
    },
    {
      "place_name": "Koumac",
      "postal_code": "98850",
      "country_code": "NC",
      "latitude": -20.555,
      "longitude": 164.2717,
      "admin_name1": "Province Nord"
    },
    {
      "place_name": "Yaté",
      "postal_code": "98834",
      "country_code": "NC",
      "latitude": -22.0833,
      "longitude": 166.75,
      "admin_name1": "Province Sud"
    },
    {
      "place_name": "La Foa",
      "postal_code": "98880",
      "country_code": "NC",
      "latitude": -21.7079,
      "longitude": 165.8252,
      "admin_name1": "Province Sud"
    },
    {
      "place_name": "Fayaoué",
      "postal_code": "98814",
      "country_code": "NC",
      "latitude": -20.6528,
      "longitude": 166.5364,
      "admin_name1": "Îles Loyauté"
    },
    {
      "place_name": "Hienghéne",
      "postal_code": "98815",
      "country_code": "NC",
      "latitude": -20.6874,
      "longitude": 164.9377,
      "admin_name1": "Province Nord"
    },
    {
      "place_name": "Nouméa",
      "postal_code": "98800",
      "country_code": "NC",
      "latitude": -22.2667,
      "longitude": 166.4667,
      "admin_name1": "Province Sud"
    },
    {
      "place_name": "Voh",
      "postal_code": "98833",
      "country_code": "NC",
      "latitude": -20.9467,
      "longitude": 164.6854,
      "admin_name1": "Province Nord"
    },
    {
      "place_name": "La Roche",
      "postal_code": "98878",
      "country_code": "NC",
      "latitude": -21.478,
      "longitude": 168.0259,
      "admin_name1": "Îles Loyauté"
    },
    {
      "place_name": "Népoui",
      "postal_code": "98877",
      "country_code": "NC",
      "latitude": -21.3283,
      "longitude": 164.9985,
      "admin_name1": "Province Nord"
    },
    {
      "place_name": "La Tontouta",
      "postal_code": "98840",
      "country_code": "NC",
      "latitude": -22.0128,
      "longitude": 166.2237,
      "admin_name1": "Province Sud"
    }
  ]
]