[
  [
    {
      "place_name": "Rud",
      "postal_code": "1351",
      "country_code": "NO",
      "latitude": 59.9091,
      "longitude": 10.4957,
      "admin_name1": "Akershus"
    },
    {
      "place_name": "Fornebu",
      "postal_code": "1360",
      "country_code": "NO",
      "latitude": 59.9005,
      "longitude": 10.6245,
      "admin_name1": "Akershus"
    },
    {
      "place_name": "Asker",
      "postal_code": "1385",
      "country_code": "NO",
      "latitude": 59.817,
      "longitude": 10.379,
      "admin_name1": "Akershus"
    },
    {
      "place_name": "Heggedal",
      "postal_code": "1389",
      "country_code": "NO",
      "latitude": 59.7869,
      "longitude": 10.4442,
      "admin_name1": "Akershus"
    },
    {
      "place_name": "Billingstad",
      "postal_code": "1396",
      "country_code": "NO",
      "latitude": 59.8741,
      "longitude": 10.4842,
      "admin_name1": "Akershus"
    },
    {
      "place_name": "Spikkestad",
      "postal_code": "3431",
      "country_code": "NO",
      "latitude": 59.7386,
      "longitude": 10.3376,
      "admin_name1": "Akershus"
    },
    {
      "place_name": "Sørum",
      "postal_code": "1923",
      "country_code": "NO",
      "latitude": 60.0225,
      "longitude": 11.2314,
      "admin_name1": "Akershus"
    },
    {
      "place_name": "Skedsmokorset",
      "postal_code": "2021",
      "country_code": "NO",
      "latitude": 59.9909,
      "longitude": 11.0306,
      "admin_name1": "Akershus"
    },
    {
      "place_name": "Kolbotn",
      "postal_code": "1410",
      "country_code": "NO",
      "latitude": 59.8102,
      "longitude": 10.7985,
      "admin_name1": "Akershus"
    },
    {
      "place_name": "Oppegård",
      "postal_code": "1415",
      "country_code": "NO",
      "latitude": 59.7619,
      "longitude": 10.8198,
      "admin_name1": "Akershus"
    },
    {
      "place_name": "Hagan",
      "postal_code": "1483",
      "country_code": "NO",
      "latitude": 59.9927,
      "longitude": 10.9209,
      "admin_name1": "Akershus"
    },
    {
      "place_name": "Drammen",
      "postal_code": "3026",
      "country_code": "NO",
      "latitude": 59.7615,
      "longitude": 10.1423,
      "admin_name1": "Buskerud"
    },
    {
      "place_name": "Krokstadelva",
      "postal_code": "3055",
      "country_code": "NO",
      "latitude": 59.764,
      "longitude": 10.015,
      "admin_name1": "Buskerud"
    },
    {
      "place_name": "Kongsberg",
      "postal_code": "3603",
      "country_code": "NO",
      "latitude": 59.6509,
      "longitude": 9.6655,
      "admin_name1": "Buskerud"
    },
    {
      "place_name": "Hønefoss",
      "postal_code": "3518",
      "country_code": "NO",
      "latitude": 60.5565,
      "longitude": 10.0877,
      "admin_name1": "Buskerud"
    },
    {
      "place_name": "Lier",
      "postal_code": "3403",
      "country_code": "NO",
      "latitude": 59.7908,
      "longitude": 10.2529,
      "admin_name1": "Buskerud"
    },
    {
      "place_name": "Ål",
      "postal_code": "3570",
      "country_code": "NO",
      "latitude": 60.5565,
      "longitude": 10.0877,
      "admin_name1": "Buskerud"
    },
    {
      "place_name": "Veggli",
      "postal_code": "3627",
      "country_code": "NO",
      "latitude": 60.0351,
      "longitude": 9.0866,
      "admin_name1": "Buskerud"
    },
    {
      "place_name": "Alta",
      "postal_code": "9507",
      "country_code": "NO",
      "latitude": 69.9706,
      "longitude": 23.2866,
      "admin_name1": "Finnmark"
    },
    {
      "place_name": "Forsøl",
      "postal_code": "9612",
      "country_code": "NO",
      "latitude": 70.7167,
      "longitude": 23.8128,
      "admin_name1": "Finnmark"
    },
    {
      "place_name": "Kautokeino",
      "postal_code": "9522",
      "country_code": "NO",
      "latitude": 69.1339,
      "longitude": 23.5506,
      "admin_name1": "Finnmark"
    },
    {
      "place_name": "Andsnes",
      "postal_code": "9186",
      "country_code": "NO",
      "latitude": 70.2326,
      "longitude": 21.2338,
      "admin_name1": "Finnmark"
    },
    {
      "place_name": "Porsangmoen",
      "postal_code": "9709",
      "country_code": "NO",
      "latitude": 69.9034,
      "longitude": 25.0424,
      "admin_name1": "Finnmark"
    },
    {
      "place_name": "Sirma",
      "postal_code": "9826",
      "country_code": "NO",
      "latitude": 69.9782,
      "longitude": 27.0832,
      "admin_name1": "Finnmark"
    },
    {
      "place_name": "Kristiansund N",
      "postal_code": "6502",
      "country_code": "NO",
      "latitude": 63.0243,
      "longitude": 7.8065,
      "admin_name1": "Møre og Romsdal"
    },
    {
      "place_name": "Molde",
      "postal_code": "6405",
      "country_code": "NO",
      "latitude": 62.7375,
      "longitude": 7.1591,
      "admin_name1": "Møre og Romsdal"
    },
    {
      "place_name": "Eidsvåg I Romsdal",
      "postal_code": "6460",
      "country_code": "NO",
      "latitude": 62.837,
      "longitude": 8.1246,
      "admin_name1": "Møre og Romsdal"
    },
    {
      "place_name": "Ålesund",
      "postal_code": "6010",
      "country_code": "NO",
      "latitude": 62.4723,
      "longitude": 6.1549,
      "admin_name1": "Møre og Romsdal"
    },
    {
      "place_name": "Syvde",
      "postal_code": "6138",
      "country_code": "NO",
      "latitude": 62.143,
      "longitude": 5.814,
      "admin_name1": "Møre og Romsdal"
    },
    {
      "place_name": "Gjerdsvika",
      "postal_code": "6078",
      "country_code": "NO",
      "latitude": 62.2578,
      "longitude": 5.5843,
      "admin_name1": "Møre og Romsdal"
    },
    {
      "place_name": "Hundeidvik",
      "postal_code": "6224",
      "country_code": "NO",
      "latitude": 62.3668,
      "longitude": 6.4242,
      "admin_name1": "Møre og Romsdal"
    },
    {
      "place_name": "Godøya",
      "postal_code": "6054",
      "country_code": "NO",
      "latitude": 62.4689,
      "longitude": 5.9989,
      "admin_name1": "Møre og Romsdal"
    },
    {
      "place_name": "Rekdal",
      "postal_code": "6395",
      "country_code": "NO",
      "latitude": 62.6504,
      "longitude": 6.7586,
      "admin_name1": "Møre og Romsdal"
    },
    {
      "place_name": "Smøla",
      "postal_code": "6571",
      "country_code": "NO",
      "latitude": 63.0243,
      "longitude": 7.8065,
      "admin_name1": "Møre og Romsdal"
    },
    {
      "place_name": "Vevang",
      "postal_code": "6494",
      "country_code": "NO",
      "latitude": 63.0028,
      "longitude": 7.2884,
      "admin_name1": "Møre og Romsdal"
    },
    {
      "place_name": "Givær",
      "postal_code": "8097",
      "country_code": "NO",
      "latitude": 67.3547,
      "longitude": 14.3022,
      "admin_name1": "Nordland"
    },
    {
      "place_name": "Ankenes",
      "postal_code": "8521",
      "country_code": "NO",
      "latitude": 68.4206,
      "longitude": 17.3782,
      "admin_name1": "Nordland"
    },
    {
      "place_name": "Trofors",
      "postal_code": "8683",
      "country_code": "NO",
      "latitude": 65.5333,
      "longitude": 13.4063,
      "admin_name1": "Nordland"
    },
    {
      "place_name": "Hattfjelldal",
      "postal_code": "8692",
      "country_code": "NO",
      "latitude": 65.5974,
      "longitude": 13.9879,
      "admin_name1": "Nordland"
    },
    {
      "place_name": "Vandve",
      "postal_code": "8830",
      "country_code": "NO",
      "latitude": 66.1667,
      "longitude": 12.35,
      "admin_name1": "Nordland"
    },
    {
      "place_name": "Strandlandet",
      "postal_code": "8705",
      "country_code": "NO",
      "latitude": 66.1982,
      "longitude": 13.0184,
      "admin_name1": "Nordland"
    },
    {
      "place_name": "Mo I Rana",
      "postal_code": "8602",
      "country_code": "NO",
      "latitude": 66.3128,
      "longitude": 14.1428,
      "admin_name1": "Nordland"
    },
    {
      "place_name": "Bogøy",
      "postal_code": "8288",
      "country_code": "NO",
      "latitude": 67.7607,
      "longitude": 15.026,
      "admin_name1": "Nordland"
    },
    {
      "place_name": "Mølnarodden",
      "postal_code": "8385",
      "country_code": "NO",
      "latitude": 68.0827,
      "longitude": 13.2583,
      "admin_name1": "Nordland"
    },
    {
      "place_name": "Gimsøysand",
      "postal_code": "8314",
      "country_code": "NO",
      "latitude": 68.3197,
      "longitude": 14.2338,
      "admin_name1": "Nordland"
    },
    {
      "place_name": "Hennes",
      "postal_code": "8414",
      "country_code": "NO",
      "latitude": 68.5316,
      "longitude": 15.2284,
      "admin_name1": "Nordland"
    },
    {
      "place_name": "Straumsjøen",
      "postal_code": "8475",
      "country_code": "NO",
      "latitude": 68.6944,
      "longitude": 14.4718,
      "admin_name1": "Nordland"
    },
    {
      "place_name": "Oslo",
      "postal_code": "0031",
      "country_code": "NO",
      "latitude": 59.9127,
      "longitude": 10.7461,
      "admin_name1": "Oslo County"
    },
    {
      "place_name": "Halden",
      "postal_code": "1759",
      "country_code": "NO",
      "latitude": 59.1864,
      "longitude": 11.3393,
      "admin_name1": "Østfold"
    },
    {
      "place_name": "Hafslundsøy",
      "postal_code": "1734",
      "country_code": "NO",
      "latitude": 59.2959,
      "longitude": 11.1487,
      "admin_name1": "Østfold"
    },
    {
      "place_name": "Fredrikstad",
      "postal_code": "1607",
      "country_code": "NO",
      "latitude": 59.2128,
      "longitude": 10.9403,
      "admin_name1": "Østfold"
    },
    {
      "place_name": "Knapstad",
      "postal_code": "1823",
      "country_code": "NO",
      "latitude": 59.6255,
      "longitude": 11.0278,
      "admin_name1": "Østfold"
    },
    {
      "place_name": "Stavanger",
      "postal_code": "4018",
      "country_code": "NO",
      "latitude": 58.9701,
      "longitude": 5.7333,
      "admin_name1": "Rogaland"
    },
    {
      "place_name": "Haugesund",
      "postal_code": "5504",
      "country_code": "NO",
      "latitude": 59.4138,
      "longitude": 5.268,
      "admin_name1": "Rogaland"
    },
    {
      "place_name": "Sandnes",
      "postal_code": "4307",
      "country_code": "NO",
      "latitude": 58.8524,
      "longitude": 5.7352,
      "admin_name1": "Rogaland"
    },
    {
      "place_name": "Lye",
      "postal_code": "4347",
      "country_code": "NO",
      "latitude": 58.7354,
      "longitude": 5.7362,
      "admin_name1": "Rogaland"
    },
    {
      "place_name": "Sauda",
      "postal_code": "4200",
      "country_code": "NO",
      "latitude": 59.6506,
      "longitude": 6.3541,
      "admin_name1": "Rogaland"
    },
    {
      "place_name": "Bokn",
      "postal_code": "5569",
      "country_code": "NO",
      "latitude": 59.2306,
      "longitude": 5.4352,
      "admin_name1": "Rogaland"
    },
    {
      "place_name": "Kvalavåg",
      "postal_code": "4264",
      "country_code": "NO",
      "latitude": 59.3215,
      "longitude": 5.2107,
      "admin_name1": "Rogaland"
    },
    {
      "place_name": "Sandve",
      "postal_code": "4272",
      "country_code": "NO",
      "latitude": 59.1753,
      "longitude": 5.1959,
      "admin_name1": "Rogaland"
    },
    {
      "place_name": "Skien",
      "postal_code": "3702",
      "country_code": "NO",
      "latitude": 59.1931,
      "longitude": 9.5942,
      "admin_name1": "Telemark"
    },
    {
      "place_name": "Notodden",
      "postal_code": "3674",
      "country_code": "NO",
      "latitude": 59.5602,
      "longitude": 9.2601,
      "admin_name1": "Telemark"
    },
    {
      "place_name": "Bø I Telemark",
      "postal_code": "3805",
      "country_code": "NO",
      "latitude": 59.4438,
      "longitude": 8.8469,
      "admin_name1": "Telemark"
    },
    {
      "place_name": "Sauland",
      "postal_code": "3665",
      "country_code": "NO",
      "latitude": 59.6053,
      "longitude": 8.9055,
      "admin_name1": "Telemark"
    },
    {
      "place_name": "Hovin I Telemark",
      "postal_code": "3652",
      "country_code": "NO",
      "latitude": 59.8729,
      "longitude": 9.0264,
      "admin_name1": "Telemark"
    },
    {
      "place_name": "Atrå",
      "postal_code": "3656",
      "country_code": "NO",
      "latitude": 60.0181,
      "longitude": 8.6361,
      "admin_name1": "Telemark"
    },
    {
      "place_name": "Tromsø",
      "postal_code": "9015",
      "country_code": "NO",
      "latitude": 69.6763,
      "longitude": 18.9361,
      "admin_name1": "Troms"
    },
    {
      "place_name": "Vikran",
      "postal_code": "9057",
      "country_code": "NO",
      "latitude": 69.5291,
      "longitude": 18.7572,
      "admin_name1": "Troms"
    },
    {
      "place_name": "Borkenes",
      "postal_code": "9476",
      "country_code": "NO",
      "latitude": 68.7603,
      "longitude": 16.1774,
      "admin_name1": "Troms"
    },
    {
      "place_name": "Kråkrøhamn",
      "postal_code": "9453",
      "country_code": "NO",
      "latitude": 68.8473,
      "longitude": 17.4151,
      "admin_name1": "Troms"
    },
    {
      "place_name": "Bardu",
      "postal_code": "9360",
      "country_code": "NO",
      "latitude": 68.8296,
      "longitude": 18.4547,
      "admin_name1": "Troms"
    },
    {
      "place_name": "Moen",
      "postal_code": "9329",
      "country_code": "NO",
      "latitude": 69.1561,
      "longitude": 18.6521,
      "admin_name1": "Troms"
    },
    {
      "place_name": "Gryllefjord",
      "postal_code": "9380",
      "country_code": "NO",
      "latitude": 69.3637,
      "longitude": 17.0569,
      "admin_name1": "Troms"
    },
    {
      "place_name": "Kaldfarnes",
      "postal_code": "9395",
      "country_code": "NO",
      "latitude": 69.2857,
      "longitude": 17.0538,
      "admin_name1": "Troms"
    },
    {
      "place_name": "Storsteinnes",
      "postal_code": "9050",
      "country_code": "NO",
      "latitude": 69.2282,
      "longitude": 19.2031,
      "admin_name1": "Troms"
    },
    {
      "place_name": "Birtavarre",
      "postal_code": "9147",
      "country_code": "NO",
      "latitude": 69.4858,
      "longitude": 20.8574,
      "admin_name1": "Troms"
    },
    {
      "place_name": "Hamneidet",
      "postal_code": "9181",
      "country_code": "NO",
      "latitude": 69.9222,
      "longitude": 20.9624,
      "admin_name1": "Troms"
    },
    {
      "place_name": "Holmestrand",
      "postal_code": "3086",
      "country_code": "NO",
      "latitude": 59.5109,
      "longitude": 10.2845,
      "admin_name1": "Vestfold"
    },
    {
      "place_name": "Andebu",
      "postal_code": "3162",
      "country_code": "NO",
      "latitude": 59.3121,
      "longitude": 10.1552,
      "admin_name1": "Vestfold"
    },
    {
      "place_name": "Sandefjord",
      "postal_code": "3205",
      "country_code": "NO",
      "latitude": 59.128,
      "longitude": 10.2158,
      "admin_name1": "Vestfold"
    },
    {
      "place_name": "Stavern",
      "postal_code": "3290",
      "country_code": "NO",
      "latitude": 58.9998,
      "longitude": 10.0314,
      "admin_name1": "Vestfold"
    },
    {
      "place_name": "Trondheim",
      "postal_code": "7066",
      "country_code": "NO",
      "latitude": 63.4305,
      "longitude": 10.3951,
      "admin_name1": "Trøndelag"
    },
    {
      "place_name": "Børsa",
      "postal_code": "7353",
      "country_code": "NO",
      "latitude": 63.3267,
      "longitude": 10.0692,
      "admin_name1": "Trøndelag"
    },
    {
      "place_name": "Stjørdal",
      "postal_code": "7501",
      "country_code": "NO",
      "latitude": 63.468,
      "longitude": 10.9178,
      "admin_name1": "Trøndelag"
    },
    {
      "place_name": "Hell",
      "postal_code": "7570",
      "country_code": "NO",
      "latitude": 63.4458,
      "longitude": 10.9009,
      "admin_name1": "Trøndelag"
    },
    {
      "place_name": "Ronglan",
      "postal_code": "7623",
      "country_code": "NO",
      "latitude": 63.7022,
      "longitude": 11.1155,
      "admin_name1": "Trøndelag"
    },
    {
      "place_name": "Flatanger",
      "postal_code": "7770",
      "country_code": "NO",
      "latitude": 64.0531,
      "longitude": 11.3017,
      "admin_name1": "Trøndelag"
    },
    {
      "place_name": "Løkken Verk",
      "postal_code": "7332",
      "country_code": "NO",
      "latitude": 63.1258,
      "longitude": 9.7052,
      "admin_name1": "Trøndelag"
    },
    {
      "place_name": "Hamar",
      "postal_code": "2302",
      "country_code": "NO",
      "latitude": 60.7945,
      "longitude": 11.068,
      "admin_name1": "Innlandet"
    },
    {
      "place_name": "Lillehammer",
      "postal_code": "2615",
      "country_code": "NO",
      "latitude": 61.1151,
      "longitude": 10.4663,
      "admin_name1": "Innlandet"
    },
    {
      "place_name": "Gjøvik",
      "postal_code": "2802",
      "country_code": "NO",
      "latitude": 60.7957,
      "longitude": 10.6915,
      "admin_name1": "Innlandet"
    },
    {
      "place_name": "Snertingdal",
      "postal_code": "2841",
      "country_code": "NO",
      "latitude": 60.6633,
      "longitude": 10.7312,
      "admin_name1": "Innlandet"
    },
    {
      "place_name": "Gaupen",
      "postal_code": "2355",
      "country_code": "NO",
      "latitude": 60.8686,
      "longitude": 10.7768,
      "admin_name1": "Innlandet"
    },
    {
      "place_name": "Rudshøgda",
      "postal_code": "2360",
      "country_code": "NO",
      "latitude": 60.9744,
      "longitude": 10.7754,
      "admin_name1": "Innlandet"
    },
    {
      "place_name": "Brumunddal",
      "postal_code": "2383",
      "country_code": "NO",
      "latitude": 60.8809,
      "longitude": 10.9395,
      "admin_name1": "Innlandet"
    },
    {
      "place_name": "Stange",
      "postal_code": "2336",
      "country_code": "NO",
      "latitude": 60.718,
      "longitude": 11.1942,
      "admin_name1": "Innlandet"
    },
    {
      "place_name": "Nybergsund",
      "postal_code": "2422",
      "country_code": "NO",
      "latitude": 61.2612,
      "longitude": 12.3226,
      "admin_name1": "Innlandet"
    },
    {
      "place_name": "Dovreskogen",
      "postal_code": "2663",
      "country_code": "NO",
      "latitude": 61.986,
      "longitude": 9.2464,
      "admin_name1": "Innlandet"
    },
    {
      "place_name": "Beitostølen",
      "postal_code": "2954",
      "country_code": "NO",
      "latitude": 61.2487,
      "longitude": 8.9062,
      "admin_name1": "Innlandet"
    },
    {
      "place_name": "Risør",
      "postal_code": "4951",
      "country_code": "NO",
      "latitude": 58.7206,
      "longitude": 9.2342,
      "admin_name1": "Agder"
    },
    {
      "place_name": "Bjorbekk",
      "postal_code": "4824",
      "country_code": "NO",
      "latitude": 58.435,
      "longitude": 8.6955,
      "admin_name1": "Agder"
    },
    {
      "place_name": "Kardemomme By",
      "postal_code": "4609",
      "country_code": "NO",
      "latitude": 58.1467,
      "longitude": 7.9956,
      "admin_name1": "Agder"
    },
    {
      "place_name": "Flekkefjord",
      "postal_code": "4404",
      "country_code": "NO",
      "latitude": 58.297,
      "longitude": 6.6607,
      "admin_name1": "Agder"
    },
    {
      "place_name": "Sundebru",
      "postal_code": "4971",
      "country_code": "NO",
      "latitude": 58.8381,
      "longitude": 9.0872,
      "admin_name1": "Agder"
    },
    {
      "place_name": "Vegårshei",
      "postal_code": "4985",
      "country_code": "NO",
      "latitude": 58.8808,
      "longitude": 9.0186,
      "admin_name1": "Agder"
    },
    {
      "place_name": "Vennesla",
      "postal_code": "4707",
      "country_code": "NO",
      "latitude": 58.2686,
      "longitude": 7.9731,
      "admin_name1": "Agder"
    },
    {
      "place_name": "Kvinesdal",
      "postal_code": "4491",
      "country_code": "NO",
      "latitude": 58.3121,
      "longitude": 6.9619,
      "admin_name1": "Agder"
    },
    {
      "place_name": "Bergen",
      "postal_code": "5042",
      "country_code": "NO",
      "latitude": 60.393,
      "longitude": 5.3242,
      "admin_name1": "Vestland"
    },
    {
      "place_name": "Eidsvåg I Åsane",
      "postal_code": "5104",
      "country_code": "NO",
      "latitude": 60.4944,
      "longitude": 5.3032,
      "admin_name1": "Vestland"
    },
    {
      "place_name": "Fyllingsdalen",
      "postal_code": "5148",
      "country_code": "NO",
      "latitude": 60.4193,
      "longitude": 5.2856,
      "admin_name1": "Vestland"
    },
    {
      "place_name": "Loddefjord",
      "postal_code": "5172",
      "country_code": "NO",
      "latitude": 60.3688,
      "longitude": 5.2261,
      "admin_name1": "Vestland"
    },
    {
      "place_name": "Nesttun",
      "postal_code": "5224",
      "country_code": "NO",
      "latitude": 60.3182,
      "longitude": 5.3532,
      "admin_name1": "Vestland"
    },
    {
      "place_name": "Espeland",
      "postal_code": "5267",
      "country_code": "NO",
      "latitude": 60.3825,
      "longitude": 5.4657,
      "admin_name1": "Vestland"
    },
    {
      "place_name": "Måløy",
      "postal_code": "6700",
      "country_code": "NO",
      "latitude": 61.9353,
      "longitude": 5.1136,
      "admin_name1": "Vestland"
    },
    {
      "place_name": "Jondal",
      "postal_code": "5629",
      "country_code": "NO",
      "latitude": 60.2756,
      "longitude": 6.2523,
      "admin_name1": "Vestland"
    },
    {
      "place_name": "Hovland",
      "postal_code": "5773",
      "country_code": "NO",
      "latitude": 60.2359,
      "longitude": 6.6204,
      "admin_name1": "Vestland"
    },
    {
      "place_name": "Norheimsund",
      "postal_code": "5600",
      "country_code": "NO",
      "latitude": 60.3709,
      "longitude": 6.1456,
      "admin_name1": "Vestland"
    },
    {
      "place_name": "Ågotnes",
      "postal_code": "5363",
      "country_code": "NO",
      "latitude": 60.4031,
      "longitude": 5.0193,
      "admin_name1": "Vestland"
    },
    {
      "place_name": "Matredal",
      "postal_code": "5984",
      "country_code": "NO",
      "latitude": 60.8743,
      "longitude": 5.5826,
      "admin_name1": "Vestland"
    },
    {
      "place_name": "Hosteland",
      "postal_code": "5987",
      "country_code": "NO",
      "latitude": 60.8352,
      "longitude": 5.2583,
      "admin_name1": "Vestland"
    },
    {
      "place_name": "Høyanger",
      "postal_code": "6991",
      "country_code": "NO",
      "latitude": 61.2235,
      "longitude": 6.0847,
      "admin_name1": "Vestland"
    },
    {
      "place_name": "Sogndal",
      "postal_code": "6853",
      "country_code": "NO",
      "latitude": 61.2291,
      "longitude": 7.0967,
      "admin_name1": "Vestland"
    },
    {
      "place_name": "Lærdal",
      "postal_code": "6886",
      "country_code": "NO",
      "latitude": 61.1,
      "longitude": 7.4737,
      "admin_name1": "Vestland"
    },
    {
      "place_name": "Luster",
      "postal_code": "6874",
      "country_code": "NO",
      "latitude": 61.4432,
      "longitude": 7.4599,
      "admin_name1": "Vestland"
    },
    {
      "place_name": "Førde",
      "postal_code": "6803",
      "country_code": "NO",
      "latitude": 61.4522,
      "longitude": 5.8572,
      "admin_name1": "Vestland"
    },
    {
      "place_name": "Skei I Jølster",
      "postal_code": "6841",
      "country_code": "NO",
      "latitude": 61.5715,
      "longitude": 6.4791,
      "admin_name1": "Vestland"
    },
    {
      "place_name": "Kalvåg",
      "postal_code": "6728",
      "country_code": "NO",
      "latitude": 61.7662,
      "longitude": 4.8751,
      "admin_name1": "Vestland"
    },
    {
      "place_name": "Holmøyane",
      "postal_code": "6779",
      "country_code": "NO",
      "latitude": 61.9333,
      "longitude": 6.4333,
      "admin_name1": "Vestland"
    },
    {
      "place_name": "Loen",
      "postal_code": "6789",
      "country_code": "NO",
      "latitude": 61.8715,
      "longitude": 6.8459,
      "admin_name1": "Vestland"
    },
    {
      "place_name": "Misvær",
      "postal_code": "8108",
      "country_code": "NO",
      "latitude": 67.1187,
      "longitude": 14.9992,
      "admin_name1": "Nordland"
    },
    {
      "place_name": "Vevelstad",
      "postal_code": "8976",
      "country_code": "NO",
      "latitude": 65.6978,
      "longitude": 12.4371,
      "admin_name1": "Nordland"
    },
    {
      "place_name": "Sandnessjøen",
      "postal_code": "8804",
      "country_code": "NO",
      "latitude": 66.0217,
      "longitude": 12.6316,
      "admin_name1": "Nordland"
    },
    {
      "place_name": "Mosjøen",
      "postal_code": "8654",
      "country_code": "NO",
      "latitude": 65.836,
      "longitude": 13.1908,
      "admin_name1": "Nordland"
    },
    {
      "place_name": "Korgen",
      "postal_code": "8646",
      "country_code": "NO",
      "latitude": 66.0766,
      "longitude": 13.8216,
      "admin_name1": "Nordland"
    },
    {
      "place_name": "Bleikvasslia",
      "postal_code": "8647",
      "country_code": "NO",
      "latitude": 65.9086,
      "longitude": 13.8072,
      "admin_name1": "Nordland"
    },
    {
      "place_name": "Glomfjord",
      "postal_code": "8160",
      "country_code": "NO",
      "latitude": 66.8166,
      "longitude": 13.944,
      "admin_name1": "Nordland"
    },
    {
      "place_name": "Sørarnøy",
      "postal_code": "8135",
      "country_code": "NO",
      "latitude": 67.1363,
      "longitude": 13.9669,
      "admin_name1": "Nordland"
    },
    {
      "place_name": "Fauske",
      "postal_code": "8210",
      "country_code": "NO",
      "latitude": 67.2588,
      "longitude": 15.3918,
      "admin_name1": "Nordland"
    },
    {
      "place_name": "Svolvær",
      "postal_code": "8300",
      "country_code": "NO",
      "latitude": 68.2342,
      "longitude": 14.5683,
      "admin_name1": "Nordland"
    },
    {
      "place_name": "Kabelvåg",
      "postal_code": "8309",
      "country_code": "NO",
      "latitude": 68.2107,
      "longitude": 14.4755,
      "admin_name1": "Nordland"
    },
    {
      "place_name": "Henningsvær",
      "postal_code": "8311",
      "country_code": "NO",
      "latitude": 68.1529,
      "longitude": 14.2008,
      "admin_name1": "Nordland"
    },
    {
      "place_name": "Nøss",
      "postal_code": "8488",
      "country_code": "NO",
      "latitude": 69.0794,
      "longitude": 15.5657,
      "admin_name1": "Nordland"
    },
    {
      "place_name": "Reine",
      "postal_code": "8398",
      "country_code": "NO",
      "latitude": 67.9325,
      "longitude": 13.0895,
      "admin_name1": "Nordland"
    },
    {
      "place_name": "Sponvika",
      "postal_code": "1794",
      "country_code": "NO",
      "latitude": 59.1015,
      "longitude": 11.2242,
      "admin_name1": "Østfold"
    },
    {
      "place_name": "Moss",
      "postal_code": "1503",
      "country_code": "NO",
      "latitude": 59.4377,
      "longitude": 10.64,
      "admin_name1": "Østfold"
    },
    {
      "place_name": "Kråkerøy",
      "postal_code": "1678",
      "country_code": "NO",
      "latitude": 59.203,
      "longitude": 10.9092,
      "admin_name1": "Østfold"
    },
    {
      "place_name": "Skjærhalden",
      "postal_code": "1680",
      "country_code": "NO",
      "latitude": 59.0471,
      "longitude": 11.0381,
      "admin_name1": "Østfold"
    },
    {
      "place_name": "Råde",
      "postal_code": "1643",
      "country_code": "NO",
      "latitude": 59.3451,
      "longitude": 10.8683,
      "admin_name1": "Østfold"
    },
    {
      "place_name": "Tomter",
      "postal_code": "1825",
      "country_code": "NO",
      "latitude": 59.6792,
      "longitude": 11.0336,
      "admin_name1": "Østfold"
    },
    {
      "place_name": "Degernes",
      "postal_code": "1893",
      "country_code": "NO",
      "latitude": 59.3318,
      "longitude": 11.4497,
      "admin_name1": "Østfold"
    },
    {
      "place_name": "Mosterøy",
      "postal_code": "4156",
      "country_code": "NO",
      "latitude": 59.0667,
      "longitude": 5.681,
      "admin_name1": "Rogaland"
    },
    {
      "place_name": "Vikeså",
      "postal_code": "4384",
      "country_code": "NO",
      "latitude": 58.6376,
      "longitude": 6.0913,
      "admin_name1": "Rogaland"
    },
    {
      "place_name": "Kleppe",
      "postal_code": "4350",
      "country_code": "NO",
      "latitude": 58.7742,
      "longitude": 5.6294,
      "admin_name1": "Rogaland"
    },
    {
      "place_name": "Sola",
      "postal_code": "4097",
      "country_code": "NO",
      "latitude": 58.8885,
      "longitude": 5.6528,
      "admin_name1": "Rogaland"
    },
    {
      "place_name": "Torvastad",
      "postal_code": "4260",
      "country_code": "NO",
      "latitude": 59.3798,
      "longitude": 5.2336,
      "admin_name1": "Rogaland"
    },
    {
      "place_name": "Utsira",
      "postal_code": "5547",
      "country_code": "NO",
      "latitude": 59.3057,
      "longitude": 4.8862,
      "admin_name1": "Rogaland"
    },
    {
      "place_name": "Øvre Vats",
      "postal_code": "5576",
      "country_code": "NO",
      "latitude": 59.4503,
      "longitude": 5.4926,
      "admin_name1": "Rogaland"
    },
    {
      "place_name": "Porsgrunn",
      "postal_code": "3913",
      "country_code": "NO",
      "latitude": 59.1484,
      "longitude": 9.671,
      "admin_name1": "Telemark"
    },
    {
      "place_name": "Tørdal",
      "postal_code": "3753",
      "country_code": "NO",
      "latitude": 59.1925,
      "longitude": 8.7776,
      "admin_name1": "Telemark"
    },
    {
      "place_name": "Ulefoss",
      "postal_code": "3831",
      "country_code": "NO",
      "latitude": 59.274,
      "longitude": 9.2796,
      "admin_name1": "Telemark"
    },
    {
      "place_name": "Høydalsmo",
      "postal_code": "3891",
      "country_code": "NO",
      "latitude": 59.4837,
      "longitude": 8.175,
      "admin_name1": "Telemark"
    },
    {
      "place_name": "Kvaløya",
      "postal_code": "9104",
      "country_code": "NO",
      "latitude": 69.6856,
      "longitude": 18.81,
      "admin_name1": "Troms"
    },
    {
      "place_name": "Kårvik",
      "postal_code": "9131",
      "country_code": "NO",
      "latitude": 69.8736,
      "longitude": 18.953,
      "admin_name1": "Troms"
    },
    {
      "place_name": "Engenes",
      "postal_code": "9456",
      "country_code": "NO",
      "latitude": 68.9129,
      "longitude": 17.2149,
      "admin_name1": "Troms"
    },
    {
      "place_name": "Brøstadbotn",
      "postal_code": "9311",
      "country_code": "NO",
      "latitude": 69.0623,
      "longitude": 17.6474,
      "admin_name1": "Troms"
    },
    {
      "place_name": "Finnsnes",
      "postal_code": "9300",
      "country_code": "NO",
      "latitude": 69.234,
      "longitude": 18.0128,
      "admin_name1": "Troms"
    },
    {
      "place_name": "Burfjord",
      "postal_code": "9161",
      "country_code": "NO",
      "latitude": 69.9598,
      "longitude": 22.0424,
      "admin_name1": "Troms"
    },
    {
      "place_name": "Sande I Vestfold",
      "postal_code": "3077",
      "country_code": "NO",
      "latitude": 59.5467,
      "longitude": 10.3132,
      "admin_name1": "Vestfold"
    },
    {
      "place_name": "Tønsberg",
      "postal_code": "3101",
      "country_code": "NO",
      "latitude": 59.2675,
      "longitude": 10.4124,
      "admin_name1": "Vestfold"
    },
    {
      "place_name": "Tolvsrød",
      "postal_code": "3153",
      "country_code": "NO",
      "latitude": 59.3001,
      "longitude": 10.4902,
      "admin_name1": "Vestfold"
    },
    {
      "place_name": "Helgeroa",
      "postal_code": "3297",
      "country_code": "NO",
      "latitude": 58.9939,
      "longitude": 9.8628,
      "admin_name1": "Vestfold"
    },
    {
      "place_name": "Tjøme",
      "postal_code": "3145",
      "country_code": "NO",
      "latitude": 59.1203,
      "longitude": 10.4037,
      "admin_name1": "Vestfold"
    },
    {
      "place_name": "Flatåsen",
      "postal_code": "7099",
      "country_code": "NO",
      "latitude": 63.3806,
      "longitude": 10.3463,
      "admin_name1": "Trøndelag"
    },
    {
      "place_name": "Verdal",
      "postal_code": "7657",
      "country_code": "NO",
      "latitude": 63.7933,
      "longitude": 11.4817,
      "admin_name1": "Trøndelag"
    },
    {
      "place_name": "Namsskogan",
      "postal_code": "7891",
      "country_code": "NO",
      "latitude": 64.9289,
      "longitude": 13.1595,
      "admin_name1": "Trøndelag"
    },
    {
      "place_name": "Harran",
      "postal_code": "7873",
      "country_code": "NO",
      "latitude": 64.561,
      "longitude": 12.4917,
      "admin_name1": "Trøndelag"
    },
    {
      "place_name": "Hitra",
      "postal_code": "7240",
      "country_code": "NO",
      "latitude": 63.6333,
      "longitude": 8.7333,
      "admin_name1": "Trøndelag"
    },
    {
      "place_name": "Tarva",
      "postal_code": "7166",
      "country_code": "NO",
      "latitude": 63.802,
      "longitude": 9.4152,
      "admin_name1": "Trøndelag"
    },
    {
      "place_name": "Meldal",
      "postal_code": "7338",
      "country_code": "NO",
      "latitude": 63.0472,
      "longitude": 9.7134,
      "admin_name1": "Trøndelag"
    },
    {
      "place_name": "Kongsvinger",
      "postal_code": "2203",
      "country_code": "NO",
      "latitude": 60.1905,
      "longitude": 11.9977,
      "admin_name1": "Innlandet"
    },
    {
      "place_name": "Roverud",
      "postal_code": "2216",
      "country_code": "NO",
      "latitude": 60.2534,
      "longitude": 12.0522,
      "admin_name1": "Innlandet"
    },
    {
      "place_name": "Austmarka",
      "postal_code": "2227",
      "country_code": "NO",
      "latitude": 60.1003,
      "longitude": 12.3213,
      "admin_name1": "Innlandet"
    },
    {
      "place_name": "Vang På Hedmarken",
      "postal_code": "2324",
      "country_code": "NO",
      "latitude": 60.8105,
      "longitude": 11.0807,
      "admin_name1": "Innlandet"
    },
    {
      "place_name": "Biri",
      "postal_code": "2836",
      "country_code": "NO",
      "latitude": 60.9556,
      "longitude": 10.6115,
      "admin_name1": "Innlandet"
    },
    {
      "place_name": "Furnes",
      "postal_code": "2327",
      "country_code": "NO",
      "latitude": 60.8355,
      "longitude": 11.0241,
      "admin_name1": "Innlandet"
    },
    {
      "place_name": "Næroset",
      "postal_code": "2364",
      "country_code": "NO",
      "latitude": 60.9744,
      "longitude": 10.7754,
      "admin_name1": "Innlandet"
    },
    {
      "place_name": "Vallset",
      "postal_code": "2331",
      "country_code": "NO",
      "latitude": 60.7004,
      "longitude": 11.3252,
      "admin_name1": "Innlandet"
    },
    {
      "place_name": "Ilseng",
      "postal_code": "2344",
      "country_code": "NO",
      "latitude": 60.7757,
      "longitude": 11.2272,
      "admin_name1": "Innlandet"
    },
    {
      "place_name": "Elverum",
      "postal_code": "2413",
      "country_code": "NO",
      "latitude": 60.8819,
      "longitude": 11.5623,
      "admin_name1": "Innlandet"
    },
    {
      "place_name": "Osen",
      "postal_code": "2460",
      "country_code": "NO",
      "latitude": 61.2999,
      "longitude": 11.7639,
      "admin_name1": "Innlandet"
    },
    {
      "place_name": "Kvikne",
      "postal_code": "2513",
      "country_code": "NO",
      "latitude": 62.5789,
      "longitude": 10.3314,
      "admin_name1": "Innlandet"
    },
    {
      "place_name": "Raufoss",
      "postal_code": "2835",
      "country_code": "NO",
      "latitude": 60.726,
      "longitude": 10.6133,
      "admin_name1": "Innlandet"
    },
    {
      "place_name": "Skrautvål",
      "postal_code": "2917",
      "country_code": "NO",
      "latitude": 60.9622,
      "longitude": 9.2574,
      "admin_name1": "Innlandet"
    },
    {
      "place_name": "Heggenes",
      "postal_code": "2939",
      "country_code": "NO",
      "latitude": 61.1438,
      "longitude": 9.0694,
      "admin_name1": "Innlandet"
    },
    {
      "place_name": "Grimstad",
      "postal_code": "4891",
      "country_code": "NO",
      "latitude": 58.3405,
      "longitude": 8.5934,
      "admin_name1": "Agder"
    },
    {
      "place_name": "His",
      "postal_code": "4817",
      "country_code": "NO",
      "latitude": 58.4314,
      "longitude": 8.7434,
      "admin_name1": "Agder"
    },
    {
      "place_name": "Kristiansand S",
      "postal_code": "4611",
      "country_code": "NO",
      "latitude": 58.1467,
      "longitude": 7.9956,
      "admin_name1": "Agder"
    },
    {
      "place_name": "Florø",
      "postal_code": "6910",
      "country_code": "NO",
      "latitude": 61.5996,
      "longitude": 5.0328,
      "admin_name1": "Vestland"
    },
    {
      "place_name": "Brandasund",
      "postal_code": "5423",
      "country_code": "NO",
      "latitude": 59.8936,
      "longitude": 5.0901,
      "admin_name1": "Vestland"
    },
    {
      "place_name": "Husnes",
      "postal_code": "5460",
      "country_code": "NO",
      "latitude": 59.8638,
      "longitude": 5.7453,
      "admin_name1": "Vestland"
    },
    {
      "place_name": "Holmefjord",
      "postal_code": "5642",
      "country_code": "NO",
      "latitude": 60.2898,
      "longitude": 5.6675,
      "admin_name1": "Vestland"
    },
    {
      "place_name": "Bekkjarvik",
      "postal_code": "5397",
      "country_code": "NO",
      "latitude": 60.0081,
      "longitude": 5.2006,
      "admin_name1": "Vestland"
    },
    {
      "place_name": "Rong",
      "postal_code": "5337",
      "country_code": "NO",
      "latitude": 60.5122,
      "longitude": 4.9027,
      "admin_name1": "Vestland"
    },
    {
      "place_name": "Klokkarvik",
      "postal_code": "5378",
      "country_code": "NO",
      "latitude": 60.2247,
      "longitude": 5.1509,
      "admin_name1": "Vestland"
    },
    {
      "place_name": "Steinsland",
      "postal_code": "5379",
      "country_code": "NO",
      "latitude": 60.1959,
      "longitude": 5.099,
      "admin_name1": "Vestland"
    },
    {
      "place_name": "Isdalstø",
      "postal_code": "5916",
      "country_code": "NO",
      "latitude": 60.5552,
      "longitude": 5.2694,
      "admin_name1": "Vestland"
    },
    {
      "place_name": "Manger",
      "postal_code": "5936",
      "country_code": "NO",
      "latitude": 60.6414,
      "longitude": 5.0414,
      "admin_name1": "Vestland"
    },
    {
      "place_name": "Kolgrov",
      "postal_code": "6928",
      "country_code": "NO",
      "latitude": 61.0,
      "longitude": 4.6667,
      "admin_name1": "Vestland"
    },
    {
      "place_name": "Aurland",
      "postal_code": "5741",
      "country_code": "NO",
      "latitude": 60.9032,
      "longitude": 7.2017,
      "admin_name1": "Vestland"
    },
    {
      "place_name": "Kvammen",
      "postal_code": "6983",
      "country_code": "NO",
      "latitude": 61.4587,
      "longitude": 5.4168,
      "admin_name1": "Vestland"
    },
    {
      "place_name": "Værlandet",
      "postal_code": "6986",
      "country_code": "NO",
      "latitude": 61.3703,
      "longitude": 5.0876,
      "admin_name1": "Vestland"
    },
    {
      "place_name": "Bygstad",
      "postal_code": "6977",
      "country_code": "NO",
      "latitude": 61.3738,
      "longitude": 5.6407,
      "admin_name1": "Vestland"
    },
    {
      "place_name": "Bryggja",
      "postal_code": "6708",
      "country_code": "NO",
      "latitude": 61.9384,
      "longitude": 5.4303,
      "admin_name1": "Vestland"
    },
    {
      "place_name": "Stadlandet",
      "postal_code": "6751",
      "country_code": "NO",
      "latitude": 61.9002,
      "longitude": 5.7942,
      "admin_name1": "Vestland"
    },
    {
      "place_name": "Utvik",
      "postal_code": "6797",
      "country_code": "NO",
      "latitude": 61.829,
      "longitude": 6.6184,
      "admin_name1": "Vestland"
    },
    {
      "place_name": "Haslum",
      "postal_code": "1305",
      "country_code": "NO",
      "latitude": 59.9149,
      "longitude": 10.5563,
      "admin_name1": "Akershus"
    },
    {
      "place_name": "Kolsås",
      "postal_code": "1333",
      "country_code": "NO",
      "latitude": 59.9185,
      "longitude": 10.5062,
      "admin_name1": "Akershus"
    },
    {
      "place_name": "Bærums Verk",
      "postal_code": "1354",
      "country_code": "NO",
      "latitude": 59.9431,
      "longitude": 10.4945,
      "admin_name1": "Akershus"
    },
    {
      "place_name": "Langhus",
      "postal_code": "1405",
      "country_code": "NO",
      "latitude": 59.7574,
      "longitude": 10.8401,
      "admin_name1": "Akershus"
    },
    {
      "place_name": "Siggerud",
      "postal_code": "1422",
      "country_code": "NO",
      "latitude": 59.7936,
      "longitude": 10.9033,
      "admin_name1": "Akershus"
    },
    {
      "place_name": "Gardermoen",
      "postal_code": "2061",
      "country_code": "NO",
      "latitude": 60.1759,
      "longitude": 11.1003,
      "admin_name1": "Akershus"
    },
    {
      "place_name": "Nesoddtangen",
      "postal_code": "1451",
      "country_code": "NO",
      "latitude": 59.8621,
      "longitude": 10.6619,
      "admin_name1": "Akershus"
    },
    {
      "place_name": "Finstadjordet",
      "postal_code": "1475",
      "country_code": "NO",
      "latitude": 59.9131,
      "longitude": 10.9662,
      "admin_name1": "Akershus"
    },
    {
      "place_name": "Skogbygda",
      "postal_code": "2164",
      "country_code": "NO",
      "latitude": 60.3436,
      "longitude": 11.6484,
      "admin_name1": "Akershus"
    },
    {
      "place_name": "Harestua",
      "postal_code": "2716",
      "country_code": "NO",
      "latitude": 60.399,
      "longitude": 10.5357,
      "admin_name1": "Akershus"
    },
    {
      "place_name": "Roa",
      "postal_code": "2740",
      "country_code": "NO",
      "latitude": 60.3957,
      "longitude": 10.5402,
      "admin_name1": "Akershus"
    },
    {
      "place_name": "Nes I Ådal",
      "postal_code": "3523",
      "country_code": "NO",
      "latitude": 60.5565,
      "longitude": 10.0877,
      "admin_name1": "Buskerud"
    },
    {
      "place_name": "Skotselv",
      "postal_code": "3330",
      "country_code": "NO",
      "latitude": 59.8795,
      "longitude": 9.82,
      "admin_name1": "Buskerud"
    },
    {
      "place_name": "Eggedal",
      "postal_code": "3359",
      "country_code": "NO",
      "latitude": 60.2769,
      "longitude": 9.32,
      "admin_name1": "Buskerud"
    },
    {
      "place_name": "Hammerfest",
      "postal_code": "9615",
      "country_code": "NO",
      "latitude": 70.6628,
      "longitude": 23.6818,
      "admin_name1": "Finnmark"
    },
    {
      "place_name": "Akkarfjord",
      "postal_code": "9650",
      "country_code": "NO",
      "latitude": 70.7971,
      "longitude": 23.4076,
      "admin_name1": "Finnmark"
    },
    {
      "place_name": "Frei",
      "postal_code": "6528",
      "country_code": "NO",
      "latitude": 63.0243,
      "longitude": 7.8065,
      "admin_name1": "Møre og Romsdal"
    },
    {
      "place_name": "Kleive",
      "postal_code": "6452",
      "country_code": "NO",
      "latitude": 62.7952,
      "longitude": 7.6369,
      "admin_name1": "Møre og Romsdal"
    },
    {
      "place_name": "Skåla",
      "postal_code": "6456",
      "country_code": "NO",
      "latitude": 62.7766,
      "longitude": 7.5345,
      "admin_name1": "Møre og Romsdal"
    },
    {
      "place_name": "Larsnes",
      "postal_code": "6085",
      "country_code": "NO",
      "latitude": 62.2028,
      "longitude": 5.5773,
      "admin_name1": "Møre og Romsdal"
    },
    {
      "place_name": "Moltustranda",
      "postal_code": "6076",
      "country_code": "NO",
      "latitude": 62.264,
      "longitude": 5.6996,
      "admin_name1": "Møre og Romsdal"
    },
    {
      "place_name": "Stranda",
      "postal_code": "6201",
      "country_code": "NO",
      "latitude": 62.3086,
      "longitude": 6.9372,
      "admin_name1": "Møre og Romsdal"
    },
    {
      "place_name": "Vindøla",
      "postal_code": "6655",
      "country_code": "NO",
      "latitude": 63.0066,
      "longitude": 8.9194,
      "admin_name1": "Møre og Romsdal"
    },
    {
      "place_name": "Bodø",
      "postal_code": "8006",
      "country_code": "NO",
      "latitude": 67.28,
      "longitude": 14.405,
      "admin_name1": "Nordland"
    },
    {
      "place_name": "Kjeldebotn",
      "postal_code": "8543",
      "country_code": "NO",
      "latitude": 68.4064,
      "longitude": 16.6561,
      "admin_name1": "Nordland"
    },
    {
      "place_name": "Ballangen",
      "postal_code": "8546",
      "country_code": "NO",
      "latitude": 68.3428,
      "longitude": 16.8315,
      "admin_name1": "Nordland"
    },
    {
      "place_name": "Sømna",
      "postal_code": "8921",
      "country_code": "NO",
      "latitude": 65.3167,
      "longitude": 12.1667,
      "admin_name1": "Nordland"
    },
    {
      "place_name": "Sandvær",
      "postal_code": "8844",
      "country_code": "NO",
      "latitude": 65.9768,
      "longitude": 12.6461,
      "admin_name1": "Nordland"
    },
    {
      "place_name": "Tjøtta",
      "postal_code": "8860",
      "country_code": "NO",
      "latitude": 65.8226,
      "longitude": 12.4284,
      "admin_name1": "Nordland"
    },
    {
      "place_name": "Bardal",
      "postal_code": "8897",
      "country_code": "NO",
      "latitude": 66.217,
      "longitude": 13.3802,
      "admin_name1": "Nordland"
    },
    {
      "place_name": "Øresvik",
      "postal_code": "8754",
      "country_code": "NO",
      "latitude": 66.4623,
      "longitude": 13.2265,
      "admin_name1": "Nordland"
    },
    {
      "place_name": "Inndyr",
      "postal_code": "8140",
      "country_code": "NO",
      "latitude": 67.0335,
      "longitude": 14.0266,
      "admin_name1": "Nordland"
    },
    {
      "place_name": "Rognan",
      "postal_code": "8252",
      "country_code": "NO",
      "latitude": 67.1002,
      "longitude": 15.3909,
      "admin_name1": "Nordland"
    },
    {
      "place_name": "Valnesfjord",
      "postal_code": "8215",
      "country_code": "NO",
      "latitude": 67.2588,
      "longitude": 15.3918,
      "admin_name1": "Nordland"
    },
    {
      "place_name": "Lødingen",
      "postal_code": "8411",
      "country_code": "NO",
      "latitude": 68.4137,
      "longitude": 15.9963,
      "admin_name1": "Nordland"
    },
    {
      "place_name": "Tårstad",
      "postal_code": "8535",
      "country_code": "NO",
      "latitude": 68.4601,
      "longitude": 16.6249,
      "admin_name1": "Nordland"
    },
    {
      "place_name": "Skrova",
      "postal_code": "8320",
      "country_code": "NO",
      "latitude": 68.1716,
      "longitude": 14.6796,
      "admin_name1": "Nordland"
    },
    {
      "place_name": "Melbu",
      "postal_code": "8445",
      "country_code": "NO",
      "latitude": 68.5025,
      "longitude": 14.7996,
      "admin_name1": "Nordland"
    },
    {
      "place_name": "Sortland",
      "postal_code": "8401",
      "country_code": "NO",
      "latitude": 68.6957,
      "longitude": 15.405,
      "admin_name1": "Nordland"
    },
    {
      "place_name": "Andenes",
      "postal_code": "8483",
      "country_code": "NO",
      "latitude": 69.3143,
      "longitude": 16.1194,
      "admin_name1": "Nordland"
    },
    {
      "place_name": "Risøyhamn",
      "postal_code": "8484",
      "country_code": "NO",
      "latitude": 68.9719,
      "longitude": 15.6381,
      "admin_name1": "Nordland"
    },
    {
      "place_name": "Drag",
      "postal_code": "8271",
      "country_code": "NO",
      "latitude": 68.0446,
      "longitude": 16.0796,
      "admin_name1": "Nordland"
    },
    {
      "place_name": "Rygge",
      "postal_code": "1580",
      "country_code": "NO",
      "latitude": 59.3775,
      "longitude": 10.7548,
      "admin_name1": "Østfold"
    },
    {
      "place_name": "Gamle Fredrikstad",
      "postal_code": "1639",
      "country_code": "NO",
      "latitude": 59.2126,
      "longitude": 11.0057,
      "admin_name1": "Østfold"
    },
    {
      "place_name": "Rolvsøy",
      "postal_code": "1664",
      "country_code": "NO",
      "latitude": 59.2634,
      "longitude": 11.005,
      "admin_name1": "Østfold"
    },
    {
      "place_name": "Hobøl",
      "postal_code": "1828",
      "country_code": "NO",
      "latitude": 59.5757,
      "longitude": 10.8747,
      "admin_name1": "Østfold"
    },
    {
      "place_name": "Mysen",
      "postal_code": "1850",
      "country_code": "NO",
      "latitude": 59.6019,
      "longitude": 11.3933,
      "admin_name1": "Østfold"
    },
    {
      "place_name": "Hafrsfjord",
      "postal_code": "4041",
      "country_code": "NO",
      "latitude": 58.9594,
      "longitude": 5.7036,
      "admin_name1": "Rogaland"
    },
    {
      "place_name": "Hauge I Dalane",
      "postal_code": "4381",
      "country_code": "NO",
      "latitude": 58.3436,
      "longitude": 6.2812,
      "admin_name1": "Rogaland"
    },
    {
      "place_name": "Varhaug",
      "postal_code": "4360",
      "country_code": "NO",
      "latitude": 58.6181,
      "longitude": 5.657,
      "admin_name1": "Rogaland"
    },
    {
      "place_name": "Tananger",
      "postal_code": "4056",
      "country_code": "NO",
      "latitude": 58.9362,
      "longitude": 5.5741,
      "admin_name1": "Rogaland"
    },
    {
      "place_name": "Skiftun",
      "postal_code": "4146",
      "country_code": "NO",
      "latitude": 59.2783,
      "longitude": 6.141,
      "admin_name1": "Rogaland"
    },
    {
      "place_name": "Feøy",
      "postal_code": "5548",
      "country_code": "NO",
      "latitude": 59.3801,
      "longitude": 5.1522,
      "admin_name1": "Rogaland"
    },
    {
      "place_name": "Stathelle",
      "postal_code": "3960",
      "country_code": "NO",
      "latitude": 59.0432,
      "longitude": 9.693,
      "admin_name1": "Telemark"
    },
    {
      "place_name": "Herre",
      "postal_code": "3965",
      "country_code": "NO",
      "latitude": 59.1052,
      "longitude": 9.556,
      "admin_name1": "Telemark"
    },
    {
      "place_name": "Åmdals Verk",
      "postal_code": "3882",
      "country_code": "NO",
      "latitude": 59.3777,
      "longitude": 8.0406,
      "admin_name1": "Telemark"
    },
    {
      "place_name": "Ramfjordbotn",
      "postal_code": "9027",
      "country_code": "NO",
      "latitude": 69.5629,
      "longitude": 19.2416,
      "admin_name1": "Troms"
    },
    {
      "place_name": "Harstad",
      "postal_code": "9479",
      "country_code": "NO",
      "latitude": 68.8116,
      "longitude": 16.4145,
      "admin_name1": "Troms"
    },
    {
      "place_name": "Sørreisa",
      "postal_code": "9315",
      "country_code": "NO",
      "latitude": 69.1349,
      "longitude": 18.1473,
      "admin_name1": "Troms"
    },
    {
      "place_name": "Senjahopen",
      "postal_code": "9387",
      "country_code": "NO",
      "latitude": 69.5014,
      "longitude": 17.481,
      "admin_name1": "Troms"
    },
    {
      "place_name": "Lauksletta",
      "postal_code": "9194",
      "country_code": "NO",
      "latitude": 70.1134,
      "longitude": 20.7571,
      "admin_name1": "Troms"
    },
    {
      "place_name": "Uløybukt",
      "postal_code": "9197",
      "country_code": "NO",
      "latitude": 69.883,
      "longitude": 20.6943,
      "admin_name1": "Troms"
    },
    {
      "place_name": "Storslett",
      "postal_code": "9157",
      "country_code": "NO",
      "latitude": 69.7647,
      "longitude": 21.1417,
      "admin_name1": "Troms"
    },
    {
      "place_name": "Borre",
      "postal_code": "3184",
      "country_code": "NO",
      "latitude": 59.3776,
      "longitude": 10.4498,
      "admin_name1": "Vestfold"
    },
    {
      "place_name": "Sem",
      "postal_code": "3170",
      "country_code": "NO",
      "latitude": 59.2809,
      "longitude": 10.3315,
      "admin_name1": "Vestfold"
    },
    {
      "place_name": "Svarstad",
      "postal_code": "3276",
      "country_code": "NO",
      "latitude": 59.4017,
      "longitude": 9.9614,
      "admin_name1": "Vestfold"
    },
    {
      "place_name": "Larvik",
      "postal_code": "3285",
      "country_code": "NO",
      "latitude": 59.0533,
      "longitude": 10.0352,
      "admin_name1": "Vestfold"
    },
    {
      "place_name": "Oppdal",
      "postal_code": "7346",
      "country_code": "NO",
      "latitude": 62.5943,
      "longitude": 9.6912,
      "admin_name1": "Trøndelag"
    },
    {
      "place_name": "Røros",
      "postal_code": "7361",
      "country_code": "NO",
      "latitude": 62.5747,
      "longitude": 11.3842,
      "admin_name1": "Trøndelag"
    },
    {
      "place_name": "Tydal",
      "postal_code": "7591",
      "country_code": "NO",
      "latitude": 63.1111,
      "longitude": 11.2609,
      "admin_name1": "Trøndelag"
    },
    {
      "place_name": "Snåsa",
      "postal_code": "7761",
      "country_code": "NO",
      "latitude": 64.2457,
      "longitude": 12.3778,
      "admin_name1": "Trøndelag"
    },
    {
      "place_name": "Oppland",
      "postal_code": "7745",
      "country_code": "NO",
      "latitude": 64.3377,
      "longitude": 10.8649,
      "admin_name1": "Trøndelag"
    },
    {
      "place_name": "Orkanger",
      "postal_code": "7303",
      "country_code": "NO",
      "latitude": 63.3067,
      "longitude": 9.8503,
      "admin_name1": "Trøndelag"
    },
    {
      "place_name": "Rørvik",
      "postal_code": "7902",
      "country_code": "NO",
      "latitude": 64.862,
      "longitude": 11.2373,
      "admin_name1": "Trøndelag"
    },
    {
      "place_name": "Ottestad",
      "postal_code": "2314",
      "country_code": "NO",
      "latitude": 60.7474,
      "longitude": 11.1366,
      "admin_name1": "Innlandet"
    },
    {
      "place_name": "Kirkenær",
      "postal_code": "2261",
      "country_code": "NO",
      "latitude": 60.4579,
      "longitude": 12.0586,
      "admin_name1": "Innlandet"
    },
    {
      "place_name": "Trysil",
      "postal_code": "2420",
      "country_code": "NO",
      "latitude": 61.3148,
      "longitude": 12.2637,
      "admin_name1": "Innlandet"
    },
    {
      "place_name": "Tørberget",
      "postal_code": "2429",
      "country_code": "NO",
      "latitude": 61.1333,
      "longitude": 12.1,
      "admin_name1": "Innlandet"
    },
    {
      "place_name": "Sømådalen",
      "postal_code": "2448",
      "country_code": "NO",
      "latitude": 62.1024,
      "longitude": 11.6644,
      "admin_name1": "Innlandet"
    },
    {
      "place_name": "Fåvang",
      "postal_code": "2633",
      "country_code": "NO",
      "latitude": 61.4554,
      "longitude": 10.1946,
      "admin_name1": "Innlandet"
    },
    {
      "place_name": "Bjoneroa",
      "postal_code": "3527",
      "country_code": "NO",
      "latitude": 60.5237,
      "longitude": 10.2847,
      "admin_name1": "Innlandet"
    },
    {
      "place_name": "Bagn",
      "postal_code": "2930",
      "country_code": "NO",
      "latitude": 60.8225,
      "longitude": 9.5521,
      "admin_name1": "Innlandet"
    },
    {
      "place_name": "Beito",
      "postal_code": "2952",
      "country_code": "NO",
      "latitude": 61.2333,
      "longitude": 8.8667,
      "admin_name1": "Innlandet"
    },
    {
      "place_name": "Vang I Valdres",
      "postal_code": "2974",
      "country_code": "NO",
      "latitude": 61.1253,
      "longitude": 8.5729,
      "admin_name1": "Innlandet"
    },
    {
      "place_name": "Kjevik",
      "postal_code": "4657",
      "country_code": "NO",
      "latitude": 58.2069,
      "longitude": 8.0825,
      "admin_name1": "Agder"
    },
    {
      "place_name": "Lillesand",
      "postal_code": "4790",
      "country_code": "NO",
      "latitude": 58.2488,
      "longitude": 8.3778,
      "admin_name1": "Agder"
    },
    {
      "place_name": "Åseral",
      "postal_code": "4541",
      "country_code": "NO",
      "latitude": 58.1543,
      "longitude": 7.2058,
      "admin_name1": "Agder"
    },
    {
      "place_name": "Tingvatn",
      "postal_code": "4595",
      "country_code": "NO",
      "latitude": 58.3757,
      "longitude": 7.2197,
      "admin_name1": "Agder"
    },
    {
      "place_name": "Breistein",
      "postal_code": "5111",
      "country_code": "NO",
      "latitude": 60.4862,
      "longitude": 5.4038,
      "admin_name1": "Vestland"
    },
    {
      "place_name": "Nyborg",
      "postal_code": "5130",
      "country_code": "NO",
      "latitude": 60.4684,
      "longitude": 5.3358,
      "admin_name1": "Vestland"
    },
    {
      "place_name": "Skånevik",
      "postal_code": "5594",
      "country_code": "NO",
      "latitude": 59.7329,
      "longitude": 5.9376,
      "admin_name1": "Vestland"
    },
    {
      "place_name": "Røldal",
      "postal_code": "5760",
      "country_code": "NO",
      "latitude": 59.8334,
      "longitude": 6.815,
      "admin_name1": "Vestland"
    },
    {
      "place_name": "Kinsarvik",
      "postal_code": "5782",
      "country_code": "NO",
      "latitude": 60.3757,
      "longitude": 6.7195,
      "admin_name1": "Vestland"
    },
    {
      "place_name": "Øvre Eidfjord",
      "postal_code": "5784",
      "country_code": "NO",
      "latitude": 60.4416,
      "longitude": 7.0981,
      "admin_name1": "Vestland"
    },
    {
      "place_name": "Ulvik",
      "postal_code": "5730",
      "country_code": "NO",
      "latitude": 60.5679,
      "longitude": 6.9165,
      "admin_name1": "Vestland"
    },
    {
      "place_name": "Skulestadmo",
      "postal_code": "5711",
      "country_code": "NO",
      "latitude": 60.6584,
      "longitude": 6.4297,
      "admin_name1": "Vestland"
    },
    {
      "place_name": "Vossestrand",
      "postal_code": "5713",
      "country_code": "NO",
      "latitude": 60.8,
      "longitude": 6.6,
      "admin_name1": "Vestland"
    },
    {
      "place_name": "Os",
      "postal_code": "5210",
      "country_code": "NO",
      "latitude": 60.2176,
      "longitude": 5.6969,
      "admin_name1": "Vestland"
    },
    {
      "place_name": "Stolmen",
      "postal_code": "5398",
      "country_code": "NO",
      "latitude": 60.0495,
      "longitude": 5.2115,
      "admin_name1": "Vestland"
    },
    {
      "place_name": "Hellesøy",
      "postal_code": "5334",
      "country_code": "NO",
      "latitude": 60.6603,
      "longitude": 4.7894,
      "admin_name1": "Vestland"
    },
    {
      "place_name": "Fotlandsvåg",
      "postal_code": "5283",
      "country_code": "NO",
      "latitude": 60.5893,
      "longitude": 5.5243,
      "admin_name1": "Vestland"
    },
    {
      "place_name": "Alversund",
      "postal_code": "5911",
      "country_code": "NO",
      "latitude": 60.571,
      "longitude": 5.2349,
      "admin_name1": "Vestland"
    },
    {
      "place_name": "Brekke",
      "postal_code": "5964",
      "country_code": "NO",
      "latitude": 61.02,
      "longitude": 5.4615,
      "admin_name1": "Vestland"
    },
    {
      "place_name": "Hersvikbygda",
      "postal_code": "6929",
      "country_code": "NO",
      "latitude": 61.0722,
      "longitude": 4.8115,
      "admin_name1": "Vestland"
    },
    {
      "place_name": "Vadheim",
      "postal_code": "6996",
      "country_code": "NO",
      "latitude": 61.2091,
      "longitude": 5.8253,
      "admin_name1": "Vestland"
    },
    {
      "place_name": "Marifjøra",
      "postal_code": "6873",
      "country_code": "NO",
      "latitude": 61.3812,
      "longitude": 7.3065,
      "admin_name1": "Vestland"
    },
    {
      "place_name": "Atløy",
      "postal_code": "6985",
      "country_code": "NO",
      "latitude": 61.3703,
      "longitude": 5.0876,
      "admin_name1": "Vestland"
    },
    {
      "place_name": "Vøyenenga",
      "postal_code": "1313",
      "country_code": "NO",
      "latitude": 59.9085,
      "longitude": 10.4739,
      "admin_name1": "Akershus"
    },
    {
      "place_name": "Slependen",
      "postal_code": "1341",
      "country_code": "NO",
      "latitude": 59.884,
      "longitude": 10.4887,
      "admin_name1": "Akershus"
    },
    {
      "place_name": "Hosle",
      "postal_code": "1362",
      "country_code": "NO",
      "latitude": 59.9355,
      "longitude": 10.5922,
      "admin_name1": "Akershus"
    },
    {
      "place_name": "Hvalstad",
      "postal_code": "1395",
      "country_code": "NO",
      "latitude": 59.8566,
      "longitude": 10.4663,
      "admin_name1": "Akershus"
    },
    {
      "place_name": "Tofte",
      "postal_code": "3481",
      "country_code": "NO",
      "latitude": 59.5496,
      "longitude": 10.5672,
      "admin_name1": "Akershus"
    },
    {
      "place_name": "Lillestrøm",
      "postal_code": "2004",
      "country_code": "NO",
      "latitude": 59.9538,
      "longitude": 11.0632,
      "admin_name1": "Akershus"
    },
    {
      "place_name": "Ås",
      "postal_code": "1434",
      "country_code": "NO",
      "latitude": 59.6647,
      "longitude": 10.8371,
      "admin_name1": "Akershus"
    },
    {
      "place_name": "Bjørkelangen",
      "postal_code": "1940",
      "country_code": "NO",
      "latitude": 59.879,
      "longitude": 11.5629,
      "admin_name1": "Akershus"
    },
    {
      "place_name": "Hemnes",
      "postal_code": "1971",
      "country_code": "NO",
      "latitude": 59.7106,
      "longitude": 11.4754,
      "admin_name1": "Akershus"
    },
    {
      "place_name": "Hakadal",
      "postal_code": "1485",
      "country_code": "NO",
      "latitude": 60.0897,
      "longitude": 10.8724,
      "admin_name1": "Akershus"
    },
    {
      "place_name": "Grindvoll",
      "postal_code": "2720",
      "country_code": "NO",
      "latitude": 60.3957,
      "longitude": 10.5402,
      "admin_name1": "Akershus"
    },
    {
      "place_name": "Tranby",
      "postal_code": "3406",
      "country_code": "NO",
      "latitude": 59.832,
      "longitude": 10.2637,
      "admin_name1": "Buskerud"
    },
    {
      "place_name": "Gullaug",
      "postal_code": "3426",
      "country_code": "NO",
      "latitude": 59.7569,
      "longitude": 10.2898,
      "admin_name1": "Buskerud"
    },
    {
      "place_name": "Lampeland",
      "postal_code": "3621",
      "country_code": "NO",
      "latitude": 59.805,
      "longitude": 9.4632,
      "admin_name1": "Buskerud"
    },
    {
      "place_name": "Langfjordbotn",
      "postal_code": "9545",
      "country_code": "NO",
      "latitude": 70.0498,
      "longitude": 22.4048,
      "admin_name1": "Finnmark"
    },
    {
      "place_name": "Hesseng",
      "postal_code": "9912",
      "country_code": "NO",
      "latitude": 69.6972,
      "longitude": 29.9543,
      "admin_name1": "Finnmark"
    },
    {
      "place_name": "Kirkenes",
      "postal_code": "9915",
      "country_code": "NO",
      "latitude": 69.7197,
      "longitude": 30.1604,
      "admin_name1": "Finnmark"
    },
    {
      "place_name": "Vadsø",
      "postal_code": "9801",
      "country_code": "NO",
      "latitude": 70.2323,
      "longitude": 29.684,
      "admin_name1": "Finnmark"
    },
    {
      "place_name": "Veidnes",
      "postal_code": "9717",
      "country_code": "NO",
      "latitude": 70.4789,
      "longitude": 26.7617,
      "admin_name1": "Finnmark"
    },
    {
      "place_name": "Raudsand",
      "postal_code": "6462",
      "country_code": "NO",
      "latitude": 62.837,
      "longitude": 8.1246,
      "admin_name1": "Møre og Romsdal"
    },
    {
      "place_name": "Ørsta",
      "postal_code": "6154",
      "country_code": "NO",
      "latitude": 62.1998,
      "longitude": 6.129,
      "admin_name1": "Møre og Romsdal"
    },
    {
      "place_name": "Eidsnes",
      "postal_code": "6034",
      "country_code": "NO",
      "latitude": 62.4346,
      "longitude": 6.2182,
      "admin_name1": "Møre og Romsdal"
    },
    {
      "place_name": "Surnadal",
      "postal_code": "6652",
      "country_code": "NO",
      "latitude": 62.974,
      "longitude": 8.7247,
      "admin_name1": "Møre og Romsdal"
    },
    {
      "place_name": "Malmefjorden",
      "postal_code": "6445",
      "country_code": "NO",
      "latitude": 62.8151,
      "longitude": 7.2432,
      "admin_name1": "Møre og Romsdal"
    },
    {
      "place_name": "Vatne",
      "postal_code": "6265",
      "country_code": "NO",
      "latitude": 62.5583,
      "longitude": 6.6171,
      "admin_name1": "Møre og Romsdal"
    },
    {
      "place_name": "Jar",
      "postal_code": "1308",
      "country_code": "NO",
      "latitude": 59.928,
      "longitude": 10.6161,
      "admin_name1": "Akershus"
    },
    {
      "place_name": "Sandvika",
      "postal_code": "1336",
      "country_code": "NO",
      "latitude": 59.8979,
      "longitude": 10.4906,
      "admin_name1": "Akershus"
    },
    {
      "place_name": "Nesbru",
      "postal_code": "1378",
      "country_code": "NO",
      "latitude": 59.8601,
      "longitude": 10.4939,
      "admin_name1": "Akershus"
    },
    {
      "place_name": "Bødalen",
      "postal_code": "3472",
      "country_code": "NO",
      "latitude": 59.7599,
      "longitude": 10.4617,
      "admin_name1": "Akershus"
    },
    {
      "place_name": "Kjeller",
      "postal_code": "2007",
      "country_code": "NO",
      "latitude": 59.9752,
      "longitude": 11.0421,
      "admin_name1": "Akershus"
    },
    {
      "place_name": "Ski",
      "postal_code": "1400",
      "country_code": "NO",
      "latitude": 59.7136,
      "longitude": 10.8022,
      "admin_name1": "Akershus"
    },
    {
      "place_name": "Ytre Enebakk",
      "postal_code": "1914",
      "country_code": "NO",
      "latitude": 59.7641,
      "longitude": 10.9525,
      "admin_name1": "Akershus"
    },
    {
      "place_name": "Blystadlia",
      "postal_code": "2014",
      "country_code": "NO",
      "latitude": 59.9317,
      "longitude": 11.04,
      "admin_name1": "Akershus"
    },
    {
      "place_name": "Rømskog",
      "postal_code": "1951",
      "country_code": "NO",
      "latitude": 59.8201,
      "longitude": 11.6132,
      "admin_name1": "Akershus"
    },
    {
      "place_name": "Løken",
      "postal_code": "1961",
      "country_code": "NO",
      "latitude": 59.7967,
      "longitude": 11.4476,
      "admin_name1": "Akershus"
    },
    {
      "place_name": "Auli",
      "postal_code": "1928",
      "country_code": "NO",
      "latitude": 60.0403,
      "longitude": 11.3705,
      "admin_name1": "Akershus"
    },
    {
      "place_name": "Maura",
      "postal_code": "2036",
      "country_code": "NO",
      "latitude": 60.2635,
      "longitude": 11.0335,
      "admin_name1": "Akershus"
    },
    {
      "place_name": "Dal",
      "postal_code": "2072",
      "country_code": "NO",
      "latitude": 60.252,
      "longitude": 11.1806,
      "admin_name1": "Akershus"
    },
    {
      "place_name": "Reistad",
      "postal_code": "3425",
      "country_code": "NO",
      "latitude": 59.7828,
      "longitude": 10.2826,
      "admin_name1": "Buskerud"
    },
    {
      "place_name": "Hokksund",
      "postal_code": "3302",
      "country_code": "NO",
      "latitude": 59.7701,
      "longitude": 9.8764,
      "admin_name1": "Buskerud"
    },
    {
      "place_name": "Vikersund",
      "postal_code": "3370",
      "country_code": "NO",
      "latitude": 59.9868,
      "longitude": 9.9911,
      "admin_name1": "Buskerud"
    },
    {
      "place_name": "Nedre Eggedal",
      "postal_code": "3358",
      "country_code": "NO",
      "latitude": 60.1351,
      "longitude": 9.397,
      "admin_name1": "Buskerud"
    },
    {
      "place_name": "Kårhamn",
      "postal_code": "9657",
      "country_code": "NO",
      "latitude": 70.522,
      "longitude": 23.1702,
      "admin_name1": "Finnmark"
    },
    {
      "place_name": "Skarsvåg",
      "postal_code": "9763",
      "country_code": "NO",
      "latitude": 71.1108,
      "longitude": 25.8197,
      "admin_name1": "Finnmark"
    },
    {
      "place_name": "Kunes",
      "postal_code": "9742",
      "country_code": "NO",
      "latitude": 70.4789,
      "longitude": 26.7617,
      "admin_name1": "Finnmark"
    },
    {
      "place_name": "Eresfjord",
      "postal_code": "6470",
      "country_code": "NO",
      "latitude": 62.6739,
      "longitude": 6.6741,
      "admin_name1": "Møre og Romsdal"
    },
    {
      "place_name": "Bølandet",
      "postal_code": "6095",
      "country_code": "NO",
      "latitude": 62.3543,
      "longitude": 5.6318,
      "admin_name1": "Møre og Romsdal"
    },
    {
      "place_name": "Geiranger",
      "postal_code": "6216",
      "country_code": "NO",
      "latitude": 62.1019,
      "longitude": 7.2072,
      "admin_name1": "Møre og Romsdal"
    },
    {
      "place_name": "Vestnes",
      "postal_code": "6399",
      "country_code": "NO",
      "latitude": 62.6254,
      "longitude": 7.087,
      "admin_name1": "Møre og Romsdal"
    },
    {
      "place_name": "Måndalen",
      "postal_code": "6385",
      "country_code": "NO",
      "latitude": 62.5382,
      "longitude": 7.4372,
      "admin_name1": "Møre og Romsdal"
    },
    {
      "place_name": "Ålvundfjord",
      "postal_code": "6622",
      "country_code": "NO",
      "latitude": 62.8827,
      "longitude": 8.2473,
      "admin_name1": "Møre og Romsdal"
    },
    {
      "place_name": "Lyngstad",
      "postal_code": "6493",
      "country_code": "NO",
      "latitude": 62.9612,
      "longitude": 7.367,
      "admin_name1": "Møre og Romsdal"
    },
    {
      "place_name": "Narvik",
      "postal_code": "8518",
      "country_code": "NO",
      "latitude": 68.4384,
      "longitude": 17.4272,
      "admin_name1": "Nordland"
    },
    {
      "place_name": "Jektvik",
      "postal_code": "8187",
      "country_code": "NO",
      "latitude": 66.6849,
      "longitude": 13.2757,
      "admin_name1": "Nordland"
    },
    {
      "place_name": "Selsøyvik",
      "postal_code": "8196",
      "country_code": "NO",
      "latitude": 66.5732,
      "longitude": 12.98,
      "admin_name1": "Nordland"
    },
    {
      "place_name": "Sandhornøy",
      "postal_code": "8130",
      "country_code": "NO",
      "latitude": 67.1148,
      "longitude": 13.9898,
      "admin_name1": "Nordland"
    },
    {
      "place_name": "Røst",
      "postal_code": "8064",
      "country_code": "NO",
      "latitude": 67.5175,
      "longitude": 12.1176,
      "admin_name1": "Nordland"
    },
    {
      "place_name": "Fredvang",
      "postal_code": "8387",
      "country_code": "NO",
      "latitude": 68.0841,
      "longitude": 13.1667,
      "admin_name1": "Nordland"
    },
    {
      "place_name": "Laukvik",
      "postal_code": "8315",
      "country_code": "NO",
      "latitude": 68.3881,
      "longitude": 14.4177,
      "admin_name1": "Nordland"
    },
    {
      "place_name": "Larkollen",
      "postal_code": "1561",
      "country_code": "NO",
      "latitude": 59.3285,
      "longitude": 10.6869,
      "admin_name1": "Østfold"
    },
    {
      "place_name": "Gressvik",
      "postal_code": "1623",
      "country_code": "NO",
      "latitude": 59.2036,
      "longitude": 10.8582,
      "admin_name1": "Østfold"
    },
    {
      "place_name": "Torp",
      "postal_code": "1658",
      "country_code": "NO",
      "latitude": 59.2427,
      "longitude": 11.0169,
      "admin_name1": "Østfold"
    },
    {
      "place_name": "Hundvåg",
      "postal_code": "4077",
      "country_code": "NO",
      "latitude": 58.9897,
      "longitude": 5.6569,
      "admin_name1": "Rogaland"
    },
    {
      "place_name": "Rennesøy",
      "postal_code": "4150",
      "country_code": "NO",
      "latitude": 59.0476,
      "longitude": 5.7013,
      "admin_name1": "Rogaland"
    },
    {
      "place_name": "Klepp Stasjon",
      "postal_code": "4353",
      "country_code": "NO",
      "latitude": 58.7728,
      "longitude": 5.6773,
      "admin_name1": "Rogaland"
    },
    {
      "place_name": "Bryne",
      "postal_code": "4344",
      "country_code": "NO",
      "latitude": 58.7354,
      "longitude": 5.6477,
      "admin_name1": "Rogaland"
    },
    {
      "place_name": "Jørpeland",
      "postal_code": "4104",
      "country_code": "NO",
      "latitude": 59.0225,
      "longitude": 6.0408,
      "admin_name1": "Rogaland"
    },
    {
      "place_name": "Vanvik",
      "postal_code": "4209",
      "country_code": "NO",
      "latitude": 59.5469,
      "longitude": 6.3626,
      "admin_name1": "Rogaland"
    },
    {
      "place_name": "Nedstrand",
      "postal_code": "5560",
      "country_code": "NO",
      "latitude": 59.3456,
      "longitude": 5.8575,
      "admin_name1": "Rogaland"
    },
    {
      "place_name": "Skudeneshavn",
      "postal_code": "4280",
      "country_code": "NO",
      "latitude": 59.1495,
      "longitude": 5.2591,
      "admin_name1": "Rogaland"
    },
    {
      "place_name": "Sannidal",
      "postal_code": "3766",
      "country_code": "NO",
      "latitude": 58.9807,
      "longitude": 9.2623,
      "admin_name1": "Telemark"
    },
    {
      "place_name": "Kragerø",
      "postal_code": "3772",
      "country_code": "NO",
      "latitude": 58.8748,
      "longitude": 9.3752,
      "admin_name1": "Telemark"
    },
    {
      "place_name": "Rauland",
      "postal_code": "3864",
      "country_code": "NO",
      "latitude": 59.7398,
      "longitude": 8.1092,
      "admin_name1": "Telemark"
    },
    {
      "place_name": "Straumsbukta",
      "postal_code": "9106",
      "country_code": "NO",
      "latitude": 69.5507,
      "longitude": 18.4754,
      "admin_name1": "Troms"
    },
    {
      "place_name": "Gullesfjord",
      "postal_code": "8409",
      "country_code": "NO",
      "latitude": 68.6957,
      "longitude": 15.405,
      "admin_name1": "Troms"
    },
    {
      "place_name": "Gibostad",
      "postal_code": "9372",
      "country_code": "NO",
      "latitude": 69.3838,
      "longitude": 17.9748,
      "admin_name1": "Troms"
    },
    {
      "place_name": "Skaland",
      "postal_code": "9384",
      "country_code": "NO",
      "latitude": 69.42,
      "longitude": 17.3355,
      "admin_name1": "Troms"
    },
    {
      "place_name": "Meistervik",
      "postal_code": "9055",
      "country_code": "NO",
      "latitude": 69.3418,
      "longitude": 18.8617,
      "admin_name1": "Troms"
    },
    {
      "place_name": "Åsgårdstrand",
      "postal_code": "3167",
      "country_code": "NO",
      "latitude": 59.3507,
      "longitude": 10.4601,
      "admin_name1": "Vestfold"
    },
    {
      "place_name": "Undrumsdal",
      "postal_code": "3176",
      "country_code": "NO",
      "latitude": 59.4111,
      "longitude": 10.3349,
      "admin_name1": "Vestfold"
    },
    {
      "place_name": "Stokke",
      "postal_code": "3161",
      "country_code": "NO",
      "latitude": 59.227,
      "longitude": 10.2856,
      "admin_name1": "Vestfold"
    },
    {
      "place_name": "Charlottenlund",
      "postal_code": "7058",
      "country_code": "NO",
      "latitude": 63.4205,
      "longitude": 10.4968,
      "admin_name1": "Trøndelag"
    },
    {
      "place_name": "Heimdal",
      "postal_code": "7080",
      "country_code": "NO",
      "latitude": 63.35,
      "longitude": 10.3583,
      "admin_name1": "Trøndelag"
    },
    {
      "place_name": "Beitstad",
      "postal_code": "7730",
      "country_code": "NO",
      "latitude": 64.044,
      "longitude": 11.5107,
      "admin_name1": "Trøndelag"
    },
    {
      "place_name": "Spillum",
      "postal_code": "7820",
      "country_code": "NO",
      "latitude": 64.4454,
      "longitude": 11.5213,
      "admin_name1": "Trøndelag"
    },
    {
      "place_name": "Skaun",
      "postal_code": "7357",
      "country_code": "NO",
      "latitude": 63.2515,
      "longitude": 10.0524,
      "admin_name1": "Trøndelag"
    },
    {
      "place_name": "Saksvik",
      "postal_code": "7562",
      "country_code": "NO",
      "latitude": 63.4333,
      "longitude": 10.6,
      "admin_name1": "Trøndelag"
    },
    {
      "place_name": "Levanger",
      "postal_code": "7600",
      "country_code": "NO",
      "latitude": 63.7464,
      "longitude": 11.2996,
      "admin_name1": "Trøndelag"
    },
    {
      "place_name": "Indre Nærøy",
      "postal_code": "7944",
      "country_code": "NO",
      "latitude": 64.8574,
      "longitude": 11.2881,
      "admin_name1": "Trøndelag"
    },
    {
      "place_name": "Fåberg",
      "postal_code": "2627",
      "country_code": "NO",
      "latitude": 61.1684,
      "longitude": 10.4048,
      "admin_name1": "Innlandet"
    },
    {
      "place_name": "Mesnali",
      "postal_code": "2610",
      "country_code": "NO",
      "latitude": 61.1026,
      "longitude": 10.6992,
      "admin_name1": "Innlandet"
    },
    {
      "place_name": "Jømna",
      "postal_code": "2416",
      "country_code": "NO",
      "latitude": 60.8079,
      "longitude": 11.7012,
      "admin_name1": "Innlandet"
    },
    {
      "place_name": "Østby",
      "postal_code": "2424",
      "country_code": "NO",
      "latitude": 61.254,
      "longitude": 12.5269,
      "admin_name1": "Innlandet"
    },
    {
      "place_name": "Vingelen",
      "postal_code": "2542",
      "country_code": "NO",
      "latitude": 62.4172,
      "longitude": 10.8619,
      "admin_name1": "Innlandet"
    },
    {
      "place_name": "Tynset",
      "postal_code": "2500",
      "country_code": "NO",
      "latitude": 62.2759,
      "longitude": 10.7824,
      "admin_name1": "Innlandet"
    },
    {
      "place_name": "Heidal",
      "postal_code": "2679",
      "country_code": "NO",
      "latitude": 61.7581,
      "longitude": 9.2844,
      "admin_name1": "Innlandet"
    },
    {
      "place_name": "Etnedal",
      "postal_code": "2893",
      "country_code": "NO",
      "latitude": 60.7534,
      "longitude": 10.6176,
      "admin_name1": "Innlandet"
    },
    {
      "place_name": "Søgne",
      "postal_code": "4642",
      "country_code": "NO",
      "latitude": 58.0933,
      "longitude": 7.7829,
      "admin_name1": "Agder"
    },
    {
      "place_name": "Farsund",
      "postal_code": "4550",
      "country_code": "NO",
      "latitude": 58.0948,
      "longitude": 6.8047,
      "admin_name1": "Agder"
    },
    {
      "place_name": "Frolands Verk",
      "postal_code": "4827",
      "country_code": "NO",
      "latitude": 58.5005,
      "longitude": 8.5793,
      "admin_name1": "Agder"
    },
    {
      "place_name": "Brekkestø",
      "postal_code": "4780",
      "country_code": "NO",
      "latitude": 58.1969,
      "longitude": 8.3489,
      "admin_name1": "Agder"
    },
    {
      "place_name": "Indre Arna",
      "postal_code": "5260",
      "country_code": "NO",
      "latitude": 60.4177,
      "longitude": 5.4709,
      "admin_name1": "Vestland"
    },
    {
      "place_name": "Barekstad",
      "postal_code": "6916",
      "country_code": "NO",
      "latitude": 61.6684,
      "longitude": 4.8888,
      "admin_name1": "Vestland"
    },
    {
      "place_name": "Markhus",
      "postal_code": "5596",
      "country_code": "NO",
      "latitude": 59.8184,
      "longitude": 6.229,
      "admin_name1": "Vestland"
    },
    {
      "place_name": "Finnås",
      "postal_code": "5437",
      "country_code": "NO",
      "latitude": 59.7451,
      "longitude": 5.2595,
      "admin_name1": "Vestland"
    },
    {
      "place_name": "Rosendal",
      "postal_code": "5470",
      "country_code": "NO",
      "latitude": 59.9859,
      "longitude": 6.0116,
      "admin_name1": "Vestland"
    },
    {
      "place_name": "Herand",
      "postal_code": "5628",
      "country_code": "NO",
      "latitude": 60.344,
      "longitude": 6.3758,
      "admin_name1": "Vestland"
    },
    {
      "place_name": "Tyssedal",
      "postal_code": "5770",
      "country_code": "NO",
      "latitude": 60.1163,
      "longitude": 6.5591,
      "admin_name1": "Vestland"
    },
    {
      "place_name": "Øystese",
      "postal_code": "5604",
      "country_code": "NO",
      "latitude": 60.3882,
      "longitude": 6.1925,
      "admin_name1": "Vestland"
    },
    {
      "place_name": "Ask",
      "postal_code": "5307",
      "country_code": "NO",
      "latitude": 60.4787,
      "longitude": 5.2133,
      "admin_name1": "Vestland"
    },
    {
      "place_name": "Kleppestø",
      "postal_code": "5319",
      "country_code": "NO",
      "latitude": 60.4084,
      "longitude": 5.2276,
      "admin_name1": "Vestland"
    },
    {
      "place_name": "Dalekvam",
      "postal_code": "5722",
      "country_code": "NO",
      "latitude": 60.5864,
      "longitude": 5.8189,
      "admin_name1": "Vestland"
    },
    {
      "place_name": "Seim",
      "postal_code": "5912",
      "country_code": "NO",
      "latitude": 60.6206,
      "longitude": 5.2696,
      "admin_name1": "Vestland"
    },
    {
      "place_name": "Austrheim",
      "postal_code": "5943",
      "country_code": "NO",
      "latitude": 60.7774,
      "longitude": 4.9323,
      "admin_name1": "Vestland"
    },
    {
      "place_name": "Leirvik I Sogn",
      "postal_code": "6953",
      "country_code": "NO",
      "latitude": 61.1369,
      "longitude": 5.3475,
      "admin_name1": "Vestland"
    },
    {
      "place_name": "Balestrand",
      "postal_code": "6898",
      "country_code": "NO",
      "latitude": 61.2096,
      "longitude": 6.5361,
      "admin_name1": "Vestland"
    },
    {
      "place_name": "Holmedal",
      "postal_code": "6982",
      "country_code": "NO",
      "latitude": 61.3571,
      "longitude": 5.1857,
      "admin_name1": "Vestland"
    },
    {
      "place_name": "Stongfjorden",
      "postal_code": "6984",
      "country_code": "NO",
      "latitude": 61.4277,
      "longitude": 5.1674,
      "admin_name1": "Vestland"
    },
    {
      "place_name": "Sande I Sunnfjord",
      "postal_code": "6971",
      "country_code": "NO",
      "latitude": 61.3251,
      "longitude": 5.7977,
      "admin_name1": "Vestland"
    },
    {
      "place_name": "Stårheim",
      "postal_code": "6777",
      "country_code": "NO",
      "latitude": 61.9188,
      "longitude": 5.7612,
      "admin_name1": "Vestland"
    },
    {
      "place_name": "Kjøpsvik",
      "postal_code": "8591",
      "country_code": "NO",
      "latitude": 68.097,
      "longitude": 16.3742,
      "admin_name1": "Nordland"
    },
    {
      "place_name": "Laupstad",
      "postal_code": "8316",
      "country_code": "NO",
      "latitude": 68.3574,
      "longitude": 14.7233,
      "admin_name1": "Nordland"
    },
    {
      "place_name": "Stormolla",
      "postal_code": "8328",
      "country_code": "NO",
      "latitude": 68.3215,
      "longitude": 14.9881,
      "admin_name1": "Nordland"
    },
    {
      "place_name": "Bleik",
      "postal_code": "8481",
      "country_code": "NO",
      "latitude": 69.2726,
      "longitude": 15.9554,
      "admin_name1": "Nordland"
    },
    {
      "place_name": "Nordmela",
      "postal_code": "8489",
      "country_code": "NO",
      "latitude": 69.1337,
      "longitude": 15.6749,
      "admin_name1": "Nordland"
    },
    {
      "place_name": "Aremark",
      "postal_code": "1798",
      "country_code": "NO",
      "latitude": 59.2315,
      "longitude": 11.6905,
      "admin_name1": "Østfold"
    },
    {
      "place_name": "Hommersåk",
      "postal_code": "4310",
      "country_code": "NO",
      "latitude": 58.9256,
      "longitude": 5.851,
      "admin_name1": "Rogaland"
    },
    {
      "place_name": "Tau",
      "postal_code": "4124",
      "country_code": "NO",
      "latitude": 59.0648,
      "longitude": 5.9225,
      "admin_name1": "Rogaland"
    },
    {
      "place_name": "Helgøy I Ryfylke",
      "postal_code": "4167",
      "country_code": "NO",
      "latitude": 59.224,
      "longitude": 5.8294,
      "admin_name1": "Rogaland"
    },
    {
      "place_name": "Siljan",
      "postal_code": "3749",
      "country_code": "NO",
      "latitude": 59.28,
      "longitude": 9.7181,
      "admin_name1": "Telemark"
    },
    {
      "place_name": "Gratangen",
      "postal_code": "9470",
      "country_code": "NO",
      "latitude": 68.6963,
      "longitude": 17.5321,
      "admin_name1": "Troms"
    },
    {
      "place_name": "Skjervøy",
      "postal_code": "9180",
      "country_code": "NO",
      "latitude": 70.0703,
      "longitude": 20.685,
      "admin_name1": "Troms"
    },
    {
      "place_name": "Horten",
      "postal_code": "3186",
      "country_code": "NO",
      "latitude": 59.3989,
      "longitude": 10.47,
      "admin_name1": "Vestfold"
    },
    {
      "place_name": "Kodal",
      "postal_code": "3243",
      "country_code": "NO",
      "latitude": 59.2116,
      "longitude": 10.0673,
      "admin_name1": "Vestfold"
    },
    {
      "place_name": "Nøtterøy",
      "postal_code": "3106",
      "country_code": "NO",
      "latitude": 59.2333,
      "longitude": 10.4,
      "admin_name1": "Vestfold"
    },
    {
      "place_name": "Klæbu",
      "postal_code": "7540",
      "country_code": "NO",
      "latitude": 63.2976,
      "longitude": 10.4826,
      "admin_name1": "Trøndelag"
    },
    {
      "place_name": "Steinkjer",
      "postal_code": "7714",
      "country_code": "NO",
      "latitude": 64.0149,
      "longitude": 11.4954,
      "admin_name1": "Trøndelag"
    },
    {
      "place_name": "Namsos",
      "postal_code": "7801",
      "country_code": "NO",
      "latitude": 64.4662,
      "longitude": 11.4957,
      "admin_name1": "Trøndelag"
    },
    {
      "place_name": "Bangsund",
      "postal_code": "7823",
      "country_code": "NO",
      "latitude": 64.3923,
      "longitude": 11.3969,
      "admin_name1": "Trøndelag"
    },
    {
      "place_name": "Rennebu",
      "postal_code": "7399",
      "country_code": "NO",
      "latitude": 62.8771,
      "longitude": 9.8396,
      "admin_name1": "Trøndelag"
    },
    {
      "place_name": "Lundamo",
      "postal_code": "7232",
      "country_code": "NO",
      "latitude": 63.1522,
      "longitude": 10.2856,
      "admin_name1": "Trøndelag"
    },
    {
      "place_name": "Buvika",
      "postal_code": "7350",
      "country_code": "NO",
      "latitude": 63.3125,
      "longitude": 10.1841,
      "admin_name1": "Trøndelag"
    },
    {
      "place_name": "Åsen",
      "postal_code": "7630",
      "country_code": "NO",
      "latitude": 63.5833,
      "longitude": 11.0,
      "admin_name1": "Trøndelag"
    },
    {
      "place_name": "Mosvik",
      "postal_code": "7691",
      "country_code": "NO",
      "latitude": 63.8177,
      "longitude": 11.0058,
      "admin_name1": "Trøndelag"
    },
    {
      "place_name": "Brandsfjord",
      "postal_code": "7194",
      "country_code": "NO",
      "latitude": 64.2454,
      "longitude": 10.3247,
      "admin_name1": "Trøndelag"
    },
    {
      "place_name": "Gjerdinga",
      "postal_code": "7973",
      "country_code": "NO",
      "latitude": 64.9453,
      "longitude": 11.44,
      "admin_name1": "Trøndelag"
    },
    {
      "place_name": "Ridabu",
      "postal_code": "2322",
      "country_code": "NO",
      "latitude": 60.8013,
      "longitude": 11.1305,
      "admin_name1": "Innlandet"
    },
    {
      "place_name": "Brøttum",
      "postal_code": "2373",
      "country_code": "NO",
      "latitude": 61.0277,
      "longitude": 10.5544,
      "admin_name1": "Innlandet"
    },
    {
      "place_name": "Sagstua",
      "postal_code": "2121",
      "country_code": "NO",
      "latitude": 60.3885,
      "longitude": 11.5376,
      "admin_name1": "Innlandet"
    },
    {
      "place_name": "Gardvik",
      "postal_code": "2132",
      "country_code": "NO",
      "latitude": 60.4171,
      "longitude": 11.6501,
      "admin_name1": "Innlandet"
    },
    {
      "place_name": "Austvatn",
      "postal_code": "2134",
      "country_code": "NO",
      "latitude": 60.3789,
      "longitude": 11.6916,
      "admin_name1": "Innlandet"
    },
    {
      "place_name": "Plassen",
      "postal_code": "2427",
      "country_code": "NO",
      "latitude": 61.3287,
      "longitude": 12.2884,
      "admin_name1": "Innlandet"
    },
    {
      "place_name": "Otta",
      "postal_code": "2670",
      "country_code": "NO",
      "latitude": 61.7712,
      "longitude": 9.5353,
      "admin_name1": "Innlandet"
    },
    {
      "place_name": "Vestre Gausdal",
      "postal_code": "2654",
      "country_code": "NO",
      "latitude": 61.2,
      "longitude": 10.15,
      "admin_name1": "Innlandet"
    },
    {
      "place_name": "Aust-Torpa",
      "postal_code": "2881",
      "country_code": "NO",
      "latitude": 60.835,
      "longitude": 10.0736,
      "admin_name1": "Innlandet"
    },
    {
      "place_name": "Lomen",
      "postal_code": "2967",
      "country_code": "NO",
      "latitude": 61.133,
      "longitude": 8.9248,
      "admin_name1": "Innlandet"
    },
    {
      "place_name": "Arendal",
      "postal_code": "4808",
      "country_code": "NO",
      "latitude": 58.4615,
      "longitude": 8.7725,
      "admin_name1": "Agder"
    },
    {
      "place_name": "Nodeland",
      "postal_code": "4645",
      "country_code": "NO",
      "latitude": 58.1552,
      "longitude": 7.8358,
      "admin_name1": "Agder"
    },
    {
      "place_name": "Hidrasund",
      "postal_code": "4432",
      "country_code": "NO",
      "latitude": 58.2393,
      "longitude": 6.5611,
      "admin_name1": "Agder"
    },
    {
      "place_name": "Sira",
      "postal_code": "4438",
      "country_code": "NO",
      "latitude": 58.4207,
      "longitude": 6.6622,
      "admin_name1": "Agder"
    },
    {
      "place_name": "Gjerstad",
      "postal_code": "4972",
      "country_code": "NO",
      "latitude": 58.8808,
      "longitude": 9.0186,
      "admin_name1": "Agder"
    },
    {
      "place_name": "Iveland",
      "postal_code": "4725",
      "country_code": "NO",
      "latitude": 58.4538,
      "longitude": 7.9162,
      "admin_name1": "Agder"
    },
    {
      "place_name": "Grendi",
      "postal_code": "4742",
      "country_code": "NO",
      "latitude": 58.7068,
      "longitude": 7.8255,
      "admin_name1": "Agder"
    },
    {
      "place_name": "Bygland",
      "postal_code": "4745",
      "country_code": "NO",
      "latitude": 58.8285,
      "longitude": 7.7962,
      "admin_name1": "Agder"
    },
    {
      "place_name": "Ulset",
      "postal_code": "5121",
      "country_code": "NO",
      "latitude": 60.4757,
      "longitude": 5.3172,
      "admin_name1": "Vestland"
    },
    {
      "place_name": "Laksevåg",
      "postal_code": "5162",
      "country_code": "NO",
      "latitude": 60.3867,
      "longitude": 5.298,
      "admin_name1": "Vestland"
    },
    {
      "place_name": "Paradis",
      "postal_code": "5231",
      "country_code": "NO",
      "latitude": 60.3366,
      "longitude": 5.3461,
      "admin_name1": "Vestland"
    },
    {
      "place_name": "Rådal",
      "postal_code": "5236",
      "country_code": "NO",
      "latitude": 60.3106,
      "longitude": 5.3455,
      "admin_name1": "Vestland"
    },
    {
      "place_name": "Haukeland",
      "postal_code": "5268",
      "country_code": "NO",
      "latitude": 60.3633,
      "longitude": 5.4514,
      "admin_name1": "Vestland"
    },
    {
      "place_name": "Førde I Hordaland",
      "postal_code": "5556",
      "country_code": "NO",
      "latitude": 59.6065,
      "longitude": 5.3897,
      "admin_name1": "Vestland"
    },
    {
      "place_name": "Urangsvåg",
      "postal_code": "5427",
      "country_code": "NO",
      "latitude": 59.8074,
      "longitude": 5.1772,
      "admin_name1": "Vestland"
    },
    {
      "place_name": "Sagvåg",
      "postal_code": "5408",
      "country_code": "NO",
      "latitude": 59.7814,
      "longitude": 5.39,
      "admin_name1": "Vestland"
    },
    {
      "place_name": "Stord",
      "postal_code": "5414",
      "country_code": "NO",
      "latitude": 59.8238,
      "longitude": 5.4649,
      "admin_name1": "Vestland"
    },
    {
      "place_name": "Flatråker",
      "postal_code": "5687",
      "country_code": "NO",
      "latitude": 59.9425,
      "longitude": 5.5167,
      "admin_name1": "Vestland"
    },
    {
      "place_name": "Finse",
      "postal_code": "5719",
      "country_code": "NO",
      "latitude": 60.6,
      "longitude": 7.5,
      "admin_name1": "Vestland"
    },
    {
      "place_name": "Bjørøyhamn",
      "postal_code": "5177",
      "country_code": "NO",
      "latitude": 60.3225,
      "longitude": 5.1858,
      "admin_name1": "Vestland"
    },
    {
      "place_name": "Haus",
      "postal_code": "5299",
      "country_code": "NO",
      "latitude": 60.4531,
      "longitude": 5.496,
      "admin_name1": "Vestland"
    },
    {
      "place_name": "Frekhaug",
      "postal_code": "5919",
      "country_code": "NO",
      "latitude": 60.5132,
      "longitude": 5.2425,
      "admin_name1": "Vestland"
    },
    {
      "place_name": "Borgund",
      "postal_code": "6888",
      "country_code": "NO",
      "latitude": 61.0468,
      "longitude": 7.8113,
      "admin_name1": "Vestland"
    },
    {
      "place_name": "Askvoll",
      "postal_code": "6980",
      "country_code": "NO",
      "latitude": 61.3467,
      "longitude": 5.0622,
      "admin_name1": "Vestland"
    },
    {
      "place_name": "Kjølsdalen",
      "postal_code": "6776",
      "country_code": "NO",
      "latitude": 61.9246,
      "longitude": 5.6316,
      "admin_name1": "Vestland"
    },
    {
      "place_name": "Sandane",
      "postal_code": "6823",
      "country_code": "NO",
      "latitude": 61.7728,
      "longitude": 6.215,
      "admin_name1": "Vestland"
    },
    {
      "place_name": "Briksdalsbre",
      "postal_code": "6792",
      "country_code": "NO",
      "latitude": 61.6637,
      "longitude": 6.8208,
      "admin_name1": "Vestland"
    },
    {
      "place_name": "Gjettum",
      "postal_code": "1342",
      "country_code": "NO",
      "latitude": 59.9049,
      "longitude": 10.5174,
      "admin_name1": "Akershus"
    },
    {
      "place_name": "Lysaker",
      "postal_code": "1366",
      "country_code": "NO",
      "latitude": 59.9088,
      "longitude": 10.629,
      "admin_name1": "Akershus"
    },
    {
      "place_name": "Vettre",
      "postal_code": "1392",
      "country_code": "NO",
      "latitude": 59.824,
      "longitude": 10.4731,
      "admin_name1": "Akershus"
    },
    {
      "place_name": "Sætre",
      "postal_code": "3476",
      "country_code": "NO",
      "latitude": 59.6683,
      "longitude": 10.5455,
      "admin_name1": "Akershus"
    },
    {
      "place_name": "Drøbak",
      "postal_code": "1449",
      "country_code": "NO",
      "latitude": 59.6653,
      "longitude": 10.6588,
      "admin_name1": "Akershus"
    },
    {
      "place_name": "Son",
      "postal_code": "1556",
      "country_code": "NO",
      "latitude": 59.518,
      "longitude": 10.6894,
      "admin_name1": "Akershus"
    },
    {
      "place_name": "Lørenskog",
      "postal_code": "1471",
      "country_code": "NO",
      "latitude": 59.938,
      "longitude": 10.9548,
      "admin_name1": "Akershus"
    },
    {
      "place_name": "Nordby",
      "postal_code": "2009",
      "country_code": "NO",
      "latitude": 59.8649,
      "longitude": 11.0968,
      "admin_name1": "Akershus"
    },
    {
      "place_name": "Gjerdrum",
      "postal_code": "2024",
      "country_code": "NO",
      "latitude": 60.0774,
      "longitude": 11.0245,
      "admin_name1": "Akershus"
    },
    {
      "place_name": "Mjøndalen",
      "postal_code": "3050",
      "country_code": "NO",
      "latitude": 59.7439,
      "longitude": 10.0196,
      "admin_name1": "Buskerud"
    },
    {
      "place_name": "Svelvik",
      "postal_code": "3060",
      "country_code": "NO",
      "latitude": 59.6281,
      "longitude": 10.3889,
      "admin_name1": "Buskerud"
    },
    {
      "place_name": "Hallingby",
      "postal_code": "3525",
      "country_code": "NO",
      "latitude": 60.5565,
      "longitude": 10.0877,
      "admin_name1": "Buskerud"
    },
    {
      "place_name": "Vestfossen",
      "postal_code": "3321",
      "country_code": "NO",
      "latitude": 59.733,
      "longitude": 9.8635,
      "admin_name1": "Buskerud"
    },
    {
      "place_name": "Vestre Jakobselv",
      "postal_code": "9810",
      "country_code": "NO",
      "latitude": 70.13,
      "longitude": 29.3441,
      "admin_name1": "Finnmark"
    },
    {
      "place_name": "Skjånes",
      "postal_code": "9771",
      "country_code": "NO",
      "latitude": 70.8008,
      "longitude": 28.0376,
      "admin_name1": "Finnmark"
    },
    {
      "place_name": "Berlevåg",
      "postal_code": "9980",
      "country_code": "NO",
      "latitude": 70.7994,
      "longitude": 29.0677,
      "admin_name1": "Finnmark"
    },
    {
      "place_name": "Varangerbotn",
      "postal_code": "9840",
      "country_code": "NO",
      "latitude": 70.1385,
      "longitude": 28.7744,
      "admin_name1": "Finnmark"
    },
    {
      "place_name": "Sekken",
      "postal_code": "6418",
      "country_code": "NO",
      "latitude": 62.7375,
      "longitude": 7.1591,
      "admin_name1": "Møre og Romsdal"
    },
    {
      "place_name": "Hjelset",
      "postal_code": "6450",
      "country_code": "NO",
      "latitude": 62.7805,
      "longitude": 7.4928,
      "admin_name1": "Møre og Romsdal"
    },
    {
      "place_name": "Midsund",
      "postal_code": "6476",
      "country_code": "NO",
      "latitude": 62.6739,
      "longitude": 6.6741,
      "admin_name1": "Møre og Romsdal"
    },
    {
      "place_name": "Fosnavåg",
      "postal_code": "6092",
      "country_code": "NO",
      "latitude": 62.3419,
      "longitude": 5.634,
      "admin_name1": "Møre og Romsdal"
    },
    {
      "place_name": "Hjørungavåg",
      "postal_code": "6063",
      "country_code": "NO",
      "latitude": 62.3527,
      "longitude": 6.0718,
      "admin_name1": "Møre og Romsdal"
    },
    {
      "place_name": "Isfjorden",
      "postal_code": "6339",
      "country_code": "NO",
      "latitude": 62.5778,
      "longitude": 7.7923,
      "admin_name1": "Møre og Romsdal"
    },
    {
      "place_name": "Hornindal",
      "postal_code": "6761",
      "country_code": "NO",
      "latitude": 61.9692,
      "longitude": 6.5242,
      "admin_name1": "Møre og Romsdal"
    },
    {
      "place_name": "Hustad",
      "postal_code": "6433",
      "country_code": "NO",
      "latitude": 62.954,
      "longitude": 7.095,
      "admin_name1": "Møre og Romsdal"
    },