[
  [
    {
      "place_name": "Te Atatu Peninsula",
      "postal_code": "0661",
      "country_code": "NZ",
      "latitude": -36.841,
      "longitude": 174.6522,
      "admin_name1": "Auckland"
    },
    {
      "place_name": "Forrest Hill",
      "postal_code": "0743",
      "country_code": "NZ",
      "latitude": -36.7645,
      "longitude": 174.7477,
      "admin_name1": "Auckland"
    },
    {
      "place_name": "Mairangi Bay",
      "postal_code": "0758",
      "country_code": "NZ",
      "latitude": -36.7381,
      "longitude": 174.752,
      "admin_name1": "Auckland"
    },
    {
      "place_name": "Wharehine",
      "postal_code": "0977",
      "country_code": "NZ",
      "latitude": -36.3167,
      "longitude": 174.4167,
      "admin_name1": "Auckland"
    },
    {
      "place_name": "Sandringham",
      "postal_code": "1025",
      "country_code": "NZ",
      "latitude": -36.8882,
      "longitude": 174.7302,
      "admin_name1": "Auckland"
    },
    {
      "place_name": "Wesley",
      "postal_code": "1340",
      "country_code": "NZ",
      "latitude": -36.8982,
      "longitude": 174.7302,
      "admin_name1": "Auckland"
    },
    {
      "place_name": "Ellerslie",
      "postal_code": "1546",
      "country_code": "NZ",
      "latitude": -36.8982,
      "longitude": 174.8102,
      "admin_name1": "Auckland"
    },
    {
      "place_name": "Wiri",
      "postal_code": "2104",
      "country_code": "NZ",
      "latitude": -36.9982,
      "longitude": 174.8602,
      "admin_name1": "Auckland"
    },
    {
      "place_name": "Papamoa Beach",
      "postal_code": "3118",
      "country_code": "NZ",
      "latitude": -37.6973,
      "longitude": 176.2846,
      "admin_name1": "Bay of Plenty"
    },
    {
      "place_name": "Tauranga",
      "postal_code": "3141",
      "country_code": "NZ",
      "latitude": -37.6861,
      "longitude": 176.1667,
      "admin_name1": "Bay of Plenty"
    },
    {
      "place_name": "Katikati",
      "postal_code": "3178",
      "country_code": "NZ",
      "latitude": -37.55,
      "longitude": 175.9167,
      "admin_name1": "Bay of Plenty"
    },
    {
      "place_name": "Claremont",
      "postal_code": "7974",
      "country_code": "NZ",
      "latitude": -44.4,
      "longitude": 171.0833,
      "admin_name1": "Canterbury"
    },
    {
      "place_name": "Mawaro",
      "postal_code": "7984",
      "country_code": "NZ",
      "latitude": -44.3,
      "longitude": 170.8833,
      "admin_name1": "Canterbury"
    },
    {
      "place_name": "Waikarua",
      "postal_code": "7987",
      "country_code": "NZ",
      "latitude": -44.0333,
      "longitude": 170.8833,
      "admin_name1": "Canterbury"
    },
    {
      "place_name": "Te Moana",
      "postal_code": "7991",
      "country_code": "NZ",
      "latitude": -44.0667,
      "longitude": 171.1333,
      "admin_name1": "Canterbury"
    },
    {
      "place_name": "Papanui",
      "postal_code": "8542",
      "country_code": "NZ",
      "latitude": -43.5,
      "longitude": 172.6167,
      "admin_name1": "Canterbury"
    },
    {
      "place_name": "Rakauroa",
      "postal_code": "4075",
      "country_code": "NZ",
      "latitude": -38.4167,
      "longitude": 177.55,
      "admin_name1": "Gisborne"
    },
    {
      "place_name": "Whakaangiangi",
      "postal_code": "4086",
      "country_code": "NZ",
      "latitude": -37.7167,
      "longitude": 178.3,
      "admin_name1": "Gisborne"
    },
    {
      "place_name": "Haumoana",
      "postal_code": "4102",
      "country_code": "NZ",
      "latitude": -39.6037,
      "longitude": 176.9457,
      "admin_name1": "Hawke's Bay"
    },
    {
      "place_name": "Waipawa",
      "postal_code": "4240",
      "country_code": "NZ",
      "latitude": -39.9382,
      "longitude": 176.6002,
      "admin_name1": "Hawke's Bay"
    },
    {
      "place_name": "Argyll East",
      "postal_code": "4273",
      "country_code": "NZ",
      "latitude": -39.8667,
      "longitude": 176.5333,
      "admin_name1": "Hawke's Bay"
    },
    {
      "place_name": "Waimiha",
      "postal_code": "3998",
      "country_code": "NZ",
      "latitude": -38.6167,
      "longitude": 175.3167,
      "admin_name1": "Manawatu-Wanganui"
    },
    {
      "place_name": "Rangataua",
      "postal_code": "4691",
      "country_code": "NZ",
      "latitude": -39.4333,
      "longitude": 175.4667,
      "admin_name1": "Manawatu-Wanganui"
    },
    {
      "place_name": "Pukeroa",
      "postal_code": "4782",
      "country_code": "NZ",
      "latitude": -39.7841,
      "longitude": 175.4972,
      "admin_name1": "Manawatu-Wanganui"
    },
    {
      "place_name": "Waiouru Military Camp",
      "postal_code": "4795",
      "country_code": "NZ",
      "latitude": -39.4706,
      "longitude": 175.6817,
      "admin_name1": "Manawatu-Wanganui"
    },
    {
      "place_name": "Ashhurst",
      "postal_code": "4810",
      "country_code": "NZ",
      "latitude": -40.2911,
      "longitude": 175.7547,
      "admin_name1": "Manawatu-Wanganui"
    },
    {
      "place_name": "Dannevirke",
      "postal_code": "4942",
      "country_code": "NZ",
      "latitude": -40.2055,
      "longitude": 176.1008,
      "admin_name1": "Manawatu-Wanganui"
    },
    {
      "place_name": "Woodville",
      "postal_code": "4945",
      "country_code": "NZ",
      "latitude": -40.3372,
      "longitude": 175.8668,
      "admin_name1": "Manawatu-Wanganui"
    },
    {
      "place_name": "Ward",
      "postal_code": "7248",
      "country_code": "NZ",
      "latitude": -41.8333,
      "longitude": 174.1333,
      "admin_name1": "Marlborough"
    },
    {
      "place_name": "Nelson East",
      "postal_code": "7040",
      "country_code": "NZ",
      "latitude": -41.2766,
      "longitude": 173.2998,
      "admin_name1": "Nelson"
    },
    {
      "place_name": "Riverside",
      "postal_code": "0149",
      "country_code": "NZ",
      "latitude": -35.7234,
      "longitude": 174.3258,
      "admin_name1": "Northland"
    },
    {
      "place_name": "Rawene",
      "postal_code": "0443",
      "country_code": "NZ",
      "latitude": -35.4022,
      "longitude": 173.5032,
      "admin_name1": "Northland"
    },
    {
      "place_name": "Kaeo",
      "postal_code": "0478",
      "country_code": "NZ",
      "latitude": -35.1,
      "longitude": 173.7833,
      "admin_name1": "Northland"
    },
    {
      "place_name": "Kaiaka",
      "postal_code": "0482",
      "country_code": "NZ",
      "latitude": -35.1,
      "longitude": 173.4167,
      "admin_name1": "Northland"
    },
    {
      "place_name": "Ranganui",
      "postal_code": "0587",
      "country_code": "NZ",
      "latitude": -36.15,
      "longitude": 174.4,
      "admin_name1": "Northland"
    },
    {
      "place_name": "Glendhu",
      "postal_code": "9381",
      "country_code": "NZ",
      "latitude": -44.6667,
      "longitude": 169.0167,
      "admin_name1": "Otago"
    },
    {
      "place_name": "Naseby",
      "postal_code": "9396",
      "country_code": "NZ",
      "latitude": -45.0184,
      "longitude": 170.1301,
      "admin_name1": "Otago"
    },
    {
      "place_name": "Tapanui",
      "postal_code": "9542",
      "country_code": "NZ",
      "latitude": -45.9384,
      "longitude": 169.2601,
      "admin_name1": "Otago"
    },
    {
      "place_name": "Puketiro",
      "postal_code": "9586",
      "country_code": "NZ",
      "latitude": -46.4833,
      "longitude": 169.4833,
      "admin_name1": "Otago"
    },
    {
      "place_name": "South Hillend",
      "postal_code": "9783",
      "country_code": "NZ",
      "latitude": -46.05,
      "longitude": 168.25,
      "admin_name1": "Southland"
    },
    {
      "place_name": "Waikiwi",
      "postal_code": "9843",
      "country_code": "NZ",
      "latitude": -46.3833,
      "longitude": 168.3333,
      "admin_name1": "Southland"
    },
    {
      "place_name": "Round Hill",
      "postal_code": "9881",
      "country_code": "NZ",
      "latitude": -46.3167,
      "longitude": 167.8167,
      "admin_name1": "Southland"
    },
    {
      "place_name": "Oakura",
      "postal_code": "4345",
      "country_code": "NZ",
      "latitude": -39.1167,
      "longitude": 173.95,
      "admin_name1": "Taranaki"
    },
    {
      "place_name": "Moeroa",
      "postal_code": "4399",
      "country_code": "NZ",
      "latitude": -39.4333,
      "longitude": 174.6333,
      "admin_name1": "Taranaki"
    },
    {
      "place_name": "Hamilton West",
      "postal_code": "3240",
      "country_code": "NZ",
      "latitude": -37.7882,
      "longitude": 175.2702,
      "admin_name1": "Waikato"
    },
    {
      "place_name": "Eureka",
      "postal_code": "3284",
      "country_code": "NZ",
      "latitude": -37.7333,
      "longitude": 175.4167,
      "admin_name1": "Waikato"
    },
    {
      "place_name": "Te Waotu",
      "postal_code": "3481",
      "country_code": "NZ",
      "latitude": -38.15,
      "longitude": 175.7,
      "admin_name1": "Waikato"
    },
    {
      "place_name": "Whitianga",
      "postal_code": "3542",
      "country_code": "NZ",
      "latitude": -36.8333,
      "longitude": 175.7,
      "admin_name1": "Waikato"
    },
    {
      "place_name": "Colville",
      "postal_code": "3547",
      "country_code": "NZ",
      "latitude": -36.6333,
      "longitude": 175.4667,
      "admin_name1": "Waikato"
    },
    {
      "place_name": "Turua",
      "postal_code": "3574",
      "country_code": "NZ",
      "latitude": -37.2333,
      "longitude": 175.5667,
      "admin_name1": "Waikato"
    },
    {
      "place_name": "Paeroa",
      "postal_code": "3600",
      "country_code": "NZ",
      "latitude": -37.3667,
      "longitude": 175.6667,
      "admin_name1": "Waikato"
    },
    {
      "place_name": "Puketutu",
      "postal_code": "3982",
      "country_code": "NZ",
      "latitude": -38.4333,
      "longitude": 175.2333,
      "admin_name1": "Waikato"
    },
    {
      "place_name": "Wainuiomata",
      "postal_code": "5014",
      "country_code": "NZ",
      "latitude": -41.2667,
      "longitude": 174.95,
      "admin_name1": "Wellington"
    },
    {
      "place_name": "Homedale",
      "postal_code": "5373",
      "country_code": "NZ",
      "latitude": -41.2667,
      "longitude": 174.95,
      "admin_name1": "Wellington"
    },
    {
      "place_name": "Upper Tauheru",
      "postal_code": "5886",
      "country_code": "NZ",
      "latitude": -40.9069,
      "longitude": 175.8111,
      "admin_name1": "Wellington"
    },
    {
      "place_name": "Tauweru",
      "postal_code": "5890",
      "country_code": "NZ",
      "latitude": -40.9667,
      "longitude": 175.8,
      "admin_name1": "Wellington"
    },
    {
      "place_name": "Ross",
      "postal_code": "7812",
      "country_code": "NZ",
      "latitude": -42.8883,
      "longitude": 170.8101,
      "admin_name1": "West Coast"
    },
    {
      "place_name": "Baton",
      "postal_code": "7073",
      "country_code": "NZ",
      "latitude": -41.3167,
      "longitude": 172.7167,
      "admin_name1": "Tasman"
    },
    {
      "place_name": "Hiwipango",
      "postal_code": "7095",
      "country_code": "NZ",
      "latitude": -41.5167,
      "longitude": 172.9333,
      "admin_name1": "Tasman"
    },
    {
      "place_name": "Mahana",
      "postal_code": "7173",
      "country_code": "NZ",
      "latitude": -41.2667,
      "longitude": 173.05,
      "admin_name1": "Tasman"
    },
    {
      "place_name": "Te Atatu South",
      "postal_code": "0610",
      "country_code": "NZ",
      "latitude": -36.8647,
      "longitude": 174.6477,
      "admin_name1": "Auckland"
    },
    {
      "place_name": "Hobsonville",
      "postal_code": "0618",
      "country_code": "NZ",
      "latitude": -36.8,
      "longitude": 174.6667,
      "admin_name1": "Auckland"
    },
    {
      "place_name": "Devonport",
      "postal_code": "0744",
      "country_code": "NZ",
      "latitude": -36.7775,
      "longitude": 174.7399,
      "admin_name1": "Auckland"
    },
    {
      "place_name": "Glenfield",
      "postal_code": "0745",
      "country_code": "NZ",
      "latitude": -36.7826,
      "longitude": 174.7211,
      "admin_name1": "Auckland"
    },
    {
      "place_name": "Birkenhead",
      "postal_code": "0746",
      "country_code": "NZ",
      "latitude": -36.8082,
      "longitude": 174.7202,
      "admin_name1": "Auckland"
    },
    {
      "place_name": "Kumeu",
      "postal_code": "0892",
      "country_code": "NZ",
      "latitude": -36.7667,
      "longitude": 174.5667,
      "admin_name1": "Auckland"
    },
    {
      "place_name": "Point Resolution",
      "postal_code": "1151",
      "country_code": "NZ",
      "latitude": -36.8514,
      "longitude": 174.7894,
      "admin_name1": "Auckland"
    },
    {
      "place_name": "Three Kings",
      "postal_code": "1440",
      "country_code": "NZ",
      "latitude": -36.8982,
      "longitude": 174.7502,
      "admin_name1": "Auckland"
    },
    {
      "place_name": "Onetangi",
      "postal_code": "1971",
      "country_code": "NZ",
      "latitude": -36.7833,
      "longitude": 175.0833,
      "admin_name1": "Auckland"
    },
    {
      "place_name": "Mangere",
      "postal_code": "2022",
      "country_code": "NZ",
      "latitude": -36.9681,
      "longitude": 174.7987,
      "admin_name1": "Auckland"
    },
    {
      "place_name": "Ohinemutu",
      "postal_code": "3010",
      "country_code": "NZ",
      "latitude": -38.1276,
      "longitude": 176.2446,
      "admin_name1": "Bay of Plenty"
    },
    {
      "place_name": "Mangakakahi",
      "postal_code": "3047",
      "country_code": "NZ",
      "latitude": -38.1335,
      "longitude": 176.2344,
      "admin_name1": "Bay of Plenty"
    },
    {
      "place_name": "Tikitere",
      "postal_code": "3074",
      "country_code": "NZ",
      "latitude": -38.0667,
      "longitude": 176.3667,
      "admin_name1": "Bay of Plenty"
    },
    {
      "place_name": "Te Puke",
      "postal_code": "3119",
      "country_code": "NZ",
      "latitude": -37.7782,
      "longitude": 176.3302,
      "admin_name1": "Bay of Plenty"
    },
    {
      "place_name": "Omanu",
      "postal_code": "3149",
      "country_code": "NZ",
      "latitude": -37.6568,
      "longitude": 176.2084,
      "admin_name1": "Bay of Plenty"
    },
    {
      "place_name": "Ohinepanea",
      "postal_code": "3186",
      "country_code": "NZ",
      "latitude": -37.8219,
      "longitude": 176.5643,
      "admin_name1": "Bay of Plenty"
    },
    {
      "place_name": "Toatoa",
      "postal_code": "3197",
      "country_code": "NZ",
      "latitude": -38.1333,
      "longitude": 177.5,
      "admin_name1": "Bay of Plenty"
    },
    {
      "place_name": "Omaio",
      "postal_code": "3199",
      "country_code": "NZ",
      "latitude": -37.8167,
      "longitude": 177.6667,
      "admin_name1": "Bay of Plenty"
    },
    {
      "place_name": "Waipara",
      "postal_code": "7482",
      "country_code": "NZ",
      "latitude": -43.0667,
      "longitude": 172.75,
      "admin_name1": "Canterbury"
    },
    {
      "place_name": "Lake Coleridge",
      "postal_code": "7572",
      "country_code": "NZ",
      "latitude": -43.3667,
      "longitude": 171.5333,
      "admin_name1": "Canterbury"
    },
    {
      "place_name": "Springston South",
      "postal_code": "7674",
      "country_code": "NZ",
      "latitude": -43.6833,
      "longitude": 172.4333,
      "admin_name1": "Canterbury"
    },
    {
      "place_name": "Rakaia",
      "postal_code": "7710",
      "country_code": "NZ",
      "latitude": -43.75,
      "longitude": 172.0167,
      "admin_name1": "Canterbury"
    },
    {
      "place_name": "Mayfield",
      "postal_code": "7748",
      "country_code": "NZ",
      "latitude": -43.8167,
      "longitude": 171.4167,
      "admin_name1": "Canterbury"
    },
    {
      "place_name": "Pareora",
      "postal_code": "7912",
      "country_code": "NZ",
      "latitude": -44.5,
      "longitude": 171.2,
      "admin_name1": "Canterbury"
    },
    {
      "place_name": "Burnside",
      "postal_code": "8545",
      "country_code": "NZ",
      "latitude": -43.4983,
      "longitude": 172.5601,
      "admin_name1": "Canterbury"
    },
    {
      "place_name": "Aranui",
      "postal_code": "8643",
      "country_code": "NZ",
      "latitude": -43.5167,
      "longitude": 172.7,
      "admin_name1": "Canterbury"
    },
    {
      "place_name": "Omarama",
      "postal_code": "9448",
      "country_code": "NZ",
      "latitude": -44.4885,
      "longitude": 169.9663,
      "admin_name1": "Canterbury"
    },
    {
      "place_name": "Patutahi",
      "postal_code": "4045",
      "country_code": "NZ",
      "latitude": -38.6167,
      "longitude": 177.9,
      "admin_name1": "Gisborne"
    },
    {
      "place_name": "Waitakaro",
      "postal_code": "4081",
      "country_code": "NZ",
      "latitude": -37.9333,
      "longitude": 178.2667,
      "admin_name1": "Gisborne"
    },
    {
      "place_name": "Ahititi",
      "postal_code": "4091",
      "country_code": "NZ",
      "latitude": -38.4333,
      "longitude": 178.05,
      "admin_name1": "Gisborne"
    },
    {
      "place_name": "Porangahau",
      "postal_code": "4245",
      "country_code": "NZ",
      "latitude": -40.2789,
      "longitude": 176.6283,
      "admin_name1": "Hawke's Bay"
    },
    {
      "place_name": "Ruataniwha",
      "postal_code": "4283",
      "country_code": "NZ",
      "latitude": -39.9333,
      "longitude": 176.5,
      "admin_name1": "Hawke's Bay"
    },
    {
      "place_name": "Ashley Clinton",
      "postal_code": "4286",
      "country_code": "NZ",
      "latitude": -39.95,
      "longitude": 176.25,
      "admin_name1": "Hawke's Bay"
    },
    {
      "place_name": "Maharakeke",
      "postal_code": "4288",
      "country_code": "NZ",
      "latitude": -40.0167,
      "longitude": 176.45,
      "admin_name1": "Hawke's Bay"
    },
    {
      "place_name": "Hikumutu",
      "postal_code": "3992",
      "country_code": "NZ",
      "latitude": -38.95,
      "longitude": 175.2833,
      "admin_name1": "Manawatu-Wanganui"
    },
    {
      "place_name": "Ngapuke",
      "postal_code": "3994",
      "country_code": "NZ",
      "latitude": -38.85,
      "longitude": 175.4667,
      "admin_name1": "Manawatu-Wanganui"
    },
    {
      "place_name": "Aramoho",
      "postal_code": "4500",
      "country_code": "NZ",
      "latitude": -39.9019,
      "longitude": 175.0647,
      "admin_name1": "Manawatu-Wanganui"
    },
    {
      "place_name": "Wanganui",
      "postal_code": "4541",
      "country_code": "NZ",
      "latitude": -39.9333,
      "longitude": 175.05,
      "admin_name1": "Manawatu-Wanganui"
    },
    {
      "place_name": "Ratana",
      "postal_code": "4548",
      "country_code": "NZ",
      "latitude": -40.0412,
      "longitude": 175.1771,
      "admin_name1": "Manawatu-Wanganui"
    },
    {
      "place_name": "Nukumaru",
      "postal_code": "4587",
      "country_code": "NZ",
      "latitude": -39.8333,
      "longitude": 174.8,
      "admin_name1": "Manawatu-Wanganui"
    },
    {
      "place_name": "Ohakea",
      "postal_code": "4816",
      "country_code": "NZ",
      "latitude": -40.2,
      "longitude": 175.4,
      "admin_name1": "Manawatu-Wanganui"
    },
    {
      "place_name": "Foxton Beach",
      "postal_code": "4849",
      "country_code": "NZ",
      "latitude": -40.4667,
      "longitude": 175.2167,
      "admin_name1": "Manawatu-Wanganui"
    },
    {
      "place_name": "Waipatiki",
      "postal_code": "4973",
      "country_code": "NZ",
      "latitude": -40.373,
      "longitude": 176.2833,
      "admin_name1": "Manawatu-Wanganui"
    },
    {
      "place_name": "Konini",
      "postal_code": "4987",
      "country_code": "NZ",
      "latitude": -40.5046,
      "longitude": 175.7916,
      "admin_name1": "Manawatu-Wanganui"
    },
    {
      "place_name": "Tiraumea",
      "postal_code": "4996",
      "country_code": "NZ",
      "latitude": -40.6333,
      "longitude": 176.0456,
      "admin_name1": "Manawatu-Wanganui"
    },
    {
      "place_name": "Renwick",
      "postal_code": "7243",
      "country_code": "NZ",
      "latitude": -41.5,
      "longitude": 173.8333,
      "admin_name1": "Marlborough"
    },
    {
      "place_name": "Morningside",
      "postal_code": "0143",
      "country_code": "NZ",
      "latitude": -35.7348,
      "longitude": 174.3199,
      "admin_name1": "Northland"
    },
    {
      "place_name": "Pokere",
      "postal_code": "0281",
      "country_code": "NZ",
      "latitude": -35.4833,
      "longitude": 173.9833,
      "admin_name1": "Northland"
    },
    {
      "place_name": "Paraoanui",
      "postal_code": "0494",
      "country_code": "NZ",
      "latitude": -35.05,
      "longitude": 173.6167,
      "admin_name1": "Northland"
    },
    {
      "place_name": "Kaiwaka",
      "postal_code": "0542",
      "country_code": "NZ",
      "latitude": -36.1667,
      "longitude": 174.45,
      "admin_name1": "Northland"
    },
    {
      "place_name": "Paparoa",
      "postal_code": "0543",
      "country_code": "NZ",
      "latitude": -36.1,
      "longitude": 174.2333,
      "admin_name1": "Northland"
    },
    {
      "place_name": "Maungaturoto",
      "postal_code": "0588",
      "country_code": "NZ",
      "latitude": -36.1,
      "longitude": 174.3667,
      "admin_name1": "Northland"
    },
    {
      "place_name": "Saint Kilda",
      "postal_code": "9044",
      "country_code": "NZ",
      "latitude": -45.9,
      "longitude": 170.5194,
      "admin_name1": "Otago"
    },
    {
      "place_name": "Wangaloa",
      "postal_code": "9282",
      "country_code": "NZ",
      "latitude": -46.2833,
      "longitude": 169.9167,
      "admin_name1": "Otago"
    },
    {
      "place_name": "Clyde",
      "postal_code": "9330",
      "country_code": "NZ",
      "latitude": -45.1865,
      "longitude": 169.3154,
      "admin_name1": "Otago"
    },
    {
      "place_name": "Upper Shotover",
      "postal_code": "9371",
      "country_code": "NZ",
      "latitude": -44.8333,
      "longitude": 168.7167,
      "admin_name1": "Otago"
    },
    {
      "place_name": "Waikouaiti",
      "postal_code": "9472",
      "country_code": "NZ",
      "latitude": -45.5884,
      "longitude": 170.6501,
      "admin_name1": "Otago"
    },
    {
      "place_name": "Waikaka",
      "postal_code": "9743",
      "country_code": "NZ",
      "latitude": -45.9167,
      "longitude": 169.0167,
      "admin_name1": "Southland"
    },
    {
      "place_name": "Balfour",
      "postal_code": "9779",
      "country_code": "NZ",
      "latitude": -45.8333,
      "longitude": 168.5833,
      "admin_name1": "Southland"
    },
    {
      "place_name": "Eltham",
      "postal_code": "4353",
      "country_code": "NZ",
      "latitude": -39.4292,
      "longitude": 174.3,
      "admin_name1": "Taranaki"
    },
    {
      "place_name": "Tawhiwhi",
      "postal_code": "4588",
      "country_code": "NZ",
      "latitude": -39.6333,
      "longitude": 174.8,
      "admin_name1": "Taranaki"
    },
    {
      "place_name": "Otaua",
      "postal_code": "2682",
      "country_code": "NZ",
      "latitude": -37.3064,
      "longitude": 174.7408,
      "admin_name1": "Waikato"
    },
    {
      "place_name": "Raglan",
      "postal_code": "3225",
      "country_code": "NZ",
      "latitude": -37.8,
      "longitude": 174.8833,
      "admin_name1": "Waikato"
    },
    {
      "place_name": "Tahuna",
      "postal_code": "3373",
      "country_code": "NZ",
      "latitude": -37.5,
      "longitude": 175.4833,
      "admin_name1": "Waikato"
    },
    {
      "place_name": "Tirau",
      "postal_code": "3442",
      "country_code": "NZ",
      "latitude": -37.9833,
      "longitude": 175.75,
      "admin_name1": "Waikato"
    },
    {
      "place_name": "Waharoa",
      "postal_code": "3474",
      "country_code": "NZ",
      "latitude": -37.7667,
      "longitude": 175.7667,
      "admin_name1": "Waikato"
    },
    {
      "place_name": "Thames",
      "postal_code": "3540",
      "country_code": "NZ",
      "latitude": -37.1383,
      "longitude": 175.5401,
      "admin_name1": "Waikato"
    },
    {
      "place_name": "Waihi",
      "postal_code": "3641",
      "country_code": "NZ",
      "latitude": -37.3833,
      "longitude": 175.8333,
      "admin_name1": "Waikato"
    },
    {
      "place_name": "Whangamata",
      "postal_code": "3643",
      "country_code": "NZ",
      "latitude": -37.2,
      "longitude": 175.8667,
      "admin_name1": "Waikato"
    },
    {
      "place_name": "Te Mawhai",
      "postal_code": "3875",
      "country_code": "NZ",
      "latitude": -38.05,
      "longitude": 175.3,
      "admin_name1": "Waikato"
    },
    {
      "place_name": "Hauturu",
      "postal_code": "3878",
      "country_code": "NZ",
      "latitude": -38.1,
      "longitude": 174.9333,
      "admin_name1": "Waikato"
    },
    {
      "place_name": "Owhiro",
      "postal_code": "3886",
      "country_code": "NZ",
      "latitude": -38.1667,
      "longitude": 174.9,
      "admin_name1": "Waikato"
    },
    {
      "place_name": "Kahutara",
      "postal_code": "5771",
      "country_code": "NZ",
      "latitude": -41.2333,
      "longitude": 175.3333,
      "admin_name1": "Wellington"
    },
    {
      "place_name": "Weheka",
      "postal_code": "7859",
      "country_code": "NZ",
      "latitude": -43.4648,
      "longitude": 170.0168,
      "admin_name1": "West Coast"
    },
    {
      "place_name": "Collingwood",
      "postal_code": "7054",
      "country_code": "NZ",
      "latitude": -40.6772,
      "longitude": 172.6807,
      "admin_name1": "Tasman"
    },
    {
      "place_name": "Blockhouse Bay",
      "postal_code": "0600",
      "country_code": "NZ",
      "latitude": -36.9182,
      "longitude": 174.7002,
      "admin_name1": "Auckland"
    },
    {
      "place_name": "Waitakere",
      "postal_code": "0660",
      "country_code": "NZ",
      "latitude": -36.8513,
      "longitude": 174.5448,
      "admin_name1": "Auckland"
    },
    {
      "place_name": "Okupu",
      "postal_code": "0961",
      "country_code": "NZ",
      "latitude": -36.2667,
      "longitude": 175.4333,
      "admin_name1": "Auckland"
    },
    {
      "place_name": "Algies Bay",
      "postal_code": "0982",
      "country_code": "NZ",
      "latitude": -36.4353,
      "longitude": 174.7403,
      "admin_name1": "Auckland"
    },
    {
      "place_name": "Hillsborough",
      "postal_code": "1042",
      "country_code": "NZ",
      "latitude": -36.9182,
      "longitude": 174.7502,
      "admin_name1": "Auckland"
    },
    {
      "place_name": "East Tamaki",
      "postal_code": "2013",
      "country_code": "NZ",
      "latitude": -36.95,
      "longitude": 174.9,
      "admin_name1": "Auckland"
    },
    {
      "place_name": "Manurewa",
      "postal_code": "2102",
      "country_code": "NZ",
      "latitude": -37.0182,
      "longitude": 174.8802,
      "admin_name1": "Auckland"
    },
    {
      "place_name": "Pahurehure",
      "postal_code": "2246",
      "country_code": "NZ",
      "latitude": -37.0582,
      "longitude": 174.9202,
      "admin_name1": "Auckland"
    },
    {
      "place_name": "Ramarama",
      "postal_code": "2578",
      "country_code": "NZ",
      "latitude": -37.15,
      "longitude": 174.95,
      "admin_name1": "Auckland"
    },
    {
      "place_name": "Opaheke",
      "postal_code": "2584",
      "country_code": "NZ",
      "latitude": -37.0833,
      "longitude": 174.9667,
      "admin_name1": "Auckland"
    },
    {
      "place_name": "Ohope Beach",
      "postal_code": "3121",
      "country_code": "NZ",
      "latitude": -37.9752,
      "longitude": 177.0759,
      "admin_name1": "Bay of Plenty"
    },
    {
      "place_name": "Kaimai",
      "postal_code": "3473",
      "country_code": "NZ",
      "latitude": -37.8333,
      "longitude": 175.9667,
      "admin_name1": "Bay of Plenty"
    },
    {
      "place_name": "Waikari",
      "postal_code": "7491",
      "country_code": "NZ",
      "latitude": -42.9667,
      "longitude": 172.6833,
      "admin_name1": "Canterbury"
    },
    {
      "place_name": "Kirwee",
      "postal_code": "7543",
      "country_code": "NZ",
      "latitude": -43.5,
      "longitude": 172.2167,
      "admin_name1": "Canterbury"
    },
    {
      "place_name": "Wetheral",
      "postal_code": "7692",
      "country_code": "NZ",
      "latitude": -43.3667,
      "longitude": 172.5833,
      "admin_name1": "Canterbury"
    },
    {
      "place_name": "Seafield",
      "postal_code": "7777",
      "country_code": "NZ",
      "latitude": -43.9167,
      "longitude": 171.9,
      "admin_name1": "Canterbury"
    },
    {
      "place_name": "Ouruhia",
      "postal_code": "8083",
      "country_code": "NZ",
      "latitude": -43.45,
      "longitude": 172.65,
      "admin_name1": "Canterbury"
    },
    {
      "place_name": "Spreydon",
      "postal_code": "8243",
      "country_code": "NZ",
      "latitude": -43.5567,
      "longitude": 172.6169,
      "admin_name1": "Canterbury"
    },
    {
      "place_name": "Pakihiroa",
      "postal_code": "4083",
      "country_code": "NZ",
      "latitude": -37.85,
      "longitude": 178.0667,
      "admin_name1": "Gisborne"
    },
    {
      "place_name": "Havelock North",
      "postal_code": "4157",
      "country_code": "NZ",
      "latitude": -39.6667,
      "longitude": 176.8833,
      "admin_name1": "Hawke's Bay"
    },
    {
      "place_name": "Raetihi",
      "postal_code": "4646",
      "country_code": "NZ",
      "latitude": -39.4288,
      "longitude": 175.2773,
      "admin_name1": "Manawatu-Wanganui"
    },
    {
      "place_name": "Taihape",
      "postal_code": "4796",
      "country_code": "NZ",
      "latitude": -39.6782,
      "longitude": 175.798,
      "admin_name1": "Manawatu-Wanganui"
    },
    {
      "place_name": "Longburn",
      "postal_code": "4820",
      "country_code": "NZ",
      "latitude": -40.384,
      "longitude": 175.5429,
      "admin_name1": "Manawatu-Wanganui"
    },
    {
      "place_name": "Norsewood",
      "postal_code": "4943",
      "country_code": "NZ",
      "latitude": -40.0705,
      "longitude": 176.2183,
      "admin_name1": "Manawatu-Wanganui"
    },
    {
      "place_name": "Pongaroa",
      "postal_code": "4944",
      "country_code": "NZ",
      "latitude": -40.5421,
      "longitude": 176.1937,
      "admin_name1": "Manawatu-Wanganui"
    },
    {
      "place_name": "Papatawa",
      "postal_code": "4998",
      "country_code": "NZ",
      "latitude": -40.3174,
      "longitude": 175.9286,
      "admin_name1": "Manawatu-Wanganui"
    },
    {
      "place_name": "Levin",
      "postal_code": "5510",
      "country_code": "NZ",
      "latitude": -40.6333,
      "longitude": 175.275,
      "admin_name1": "Manawatu-Wanganui"
    },
    {
      "place_name": "Marua",
      "postal_code": "0181",
      "country_code": "NZ",
      "latitude": -35.5667,
      "longitude": 174.3667,
      "admin_name1": "Northland"
    },
    {
      "place_name": "Russell",
      "postal_code": "0242",
      "country_code": "NZ",
      "latitude": -35.2615,
      "longitude": 174.1226,
      "admin_name1": "Northland"
    },
    {
      "place_name": "Tutamoe",
      "postal_code": "0376",
      "country_code": "NZ",
      "latitude": -35.65,
      "longitude": 173.65,
      "admin_name1": "Northland"
    },
    {
      "place_name": "Kaikohe",
      "postal_code": "0405",
      "country_code": "NZ",
      "latitude": -35.3982,
      "longitude": 173.8002,
      "admin_name1": "Northland"
    },
    {
      "place_name": "Waipu",
      "postal_code": "0582",
      "country_code": "NZ",
      "latitude": -35.9833,
      "longitude": 174.45,
      "admin_name1": "Northland"
    },
    {
      "place_name": "Port Chalmers",
      "postal_code": "9050",
      "country_code": "NZ",
      "latitude": -45.8159,
      "longitude": 170.621,
      "admin_name1": "Otago"
    },
    {
      "place_name": "Dunedin",
      "postal_code": "9054",
      "country_code": "NZ",
      "latitude": -45.8742,
      "longitude": 170.5036,
      "admin_name1": "Otago"
    },
    {
      "place_name": "Katiki",
      "postal_code": "9482",
      "country_code": "NZ",
      "latitude": -45.4,
      "longitude": 170.8333,
      "admin_name1": "Otago"
    },
    {
      "place_name": "Waipounamu",
      "postal_code": "9777",
      "country_code": "NZ",
      "latitude": -45.85,
      "longitude": 168.7667,
      "admin_name1": "Southland"
    },
    {
      "place_name": "Riverton",
      "postal_code": "9847",
      "country_code": "NZ",
      "latitude": -46.35,
      "longitude": 168.0167,
      "admin_name1": "Southland"
    },
    {
      "place_name": "Mabel Bush",
      "postal_code": "9872",
      "country_code": "NZ",
      "latitude": -46.2833,
      "longitude": 168.5333,
      "admin_name1": "Southland"
    },
    {
      "place_name": "Matukuroa",
      "postal_code": "4597",
      "country_code": "NZ",
      "latitude": -39.6833,
      "longitude": 174.5333,
      "admin_name1": "Taranaki"
    },
    {
      "place_name": "Hawera",
      "postal_code": "4640",
      "country_code": "NZ",
      "latitude": -39.5917,
      "longitude": 174.2833,
      "admin_name1": "Taranaki"
    },
    {
      "place_name": "Pokeno",
      "postal_code": "2472",
      "country_code": "NZ",
      "latitude": -37.245,
      "longitude": 175.0205,
      "admin_name1": "Waikato"
    },
    {
      "place_name": "Melville",
      "postal_code": "3206",
      "country_code": "NZ",
      "latitude": -37.811,
      "longitude": 175.2821,
      "admin_name1": "Waikato"
    },
    {
      "place_name": "Temple View",
      "postal_code": "3218",
      "country_code": "NZ",
      "latitude": -37.8208,
      "longitude": 175.2255,
      "admin_name1": "Waikato"
    },
    {
      "place_name": "Rukuhia",
      "postal_code": "3282",
      "country_code": "NZ",
      "latitude": -37.8667,
      "longitude": 175.2833,
      "admin_name1": "Waikato"
    },
    {
      "place_name": "Mangakino",
      "postal_code": "3421",
      "country_code": "NZ",
      "latitude": -38.3741,
      "longitude": 175.771,
      "admin_name1": "Waikato"
    },
    {
      "place_name": "Tapu",
      "postal_code": "3575",
      "country_code": "NZ",
      "latitude": -36.9833,
      "longitude": 175.5,
      "admin_name1": "Waikato"
    },
    {
      "place_name": "Waitakaruru",
      "postal_code": "3576",
      "country_code": "NZ",
      "latitude": -37.25,
      "longitude": 175.3833,
      "admin_name1": "Waikato"
    },
    {
      "place_name": "Te Kuiti",
      "postal_code": "3910",
      "country_code": "NZ",
      "latitude": -38.3363,
      "longitude": 175.1701,
      "admin_name1": "Waikato"
    },
    {
      "place_name": "Hangatiki",
      "postal_code": "3943",
      "country_code": "NZ",
      "latitude": -38.25,
      "longitude": 175.1667,
      "admin_name1": "Waikato"
    },
    {
      "place_name": "Featherston",
      "postal_code": "5710",
      "country_code": "NZ",
      "latitude": -41.1083,
      "longitude": 175.3202,
      "admin_name1": "Wellington"
    },
    {
      "place_name": "Kopuaranga",
      "postal_code": "5881",
      "country_code": "NZ",
      "latitude": -40.8333,
      "longitude": 175.6667,
      "admin_name1": "Wellington"
    },
    {
      "place_name": "Mount Victoria",
      "postal_code": "6011",
      "country_code": "NZ",
      "latitude": -41.297,
      "longitude": 174.7936,
      "admin_name1": "Wellington"
    },
    {
      "place_name": "Owhiro Bay",
      "postal_code": "6023",
      "country_code": "NZ",
      "latitude": -41.3383,
      "longitude": 174.7502,
      "admin_name1": "Wellington"
    },
    {
      "place_name": "Kaniere",
      "postal_code": "7811",
      "country_code": "NZ",
      "latitude": -42.75,
      "longitude": 171.0,
      "admin_name1": "West Coast"
    },
    {
      "place_name": "Reefton",
      "postal_code": "7851",
      "country_code": "NZ",
      "latitude": -42.1167,
      "longitude": 171.8667,
      "admin_name1": "West Coast"
    },
    {
      "place_name": "West Harbour",
      "postal_code": "0657",
      "country_code": "NZ",
      "latitude": -36.8182,
      "longitude": 174.6102,
      "admin_name1": "Auckland"
    },
    {
      "place_name": "Takapuna",
      "postal_code": "0750",
      "country_code": "NZ",
      "latitude": -36.7917,
      "longitude": 174.7758,
      "admin_name1": "Auckland"
    },
    {
      "place_name": "Helensville",
      "postal_code": "0875",
      "country_code": "NZ",
      "latitude": -36.6782,
      "longitude": 174.4502,
      "admin_name1": "Auckland"
    },
    {
      "place_name": "Waiuku",
      "postal_code": "2123",
      "country_code": "NZ",
      "latitude": -37.2481,
      "longitude": 174.7349,
      "admin_name1": "Auckland"
    },
    {
      "place_name": "Paparimu",
      "postal_code": "2583",
      "country_code": "NZ",
      "latitude": -37.1333,
      "longitude": 175.1167,
      "admin_name1": "Auckland"
    },
    {
      "place_name": "Kairua",
      "postal_code": "3151",
      "country_code": "NZ",
      "latitude": -37.7167,
      "longitude": 176.2833,
      "admin_name1": "Bay of Plenty"
    },
    {
      "place_name": "Edgecumbe",
      "postal_code": "3160",
      "country_code": "NZ",
      "latitude": -37.9833,
      "longitude": 176.8333,
      "admin_name1": "Bay of Plenty"
    },
    {
      "place_name": "Otangihaku",
      "postal_code": "3191",
      "country_code": "NZ",
      "latitude": -38.0333,
      "longitude": 177.0,
      "admin_name1": "Bay of Plenty"
    },
    {
      "place_name": "Hanmer Springs",
      "postal_code": "7334",
      "country_code": "NZ",
      "latitude": -42.5167,
      "longitude": 172.8167,
      "admin_name1": "Canterbury"
    },
    {
      "place_name": "Amberley",
      "postal_code": "7441",
      "country_code": "NZ",
      "latitude": -43.1559,
      "longitude": 172.7297,
      "admin_name1": "Canterbury"
    },
    {
      "place_name": "Southbridge",
      "postal_code": "7642",
      "country_code": "NZ",
      "latitude": -43.8167,
      "longitude": 172.25,
      "admin_name1": "Canterbury"
    },
    {
      "place_name": "Lyttelton",
      "postal_code": "8082",
      "country_code": "NZ",
      "latitude": -43.6031,
      "longitude": 172.7176,
      "admin_name1": "Canterbury"
    },
    {
      "place_name": "Motu",
      "postal_code": "4052",
      "country_code": "NZ",
      "latitude": -38.25,
      "longitude": 177.55,
      "admin_name1": "Gisborne"
    },
    {
      "place_name": "Onekawa",
      "postal_code": "4140",
      "country_code": "NZ",
      "latitude": -39.5091,
      "longitude": 176.8896,
      "admin_name1": "Hawke's Bay"
    },
    {
      "place_name": "Kirikau",
      "postal_code": "3993",
      "country_code": "NZ",
      "latitude": -39.0167,
      "longitude": 175.1333,
      "admin_name1": "Manawatu-Wanganui"
    },
    {
      "place_name": "Aokautere",
      "postal_code": "4471",
      "country_code": "NZ",
      "latitude": -40.3667,
      "longitude": 175.6667,
      "admin_name1": "Manawatu-Wanganui"
    },
    {
      "place_name": "Whakaihuwaka",
      "postal_code": "4584",
      "country_code": "NZ",
      "latitude": -39.7667,
      "longitude": 175.15,
      "admin_name1": "Manawatu-Wanganui"
    },
    {
      "place_name": "Rewa",
      "postal_code": "4786",
      "country_code": "NZ",
      "latitude": -39.9833,
      "longitude": 175.6333,
      "admin_name1": "Manawatu-Wanganui"
    },
    {
      "place_name": "Ohotu",
      "postal_code": "4793",
      "country_code": "NZ",
      "latitude": -39.7119,
      "longitude": 175.8389,
      "admin_name1": "Manawatu-Wanganui"
    },
    {
      "place_name": "Ngamoko",
      "postal_code": "4974",
      "country_code": "NZ",
      "latitude": -40.0545,
      "longitude": 176.1632,
      "admin_name1": "Manawatu-Wanganui"
    },
    {
      "place_name": "Hukerenui",
      "postal_code": "0182",
      "country_code": "NZ",
      "latitude": -35.5167,
      "longitude": 174.1833,
      "admin_name1": "Northland"
    },
    {
      "place_name": "Rukuwai",
      "postal_code": "0192",
      "country_code": "NZ",
      "latitude": -35.75,
      "longitude": 174.4667,
      "admin_name1": "Northland"
    },
    {
      "place_name": "Redhill",
      "postal_code": "0371",
      "country_code": "NZ",
      "latitude": -36.0333,
      "longitude": 173.85,
      "admin_name1": "Northland"
    },
    {
      "place_name": "Kaitaia",
      "postal_code": "0441",
      "country_code": "NZ",
      "latitude": -35.1149,
      "longitude": 173.2637,
      "admin_name1": "Northland"
    },
    {
      "place_name": "Opononi",
      "postal_code": "0445",
      "country_code": "NZ",
      "latitude": -35.5,
      "longitude": 173.4,
      "admin_name1": "Northland"
    },
    {
      "place_name": "Waima",
      "postal_code": "0473",
      "country_code": "NZ",
      "latitude": -35.4833,
      "longitude": 173.5833,
      "admin_name1": "Northland"
    },
    {
      "place_name": "Rehia",
      "postal_code": "0592",
      "country_code": "NZ",
      "latitude": -36.0667,
      "longitude": 174.0333,
      "admin_name1": "Northland"
    },
    {
      "place_name": "Broad Bay",
      "postal_code": "9014",
      "country_code": "NZ",
      "latitude": -45.85,
      "longitude": 170.6167,
      "admin_name1": "Otago"
    },
    {
      "place_name": "Maryhill",
      "postal_code": "9040",
      "country_code": "NZ",
      "latitude": -45.8784,
      "longitude": 170.4801,
      "admin_name1": "Otago"
    },
    {
      "place_name": "Green Island",
      "postal_code": "9052",
      "country_code": "NZ",
      "latitude": -45.8884,
      "longitude": 170.4301,
      "admin_name1": "Otago"
    },
    {
      "place_name": "Macraes Flat",
      "postal_code": "9483",
      "country_code": "NZ",
      "latitude": -45.3833,
      "longitude": 170.4333,
      "admin_name1": "Otago"
    },
    {
      "place_name": "Owaka",
      "postal_code": "9535",
      "country_code": "NZ",
      "latitude": -46.45,
      "longitude": 169.6667,
      "admin_name1": "Otago"
    },
    {
      "place_name": "Ngaro",
      "postal_code": "9689",
      "country_code": "NZ",
      "latitude": -45.9,
      "longitude": 167.9833,
      "admin_name1": "Southland"
    },
    {
      "place_name": "Otapiri Gorge",
      "postal_code": "9782",
      "country_code": "NZ",
      "latitude": -46.05,
      "longitude": 168.45,
      "admin_name1": "Southland"
    },
    {
      "place_name": "Westown",
      "postal_code": "4310",
      "country_code": "NZ",
      "latitude": -39.0714,
      "longitude": 174.0622,
      "admin_name1": "Taranaki"
    },
    {
      "place_name": "Tuna",
      "postal_code": "4394",
      "country_code": "NZ",
      "latitude": -39.2679,
      "longitude": 174.2981,
      "admin_name1": "Taranaki"
    },
    {
      "place_name": "Matau",
      "postal_code": "4395",
      "country_code": "NZ",
      "latitude": -39.1612,
      "longitude": 174.5635,
      "admin_name1": "Taranaki"
    },
    {
      "place_name": "Normanby",
      "postal_code": "4614",
      "country_code": "NZ",
      "latitude": -39.5333,
      "longitude": 174.2833,
      "admin_name1": "Taranaki"
    },
    {
      "place_name": "Tuakau",
      "postal_code": "2121",
      "country_code": "NZ",
      "latitude": -37.2705,
      "longitude": 174.9438,
      "admin_name1": "Waikato"
    },
    {
      "place_name": "Ruapuke",
      "postal_code": "3296",
      "country_code": "NZ",
      "latitude": -37.9247,
      "longitude": 174.8138,
      "admin_name1": "Waikato"
    },
    {
      "place_name": "Waipahihi",
      "postal_code": "3378",
      "country_code": "NZ",
      "latitude": -38.7084,
      "longitude": 176.0907,
      "admin_name1": "Waikato"
    },
    {
      "place_name": "Mangaiti",
      "postal_code": "3393",
      "country_code": "NZ",
      "latitude": -37.5,
      "longitude": 175.6833,
      "admin_name1": "Waikato"
    },
    {
      "place_name": "Ngatira",
      "postal_code": "3482",
      "country_code": "NZ",
      "latitude": -38.1,
      "longitude": 175.9,
      "admin_name1": "Waikato"
    },
    {
      "place_name": "Okoroire",
      "postal_code": "3485",
      "country_code": "NZ",
      "latitude": -37.95,
      "longitude": 175.8,
      "admin_name1": "Waikato"
    },
    {
      "place_name": "Ngaruawahia",
      "postal_code": "3720",
      "country_code": "NZ",
      "latitude": -37.6674,
      "longitude": 175.1555,
      "admin_name1": "Waikato"
    },
    {
      "place_name": "Tongariro",
      "postal_code": "3949",
      "country_code": "NZ",
      "latitude": -39.0333,
      "longitude": 175.65,
      "admin_name1": "Waikato"
    },
    {
      "place_name": "Gracefield",
      "postal_code": "5043",
      "country_code": "NZ",
      "latitude": -41.2333,
      "longitude": 174.9167,
      "admin_name1": "Wellington"
    },
    {
      "place_name": "Masterton",
      "postal_code": "5842",
      "country_code": "NZ",
      "latitude": -40.9597,
      "longitude": 175.6575,
      "admin_name1": "Wellington"
    },
    {
      "place_name": "Hector",
      "postal_code": "7867",
      "country_code": "NZ",
      "latitude": -41.6,
      "longitude": 171.8833,
      "admin_name1": "West Coast"
    },
    {
      "place_name": "Wharekuri",
      "postal_code": "9435",
      "country_code": "NZ",
      "latitude": -45.1143,
      "longitude": 170.6719,
      "admin_name1": null
    },
    {
      "place_name": "Puhoi",
      "postal_code": "0951",
      "country_code": "NZ",
      "latitude": -36.5035,
      "longitude": 174.6676,
      "admin_name1": "Auckland"
    },
    {
      "place_name": "Wayby",
      "postal_code": "0972",
      "country_code": "NZ",
      "latitude": -36.3333,
      "longitude": 174.5667,
      "admin_name1": "Auckland"
    },
    {
      "place_name": "Herne Bay",
      "postal_code": "1011",
      "country_code": "NZ",
      "latitude": -36.8461,
      "longitude": 174.7292,
      "admin_name1": "Auckland"
    },
    {
      "place_name": "Omokoroa Beach",
      "postal_code": "3114",
      "country_code": "NZ",
      "latitude": -37.6333,
      "longitude": 176.05,
      "admin_name1": "Bay of Plenty"
    },
    {
      "place_name": "Te Teko",
      "postal_code": "3167",
      "country_code": "NZ",
      "latitude": -38.0365,
      "longitude": 176.7936,
      "admin_name1": "Bay of Plenty"
    },
    {
      "place_name": "Awakaponga",
      "postal_code": "3194",
      "country_code": "NZ",
      "latitude": -37.9333,
      "longitude": 176.7667,
      "admin_name1": "Bay of Plenty"
    },
    {
      "place_name": "Waiau",
      "postal_code": "7343",
      "country_code": "NZ",
      "latitude": -42.65,
      "longitude": 173.05,
      "admin_name1": "Canterbury"
    },
    {
      "place_name": "Hawkeswood",
      "postal_code": "7384",
      "country_code": "NZ",
      "latitude": -42.65,
      "longitude": 173.3333,
      "admin_name1": "Canterbury"
    },
    {
      "place_name": "Hawkins",
      "postal_code": "7571",
      "country_code": "NZ",
      "latitude": -43.4833,
      "longitude": 172.0333,
      "admin_name1": "Canterbury"
    },
    {
      "place_name": "Waimate",
      "postal_code": "7924",
      "country_code": "NZ",
      "latitude": -44.7284,
      "longitude": 171.0501,
      "admin_name1": "Canterbury"
    },
    {
      "place_name": "Sutherlands",
      "postal_code": "7983",
      "country_code": "NZ",
      "latitude": -44.2833,
      "longitude": 171.05,
      "admin_name1": "Canterbury"
    },
    {
      "place_name": "Somerfield",
      "postal_code": "8244",
      "country_code": "NZ",
      "latitude": -43.5593,
      "longitude": 172.6313,
      "admin_name1": "Canterbury"
    },
    {
      "place_name": "Halswell",
      "postal_code": "8245",
      "country_code": "NZ",
      "latitude": -43.5833,
      "longitude": 172.5667,
      "admin_name1": "Canterbury"
    },
    {
      "place_name": "Tokomaru",
      "postal_code": "4047",
      "country_code": "NZ",
      "latitude": -38.1333,
      "longitude": 178.3,
      "admin_name1": "Gisborne"
    },
    {
      "place_name": "Te Araroa",
      "postal_code": "4087",
      "country_code": "NZ",
      "latitude": -37.6333,
      "longitude": 178.3667,
      "admin_name1": "Gisborne"
    },
    {
      "place_name": "Otoko",
      "postal_code": "4092",
      "country_code": "NZ",
      "latitude": -38.4,
      "longitude": 177.6667,
      "admin_name1": "Gisborne"
    },
    {
      "place_name": "Te Hauke",
      "postal_code": "4174",
      "country_code": "NZ",
      "latitude": -39.7667,
      "longitude": 176.6833,
      "admin_name1": "Hawke's Bay"
    },
    {
      "place_name": "Waitaniwha",
      "postal_code": "4198",
      "country_code": "NZ",
      "latitude": -39.0592,
      "longitude": 177.7989,
      "admin_name1": "Hawke's Bay"
    },
    {
      "place_name": "Waione",
      "postal_code": "4979",
      "country_code": "NZ",
      "latitude": -40.4695,
      "longitude": 176.2797,
      "admin_name1": "Manawatu-Wanganui"
    },
    {
      "place_name": "Manakau",
      "postal_code": "5541",
      "country_code": "NZ",
      "latitude": -40.7167,
      "longitude": 175.2167,
      "admin_name1": "Manawatu-Wanganui"
    },
    {
      "place_name": "Waikawa",
      "postal_code": "7251",
      "country_code": "NZ",
      "latitude": -41.2667,
      "longitude": 174.05,
      "admin_name1": "Marlborough"
    },
    {
      "place_name": "Karetu",
      "postal_code": "0282",
      "country_code": "NZ",
      "latitude": -35.3667,
      "longitude": 174.15,
      "admin_name1": "Northland"
    },
    {
      "place_name": "Kaikorai",
      "postal_code": "9042",
      "country_code": "NZ",
      "latitude": -45.8584,
      "longitude": 170.4701,
      "admin_name1": "Otago"
    },
    {
      "place_name": "Gibbston",
      "postal_code": "9384",
      "country_code": "NZ",
      "latitude": -45.0333,
      "longitude": 168.9667,
      "admin_name1": "Otago"
    },
    {
      "place_name": "Ohai",
      "postal_code": "9635",
      "country_code": "NZ",
      "latitude": -45.9167,
      "longitude": 167.95,
      "admin_name1": "Southland"
    },
    {
      "place_name": "Eastern Bush",
      "postal_code": "9682",
      "country_code": "NZ",
      "latitude": -45.9833,
      "longitude": 167.7667,
      "admin_name1": "Southland"
    },
    {
      "place_name": "Garston",
      "postal_code": "9778",
      "country_code": "NZ",
      "latitude": -45.4667,
      "longitude": 168.6833,
      "admin_name1": "Southland"
    },
    {
      "place_name": "Lumsden",
      "postal_code": "9794",
      "country_code": "NZ",
      "latitude": -45.7333,
      "longitude": 168.45,
      "admin_name1": "Southland"
    },
    {
      "place_name": "Tahora",
      "postal_code": "4396",
      "country_code": "NZ",
      "latitude": -39.0309,
      "longitude": 174.8026,
      "admin_name1": "Taranaki"
    },
    {
      "place_name": "Waverley",
      "postal_code": "4510",
      "country_code": "NZ",
      "latitude": -39.7667,
      "longitude": 174.6333,
      "admin_name1": "Taranaki"
    },
    {
      "place_name": "Te Rapa",
      "postal_code": "3249",
      "country_code": "NZ",
      "latitude": -37.75,
      "longitude": 175.2167,
      "admin_name1": "Waikato"
    },
    {
      "place_name": "Arapuni",
      "postal_code": "3415",
      "country_code": "NZ",
      "latitude": -38.0709,
      "longitude": 175.646,
      "admin_name1": "Waikato"
    },
    {
      "place_name": "Hinuera",
      "postal_code": "3472",
      "country_code": "NZ",
      "latitude": -37.8833,
      "longitude": 175.7667,
      "admin_name1": "Waikato"
    },
    {
      "place_name": "Te Kauwhata",
      "postal_code": "3710",
      "country_code": "NZ",
      "latitude": -37.4,
      "longitude": 175.15,
      "admin_name1": "Waikato"
    },
    {
      "place_name": "Starrtown",
      "postal_code": "3740",
      "country_code": "NZ",
      "latitude": -37.562,
      "longitude": 175.1619,
      "admin_name1": "Waikato"
    },
    {
      "place_name": "Matapara",
      "postal_code": "3877",
      "country_code": "NZ",
      "latitude": -38.2167,
      "longitude": 175.55,
      "admin_name1": "Waikato"
    },
    {
      "place_name": "Honikiwi",
      "postal_code": "3973",
      "country_code": "NZ",
      "latitude": -38.15,
      "longitude": 175.1,
      "admin_name1": "Waikato"
    },
    {
      "place_name": "Mahoenui",
      "postal_code": "3978",
      "country_code": "NZ",
      "latitude": -38.5667,
      "longitude": 174.85,
      "admin_name1": "Waikato"
    },
    {
      "place_name": "Petone",
      "postal_code": "5046",
      "country_code": "NZ",
      "latitude": -41.2283,
      "longitude": 174.8702,
      "admin_name1": "Wellington"
    },
    {
      "place_name": "Silverstream",
      "postal_code": "5142",
      "country_code": "NZ",
      "latitude": -41.15,
      "longitude": 175.0,
      "admin_name1": "Wellington"
    },
    {
      "place_name": "Paraparaumu",
      "postal_code": "5254",
      "country_code": "NZ",
      "latitude": -40.9167,
      "longitude": 175.0167,
      "admin_name1": "Wellington"
    },
    {
      "place_name": "Tinui",
      "postal_code": "5889",
      "country_code": "NZ",
      "latitude": -40.8833,
      "longitude": 176.0667,
      "admin_name1": "Wellington"
    },
    {
      "place_name": "Harihari",
      "postal_code": "7884",
      "country_code": "NZ",
      "latitude": -43.15,
      "longitude": 170.55,
      "admin_name1": "West Coast"
    },
    {
      "place_name": "Titirangi",
      "postal_code": "0642",
      "country_code": "NZ",
      "latitude": -36.9375,
      "longitude": 174.6558,
      "admin_name1": "Auckland"
    },
    {
      "place_name": "Coatesville",
      "postal_code": "0793",
      "country_code": "NZ",
      "latitude": -36.7167,
      "longitude": 174.65,
      "admin_name1": "Auckland"
    },
    {
      "place_name": "Kaukapakapa",
      "postal_code": "0843",
      "country_code": "NZ",
      "latitude": -36.6167,
      "longitude": 174.5,
      "admin_name1": "Auckland"
    },
    {
      "place_name": "Whangapara",
      "postal_code": "0991",
      "country_code": "NZ",
      "latitude": -36.2333,
      "longitude": 175.4,
      "admin_name1": "Auckland"
    },
    {
      "place_name": "Red Beach",
      "postal_code": "0993",
      "country_code": "NZ",
      "latitude": -36.6124,
      "longitude": 174.6887,
      "admin_name1": "Auckland"
    },
    {
      "place_name": "Freemans Bay",
      "postal_code": "1144",
      "country_code": "NZ",
      "latitude": -36.8482,
      "longitude": 174.7402,
      "admin_name1": "Auckland"
    },
    {
      "place_name": "Lynfield",
      "postal_code": "1443",
      "country_code": "NZ",
      "latitude": -36.9282,
      "longitude": 174.7202,
      "admin_name1": "Auckland"
    },
    {
      "place_name": "Drury",
      "postal_code": "2577",
      "country_code": "NZ",
      "latitude": -37.1,
      "longitude": 174.95,
      "admin_name1": "Auckland"
    },
    {
      "place_name": "Te Kohanga",
      "postal_code": "2697",
      "country_code": "NZ",
      "latitude": -37.3141,
      "longitude": 174.8451,
      "admin_name1": "Auckland"
    },
    {
      "place_name": "Leithfield",
      "postal_code": "7446",
      "country_code": "NZ",
      "latitude": -43.2,
      "longitude": 172.7333,
      "admin_name1": "Canterbury"
    },
    {
      "place_name": "Mount Somers",
      "postal_code": "7746",
      "country_code": "NZ",
      "latitude": -43.7167,
      "longitude": 171.4,
      "admin_name1": "Canterbury"
    },
    {
      "place_name": "Ilam",
      "postal_code": "8444",
      "country_code": "NZ",
      "latitude": -43.5183,
      "longitude": 172.5701,
      "admin_name1": "Canterbury"
    },
    {
      "place_name": "Ruatoria",
      "postal_code": "4032",
      "country_code": "NZ",
      "latitude": -37.8833,
      "longitude": 178.3333,
      "admin_name1": "Gisborne"
    },
    {
      "place_name": "Whatatutu",
      "postal_code": "4094",
      "country_code": "NZ",
      "latitude": -38.3833,
      "longitude": 177.8333,
      "admin_name1": "Gisborne"
    },
    {
      "place_name": "Kotemaori",
      "postal_code": "4188",
      "country_code": "NZ",
      "latitude": -39.0667,
      "longitude": 177.0333,
      "admin_name1": "Hawke's Bay"
    },
    {
      "place_name": "Ohura",
      "postal_code": "3947",
      "country_code": "NZ",
      "latitude": -38.8333,
      "longitude": 174.9833,
      "admin_name1": "Manawatu-Wanganui"
    },
    {
      "place_name": "Aukopae",
      "postal_code": "3991",
      "country_code": "NZ",
      "latitude": -38.9,
      "longitude": 175.1667,
      "admin_name1": "Manawatu-Wanganui"
    },
    {
      "place_name": "Rongotea",
      "postal_code": "4865",
      "country_code": "NZ",
      "latitude": -40.2926,
      "longitude": 175.4251,
      "admin_name1": "Manawatu-Wanganui"
    },
    {
      "place_name": "Pahiatua",
      "postal_code": "4910",
      "country_code": "NZ",
      "latitude": -40.4534,
      "longitude": 175.8406,
      "admin_name1": "Manawatu-Wanganui"
    },
    {
      "place_name": "Waitarere",
      "postal_code": "5574",
      "country_code": "NZ",
      "latitude": -40.55,
      "longitude": 175.2,
      "admin_name1": "Manawatu-Wanganui"
    },
    {
      "place_name": "Spring Creek",
      "postal_code": "7244",
      "country_code": "NZ",
      "latitude": -41.4667,
      "longitude": 173.9667,
      "admin_name1": "Marlborough"
    },
    {
      "place_name": "Hillersden",
      "postal_code": "7271",
      "country_code": "NZ",
      "latitude": -41.6,
      "longitude": 173.4333,
      "admin_name1": "Marlborough"
    },
    {
      "place_name": "Langridge",
      "postal_code": "7371",
      "country_code": "NZ",
      "latitude": -41.9833,
      "longitude": 173.4167,
      "admin_name1": "Marlborough"
    },
    {
      "place_name": "Omapere",
      "postal_code": "0444",
      "country_code": "NZ",
      "latitude": -35.5333,
      "longitude": 173.3833,
      "admin_name1": "Northland"
    },
    {
      "place_name": "Umawera",
      "postal_code": "0476",
      "country_code": "NZ",
      "latitude": -35.2833,
      "longitude": 173.5833,
      "admin_name1": "Northland"
    },
    {
      "place_name": "Mareretu",
      "postal_code": "0571",
      "country_code": "NZ",
      "latitude": -36.0333,
      "longitude": 174.2667,
      "admin_name1": "Northland"
    },
    {
      "place_name": "Caversham",
      "postal_code": "9045",
      "country_code": "NZ",
      "latitude": -45.9,
      "longitude": 170.4833,
      "admin_name1": "Otago"
    },
    {
      "place_name": "Mosgiel",
      "postal_code": "9092",
      "country_code": "NZ",
      "latitude": -45.875,
      "longitude": 170.3472,
      "admin_name1": "Otago"
    },
    {
      "place_name": "Balclutha",
      "postal_code": "9240",
      "country_code": "NZ",
      "latitude": -46.2339,
      "longitude": 169.75,
      "admin_name1": "Otago"
    },
    {
      "place_name": "Albert Town",
      "postal_code": "9344",
      "country_code": "NZ",
      "latitude": -44.6833,
      "longitude": 169.2,
      "admin_name1": "Otago"
    },
    {
      "place_name": "Chatto Creek",
      "postal_code": "9393",
      "country_code": "NZ",
      "latitude": -45.1333,
      "longitude": 169.5167,
      "admin_name1": "Otago"
    },
    {
      "place_name": "Urenui",
      "postal_code": "4349",
      "country_code": "NZ",
      "latitude": -39.0,
      "longitude": 174.3833,
      "admin_name1": "Taranaki"
    },
    {
      "place_name": "Tikorangi",
      "postal_code": "4383",
      "country_code": "NZ",
      "latitude": -39.0333,
      "longitude": 174.2833,
      "admin_name1": "Taranaki"
    },
    {
      "place_name": "Hautapu",
      "postal_code": "3451",
      "country_code": "NZ",
      "latitude": -37.8608,
      "longitude": 175.4535,
      "admin_name1": "Waikato"
    },
    {
      "place_name": "Ruawaro",
      "postal_code": "3772",
      "country_code": "NZ",
      "latitude": -37.5167,
      "longitude": 175.05,
      "admin_name1": "Waikato"
    },
    {
      "place_name": "Pepepe",
      "postal_code": "3794",
      "country_code": "NZ",
      "latitude": -37.5833,
      "longitude": 174.95,
      "admin_name1": "Waikato"
    },
    {
      "place_name": "Awakino",
      "postal_code": "4376",
      "country_code": "NZ",
      "latitude": -38.65,
      "longitude": 174.6333,
      "admin_name1": "Waikato"
    },
    {
      "place_name": "Carterton",
      "postal_code": "5743",
      "country_code": "NZ",
      "latitude": -41.0183,
      "longitude": 175.5302,
      "admin_name1": "Wellington"
    },
    {
      "place_name": "Solway",
      "postal_code": "5888",
      "country_code": "NZ",
      "latitude": -40.9583,
      "longitude": 175.6102,
      "admin_name1": "Wellington"
    },
    {
      "place_name": "Kelburn",
      "postal_code": "6150",
      "country_code": "NZ",
      "latitude": -41.2833,
      "longitude": 174.7667,
      "admin_name1": "Wellington"
    },
    {
      "place_name": "Runanga",
      "postal_code": "7841",
      "country_code": "NZ",
      "latitude": -42.3983,
      "longitude": 171.2501,
      "admin_name1": "West Coast"
    },
    {
      "place_name": "Mapua",
      "postal_code": "7048",
      "country_code": "NZ",
      "latitude": -41.25,
      "longitude": 173.1,
      "admin_name1": "Tasman"
    },
    {
      "place_name": "Punaroma",
      "postal_code": "3076",
      "country_code": "NZ",
      "latitude": -38.2872,
      "longitude": 176.3389,
      "admin_name1": null
    },
    {
      "place_name": "McLaren Park",
      "postal_code": "0612",
      "country_code": "NZ",
      "latitude": -36.8882,
      "longitude": 174.6102,
      "admin_name1": "Auckland"
    },
    {
      "place_name": "New Lynn",
      "postal_code": "0640",
      "country_code": "NZ",
      "latitude": -36.9069,
      "longitude": 174.687,
      "admin_name1": "Auckland"
    },
    {
      "place_name": "Swanson",
      "postal_code": "0655",
      "country_code": "NZ",
      "latitude": -36.8667,
      "longitude": 174.5833,
      "admin_name1": "Auckland"
    },
    {
      "place_name": "Massey East",
      "postal_code": "0663",
      "country_code": "NZ",
      "latitude": -36.8282,
      "longitude": 174.6202,
      "admin_name1": "Auckland"
    },
    {
      "place_name": "Tryphena",
      "postal_code": "0962",
      "country_code": "NZ",
      "latitude": -36.3014,
      "longitude": 175.4893,
      "admin_name1": "Auckland"
    },
    {
      "place_name": "Epsom",
      "postal_code": "1024",
      "country_code": "NZ",
      "latitude": -36.8874,
      "longitude": 174.7706,
      "admin_name1": "Auckland"
    },
    {
      "place_name": "Mount Albert",
      "postal_code": "1246",
      "country_code": "NZ",
      "latitude": -36.8782,
      "longitude": 174.7202,
      "admin_name1": "Auckland"
    },
    {
      "place_name": "Panmure",
      "postal_code": "1545",
      "country_code": "NZ",
      "latitude": -36.8833,
      "longitude": 174.8667,
      "admin_name1": "Auckland"
    },
    {
      "place_name": "Onehunga",
      "postal_code": "1643",
      "country_code": "NZ",
      "latitude": -36.9182,
      "longitude": 174.7802,
      "admin_name1": "Auckland"
    },
    {
      "place_name": "Glenbrook",
      "postal_code": "2681",
      "country_code": "NZ",
      "latitude": -37.2167,
      "longitude": 174.7833,
      "admin_name1": "Auckland"
    },
    {
      "place_name": "Murupara",
      "postal_code": "3025",
      "country_code": "NZ",
      "latitude": -38.4667,
      "longitude": 176.7,
      "admin_name1": "Bay of Plenty"
    },
    {
      "place_name": "Reporoa",
      "postal_code": "3060",
      "country_code": "NZ",
      "latitude": -38.4359,
      "longitude": 176.3412,
      "admin_name1": "Bay of Plenty"
    },
    {
      "place_name": "Athenree",
      "postal_code": "3177",
      "country_code": "NZ",
      "latitude": -37.4667,
      "longitude": 175.9167,
      "admin_name1": "Bay of Plenty"
    },
    {
      "place_name": "Waihi Beach",
      "postal_code": "3642",
      "country_code": "NZ",
      "latitude": -37.4,
      "longitude": 175.9333,
      "admin_name1": "Bay of Plenty"
    },
    {
      "place_name": "Goose Bay",
      "postal_code": "7374",
      "country_code": "NZ",
      "latitude": -42.479,
      "longitude": 173.5278,
      "admin_name1": "Canterbury"
    },
    {
      "place_name": "Kaiapoi",
      "postal_code": "7630",
      "country_code": "NZ",
      "latitude": -43.3783,
      "longitude": 172.6401,
      "admin_name1": "Canterbury"
    },
    {
      "place_name": "Allenton",
      "postal_code": "7700",
      "country_code": "NZ",
      "latitude": -43.8883,
      "longitude": 171.7401,
      "admin_name1": "Canterbury"
    },
    {
      "place_name": "Pigeon Bay",
      "postal_code": "8972",
      "country_code": "NZ",
      "latitude": -43.688,
      "longitude": 172.8929,
      "admin_name1": "Canterbury"
    },
    {
      "place_name": "Te Pohue",
      "postal_code": "4182",
      "country_code": "NZ",
      "latitude": -39.25,
      "longitude": 176.6833,
      "admin_name1": "Hawke's Bay"
    },
    {
      "place_name": "Raupunga",
      "postal_code": "4191",
      "country_code": "NZ",
      "latitude": -39.0333,
      "longitude": 177.2167,
      "admin_name1": "Hawke's Bay"
    },
    {
      "place_name": "Waipukurau",
      "postal_code": "4200",
      "country_code": "NZ",
      "latitude": -39.9982,
      "longitude": 176.5602,
      "admin_name1": "Hawke's Bay"
    },
    {
      "place_name": "Otane",
      "postal_code": "4202",
      "country_code": "NZ",
      "latitude": -39.8833,
      "longitude": 176.6333,
      "admin_name1": "Hawke's Bay"
    },
    {
      "place_name": "Manunui",
      "postal_code": "3924",
      "country_code": "NZ",
      "latitude": -38.8833,
      "longitude": 175.3333,
      "admin_name1": "Manawatu-Wanganui"
    },
    {
      "place_name": "Hokowhitu",
      "postal_code": "4440",
      "country_code": "NZ",
      "latitude": -40.3626,
      "longitude": 175.6338,
      "admin_name1": "Manawatu-Wanganui"
    },
    {
      "place_name": "Matahiwi",
      "postal_code": "4576",
      "country_code": "NZ",
      "latitude": -39.6,
      "longitude": 175.15,
      "admin_name1": "Manawatu-Wanganui"
    },
    {
      "place_name": "Poukiore",
      "postal_code": "4785",
      "country_code": "NZ",
      "latitude": -39.8694,
      "longitude": 175.621,
      "admin_name1": "Manawatu-Wanganui"
    },
    {
      "place_name": "Ruahine",
      "postal_code": "4797",
      "country_code": "NZ",
      "latitude": -39.8333,
      "longitude": 175.9,
      "admin_name1": "Manawatu-Wanganui"
    },
    {
      "place_name": "Marotiri",
      "postal_code": "4893",
      "country_code": "NZ",
      "latitude": -40.4833,
      "longitude": 175.35,
      "admin_name1": "Manawatu-Wanganui"
    },
    {
      "place_name": "Eketahuna",
      "postal_code": "4900",
      "country_code": "NZ",
      "latitude": -40.6462,
      "longitude": 175.7037,
      "admin_name1": "Manawatu-Wanganui"
    },
    {
      "place_name": "Ballance",
      "postal_code": "4983",
      "country_code": "NZ",
      "latitude": -40.4022,
      "longitude": 175.8017,
      "admin_name1": "Manawatu-Wanganui"
    },
    {
      "place_name": "Tuamarina",
      "postal_code": "7273",
      "country_code": "NZ",
      "latitude": -41.4333,
      "longitude": 173.95,
      "admin_name1": "Marlborough"
    },
    {
      "place_name": "Lake Ohia",
      "postal_code": "0483",
      "country_code": "NZ",
      "latitude": -34.9833,
      "longitude": 173.3667,
      "admin_name1": "Northland"
    },
    {
      "place_name": "Opoho",
      "postal_code": "9041",
      "country_code": "NZ",
      "latitude": -45.8484,
      "longitude": 170.5201,
      "admin_name1": "Otago"
    },
    {
      "place_name": "Glenorchy",
      "postal_code": "9350",
      "country_code": "NZ",
      "latitude": -44.8504,
      "longitude": 168.3866,
      "admin_name1": "Otago"
    },
    {
      "place_name": "Omakau",
      "postal_code": "9352",
      "country_code": "NZ",
      "latitude": -45.0833,
      "longitude": 169.6,
      "admin_name1": "Otago"
    },
    {
      "place_name": "Ranfurly",
      "postal_code": "9353",
      "country_code": "NZ",
      "latitude": -45.1333,
      "longitude": 170.1,
      "admin_name1": "Otago"
    },
    {
      "place_name": "Otematata",
      "postal_code": "9447",
      "country_code": "NZ",
      "latitude": -44.6078,
      "longitude": 170.191,
      "admin_name1": "Otago"
    },
    {
      "place_name": "East End",
      "postal_code": "9842",
      "country_code": "NZ",
      "latitude": -46.6042,
      "longitude": 168.3472,
      "admin_name1": "Southland"
    },
    {
      "place_name": "Fitzroy",
      "postal_code": "4312",
      "country_code": "NZ",
      "latitude": -39.05,
      "longitude": 174.1,
      "admin_name1": "Taranaki"
    },
    {
      "place_name": "Okato",
      "postal_code": "4381",
      "country_code": "NZ",
      "latitude": -39.2,
      "longitude": 173.8833,
      "admin_name1": "Taranaki"
    },
    {
      "place_name": "White Tank",
      "postal_code": "4520",
      "country_code": "NZ",
      "latitude": -39.7583,
      "longitude": 174.4667,
      "admin_name1": "Taranaki"
    },
    {
      "place_name": "Hurleyville",
      "postal_code": "4598",
      "country_code": "NZ",
      "latitude": -39.6333,
      "longitude": 174.5,
      "admin_name1": "Taranaki"
    },
    {
      "place_name": "Meremere",
      "postal_code": "4672",
      "country_code": "NZ",
      "latitude": -39.5833,
      "longitude": 174.3833,
      "admin_name1": "Taranaki"
    },
    {
      "place_name": "Te Aroha",
      "postal_code": "3342",
      "country_code": "NZ",
      "latitude": -37.5282,
      "longitude": 175.7102,
      "admin_name1": "Waikato"
    },
    {
      "place_name": "Matamata",
      "postal_code": "3440",
      "country_code": "NZ",
      "latitude": -37.8106,
      "longitude": 175.7624,
      "admin_name1": "Waikato"
    },
    {
      "place_name": "Waingaro",
      "postal_code": "3793",
      "country_code": "NZ",
      "latitude": -37.6833,
      "longitude": 175.0,
      "admin_name1": "Waikato"
    },
    {
      "place_name": "Ohaupo",
      "postal_code": "3803",
      "country_code": "NZ",
      "latitude": -37.9167,
      "longitude": 175.3167,
      "admin_name1": "Waikato"
    },
    {
      "place_name": "Piopio",
      "postal_code": "3942",
      "country_code": "NZ",
      "latitude": -38.4667,
      "longitude": 175.0167,
      "admin_name1": "Waikato"
    },
    {
      "place_name": "Maihiihi",
      "postal_code": "3975",
      "country_code": "NZ",
      "latitude": -38.2333,
      "longitude": 175.3833,
      "admin_name1": "Waikato"
    },
    {
      "place_name": "Kaitoke",
      "postal_code": "5372",
      "country_code": "NZ",
      "latitude": -41.0833,
      "longitude": 175.1667,
      "admin_name1": "Wellington"
    },
    {
      "place_name": "Big Omaha",
      "postal_code": "0985",
      "country_code": "NZ",
      "latitude": -36.3333,
      "longitude": 174.7333,
      "admin_name1": "Auckland"
    },
    {
      "place_name": "Tawharanui",
      "postal_code": "0986",
      "country_code": "NZ",
      "latitude": -36.3833,
      "longitude": 174.8,
      "admin_name1": "Auckland"
    },
    {
      "place_name": "Pakuranga Heights",
      "postal_code": "2010",
      "country_code": "NZ",
      "latitude": -36.9082,
      "longitude": 174.8802,
      "admin_name1": "Auckland"
    },
    {
      "place_name": "Weymouth",
      "postal_code": "2103",
      "country_code": "NZ",
      "latitude": -37.0333,
      "longitude": 174.8667,
      "admin_name1": "Auckland"
    },
    {
      "place_name": "Waiau Pa",
      "postal_code": "2679",
      "country_code": "NZ",
      "latitude": -37.1333,
      "longitude": 174.75,
      "admin_name1": "Auckland"
    },
    {
      "place_name": "Tahorakui",
      "postal_code": "3081",
      "country_code": "NZ",
      "latitude": -38.479,
      "longitude": 176.2724,
      "admin_name1": "Bay of Plenty"
    },
    {
      "place_name": "Upper Papamoa",
      "postal_code": "3183",
      "country_code": "NZ",
      "latitude": -37.7667,
      "longitude": 176.25,
      "admin_name1": "Bay of Plenty"
    },
    {
      "place_name": "Kawerau",
      "postal_code": "3192",
      "country_code": "NZ",
      "latitude": -38.1,
      "longitude": 176.7,
      "admin_name1": "Bay of Plenty"
    },
    {
      "place_name": "Bells",
      "postal_code": "7400",
      "country_code": "NZ",
      "latitude": -43.3,
      "longitude": 172.5833,
      "admin_name1": "Canterbury"
    },
    {
      "place_name": "Akaroa",
      "postal_code": "7581",
      "country_code": "NZ",
      "latitude": -43.8038,
      "longitude": 172.9682,
      "admin_name1": "Canterbury"
    },
    {
      "place_name": "Robinsons Bay",
      "postal_code": "7583",
      "country_code": "NZ",
      "latitude": -43.7667,
      "longitude": 172.9667,
      "admin_name1": "Canterbury"
    },
    {
      "place_name": "Motukarara",
      "postal_code": "7672",
      "country_code": "NZ",
      "latitude": -43.7333,
      "longitude": 172.5833,
      "admin_name1": "Canterbury"
    },
    {
      "place_name": "Pleasant Point",
      "postal_code": "7947",
      "country_code": "NZ",
      "latitude": -44.2667,
      "longitude": 171.1333,
      "admin_name1": "Canterbury"
    },
    {
      "place_name": "Harewood",
      "postal_code": "8544",
      "country_code": "NZ",
      "latitude": -43.4833,
      "longitude": 172.5833,
      "admin_name1": "Canterbury"
    },
    {
      "place_name": "Ahuriri",
      "postal_code": "4144",
      "country_code": "NZ",
      "latitude": -39.4833,
      "longitude": 176.9,
      "admin_name1": "Hawke's Bay"
    },
    {
      "place_name": "Taumarunui",
      "postal_code": "3920",
      "country_code": "NZ",
      "latitude": -38.8782,
      "longitude": 175.2602,
      "admin_name1": "Manawatu-Wanganui"
    },
    {
      "place_name": "Upper Ruatiti",
      "postal_code": "3990",
      "country_code": "NZ",
      "latitude": -39.2,
      "longitude": 175.2,
      "admin_name1": "Manawatu-Wanganui"
    },
    {
      "place_name": "Terrace End",
      "postal_code": "4444",
      "country_code": "NZ",
      "latitude": -40.3483,
      "longitude": 175.6302,
      "admin_name1": "Manawatu-Wanganui"
    },
    {
      "place_name": "Wanganui East",
      "postal_code": "4542",
      "country_code": "NZ",
      "latitude": -39.9171,
      "longitude": 175.0616,
      "admin_name1": "Manawatu-Wanganui"
    },
    {
      "place_name": "Bunnythorpe",
      "postal_code": "4867",
      "country_code": "NZ",
      "latitude": -40.2833,
      "longitude": 175.6333,
      "admin_name1": "Manawatu-Wanganui"
    },
    {
      "place_name": "Mangamaire",
      "postal_code": "4988",
      "country_code": "NZ",
      "latitude": -40.5172,
      "longitude": 175.7526,
      "admin_name1": "Manawatu-Wanganui"
    },
    {
      "place_name": "Wakatu",
      "postal_code": "7044",
      "country_code": "NZ",
      "latitude": -41.2967,
      "longitude": 173.244,
      "admin_name1": "Nelson"
    },
    {
      "place_name": "Hira",
      "postal_code": "7071",
      "country_code": "NZ",
      "latitude": -41.2153,
      "longitude": 173.3961,
      "admin_name1": "Nelson"
    },
    {
      "place_name": "Ngunguru",
      "postal_code": "0154",
      "country_code": "NZ",
      "latitude": -35.6167,
      "longitude": 174.5,
      "admin_name1": "Northland"
    },
    {
      "place_name": "Kiripaka",
      "postal_code": "0173",
      "country_code": "NZ",
      "latitude": -35.6333,
      "longitude": 174.4333,
      "admin_name1": "Northland"
    },
    {
      "place_name": "Tahere",
      "postal_code": "0175",
      "country_code": "NZ",
      "latitude": -35.6833,
      "longitude": 174.4333,
      "admin_name1": "Northland"
    },
    {
      "place_name": "Kerikeri",
      "postal_code": "0230",
      "country_code": "NZ",
      "latitude": -35.2268,
      "longitude": 173.9474,
      "admin_name1": "Northland"
    },
    {
      "place_name": "Paihia",
      "postal_code": "0247",
      "country_code": "NZ",
      "latitude": -35.2807,
      "longitude": 174.091,
      "admin_name1": "Northland"
    },
    {
      "place_name": "Arapohue",
      "postal_code": "0370",
      "country_code": "NZ",
      "latitude": -35.9833,
      "longitude": 173.9667,
      "admin_name1": "Northland"
    },
    {
      "place_name": "Okaihau",
      "postal_code": "0447",
      "country_code": "NZ",
      "latitude": -35.3167,
      "longitude": 173.7833,
      "admin_name1": "Northland"
    },
    {
      "place_name": "North Dunedin",
      "postal_code": "9043",
      "country_code": "NZ",
      "latitude": -45.8584,
      "longitude": 170.5101,
      "admin_name1": "Otago"
    },
    {
      "place_name": "Middlemarch",
      "postal_code": "9067",
      "country_code": "NZ",
      "latitude": -45.5167,
      "longitude": 170.1167,
      "admin_name1": "Otago"
    },
    {
      "place_name": "Wingatui",
      "postal_code": "9076",
      "country_code": "NZ",
      "latitude": -45.8833,
      "longitude": 170.3833,
      "admin_name1": "Otago"
    },
    {
      "place_name": "Warepa",
      "postal_code": "9273",
      "country_code": "NZ",
      "latitude": -46.25,
      "longitude": 169.5833,
      "admin_name1": "Otago"
    },
    {
      "place_name": "Nightcaps",
      "postal_code": "9630",
      "country_code": "NZ",
      "latitude": -45.9667,
      "longitude": 168.0333,
      "admin_name1": "Southland"
    },
    {
      "place_name": "Wairoto",
      "postal_code": "9691",
      "country_code": "NZ",
      "latitude": -45.9833,
      "longitude": 167.6,
      "admin_name1": "Southland"
    },
    {
      "place_name": "Edendale",
      "postal_code": "9825",
      "country_code": "NZ",
      "latitude": -46.3167,
      "longitude": 168.7833,
      "admin_name1": "Southland"
    },
    {
      "place_name": "Kamahi",
      "postal_code": "9893",
      "country_code": "NZ",
      "latitude": -46.3333,
      "longitude": 168.7167,
      "admin_name1": "Southland"
    },
    {
      "place_name": "Bell Block",
      "postal_code": "4351",
      "country_code": "NZ",
      "latitude": -39.0333,
      "longitude": 174.15,
      "admin_name1": "Taranaki"
    },
    {
      "place_name": "Waitetuna",
      "postal_code": "3293",
      "country_code": "NZ",
      "latitude": -37.8333,
      "longitude": 175.0333,
      "admin_name1": "Waikato"
    },
    {
      "place_name": "Turangi",
      "postal_code": "3353",
      "country_code": "NZ",
      "latitude": -38.9904,
      "longitude": 175.8084,
      "admin_name1": "Waikato"
    },
    {
      "place_name": "Te Puninga",
      "postal_code": "3374",
      "country_code": "NZ",
      "latitude": -37.5833,
      "longitude": 175.5667,
      "admin_name1": "Waikato"
    },
    {
      "place_name": "Ngatea",
      "postal_code": "3503",
      "country_code": "NZ",
      "latitude": -37.2833,
      "longitude": 175.5,
      "admin_name1": "Waikato"
    },
    {
      "place_name": "Waikanae",
      "postal_code": "5036",
      "country_code": "NZ",
      "latitude": -40.8833,
      "longitude": 175.0667,
      "admin_name1": "Wellington"
    },
    {
      "place_name": "Te Kuha",
      "postal_code": "7892",
      "country_code": "NZ",
      "latitude": -41.8333,
      "longitude": 171.65,
      "admin_name1": "West Coast"
    },
    {
      "place_name": "Ngatimoti",
      "postal_code": "7196",
      "country_code": "NZ",
      "latitude": -41.2167,
      "longitude": 172.9,
      "admin_name1": "Tasman"
    },
    {
      "place_name": "Te Atatu",
      "postal_code": "0651",
      "country_code": "NZ",
      "latitude": -36.8333,
      "longitude": 174.65,
      "admin_name1": "Auckland"
    },
    {
      "place_name": "Marlborough",
      "postal_code": "0747",
      "country_code": "NZ",
      "latitude": -36.7782,
      "longitude": 174.7202,
      "admin_name1": "Auckland"
    },
    {
      "place_name": "Pahitoa",
      "postal_code": "0883",
      "country_code": "NZ",
      "latitude": -36.7833,
      "longitude": 174.4833,
      "admin_name1": "Auckland"
    },
    {
      "place_name": "Port Fitzroy",
      "postal_code": "0963",
      "country_code": "NZ",
      "latitude": -36.1667,
      "longitude": 175.35,
      "admin_name1": "Auckland"
    },
    {
      "place_name": "Waikowhai",
      "postal_code": "1445",
      "country_code": "NZ",
      "latitude": -36.9282,
      "longitude": 174.7302,
      "admin_name1": "Auckland"
    },
    {
      "place_name": "Oneroa",
      "postal_code": "1840",
      "country_code": "NZ",
      "latitude": -36.7782,
      "longitude": 175.0102,
      "admin_name1": "Auckland"
    },
    {
      "place_name": "Shelly Park",
      "postal_code": "2146",
      "country_code": "NZ",
      "latitude": -36.9075,
      "longitude": 174.9459,
      "admin_name1": "Auckland"
    },
    {
      "place_name": "Mangere East",
      "postal_code": "2158",
      "country_code": "NZ",
      "latitude": -36.9659,
      "longitude": 174.8239,
      "admin_name1": "Auckland"
    },
    {
      "place_name": "Koutu",
      "postal_code": "3046",
      "country_code": "NZ",
      "latitude": -38.1197,
      "longitude": 176.2383,
      "admin_name1": "Bay of Plenty"
    },
    {
      "place_name": "Kekerengu",
      "postal_code": "7260",
      "country_code": "NZ",
      "latitude": -42.0012,
      "longitude": 174.0077,
      "admin_name1": "Canterbury"
    },
    {
      "place_name": "Culverden",
      "postal_code": "7345",
      "country_code": "NZ",
      "latitude": -42.7667,
      "longitude": 172.85,
      "admin_name1": "Canterbury"
    },
    {
      "place_name": "Hinds",
      "postal_code": "7773",
      "country_code": "NZ",
      "latitude": -44.0,
      "longitude": 171.5667,
      "admin_name1": "Canterbury"
    },
    {
      "place_name": "Timaru",
      "postal_code": "7940",
      "country_code": "NZ",
      "latitude": -44.3967,
      "longitude": 171.2536,
      "admin_name1": "Canterbury"
    },
    {
      "place_name": "Esk Valley",
      "postal_code": "7988",
      "country_code": "NZ",
      "latitude": -44.5333,
      "longitude": 171.0833,
      "admin_name1": "Canterbury"
    },
    {
      "place_name": "Taradale",
      "postal_code": "4141",
      "country_code": "NZ",
      "latitude": -39.5333,
      "longitude": 176.85,
      "admin_name1": "Hawke's Bay"
    },
    {
      "place_name": "Poukawa",
      "postal_code": "4178",
      "country_code": "NZ",
      "latitude": -39.7667,
      "longitude": 176.7333,
      "admin_name1": "Hawke's Bay"
    },
    {
      "place_name": "Wiritoa",
      "postal_code": "4572",
      "country_code": "NZ",
      "latitude": -39.9667,
      "longitude": 175.1,
      "admin_name1": "Manawatu-Wanganui"
    },
    {
      "place_name": "Himatangi",
      "postal_code": "4891",
      "country_code": "NZ",
      "latitude": -40.4,
      "longitude": 175.3167,
      "admin_name1": "Manawatu-Wanganui"
    },
    {
      "place_name": "Makuri",
      "postal_code": "4989",
      "country_code": "NZ",
      "latitude": -40.5333,
      "longitude": 176.0167,
      "admin_name1": "Manawatu-Wanganui"
    },
    {
      "place_name": "Witherlea",
      "postal_code": "7240",
      "country_code": "NZ",
      "latitude": -41.5283,
      "longitude": 173.9502,
      "admin_name1": "Marlborough"
    },
    {
      "place_name": "Nelson South",
      "postal_code": "7042",
      "country_code": "NZ",
      "latitude": -41.285,
      "longitude": 173.2749,
      "admin_name1": "Nelson"
    },
    {
      "place_name": "Whau Valley",
      "postal_code": "0112",
      "country_code": "NZ",
      "latitude": -35.6982,
      "longitude": 174.3002,
      "admin_name1": "Northland"
    },
    {
      "place_name": "Moerewa",
      "postal_code": "0244",
      "country_code": "NZ",
      "latitude": -35.3833,
      "longitude": 174.0333,
      "admin_name1": "Northland"
    },
    {
      "place_name": "Pawarenga",
      "postal_code": "0496",
      "country_code": "NZ",
      "latitude": -35.35,
      "longitude": 173.25,
      "admin_name1": "Northland"
    },
    {
      "place_name": "Ocean Grove",
      "postal_code": "9013",
      "country_code": "NZ",
      "latitude": -45.9,
      "longitude": 170.55,
      "admin_name1": "Otago"
    },
    {
      "place_name": "Arrowtown",
      "postal_code": "9351",
      "country_code": "NZ",
      "latitude": -44.9384,
      "longitude": 168.8101,
      "admin_name1": "Otago"
    },
    {
      "place_name": "Ngapuna",
      "postal_code": "9596",
      "country_code": "NZ",
      "latitude": -45.45,
      "longitude": 170.1667,
      "admin_name1": "Otago"
    },
    {
      "place_name": "Te Anau",
      "postal_code": "9640",
      "country_code": "NZ",
      "latitude": -45.4167,
      "longitude": 167.7167,
      "admin_name1": "Southland"
    },
    {
      "place_name": "Halfmoon Bay (Oban)",
      "postal_code": "9818",
      "country_code": "NZ",
      "latitude": -46.8989,
      "longitude": 168.129,
      "admin_name1": "Southland"
    },
    {
      "place_name": "Sentry Hill",
      "postal_code": "4382",
      "country_code": "NZ",
      "latitude": -39.0333,
      "longitude": 174.2,
      "admin_name1": "Taranaki"
    },
    {
      "place_name": "Te Tawa",
      "postal_code": "4388",
      "country_code": "NZ",
      "latitude": -39.1833,
      "longitude": 174.2167,
      "admin_name1": "Taranaki"
    },
    {
      "place_name": "Opunake",
      "postal_code": "4616",
      "country_code": "NZ",
      "latitude": -39.4556,
      "longitude": 173.8583,
      "admin_name1": "Taranaki"
    },
    {
      "place_name": "Matangi",
      "postal_code": "3260",
      "country_code": "NZ",
      "latitude": -37.8048,
      "longitude": 175.3952,
      "admin_name1": "Waikato"
    },
    {
      "place_name": "Gordonton",
      "postal_code": "3264",
      "country_code": "NZ",
      "latitude": -37.6667,
      "longitude": 175.3,
      "admin_name1": "Waikato"
    },
    {
      "place_name": "Tamahere",
      "postal_code": "3283",
      "country_code": "NZ",
      "latitude": -37.8333,
      "longitude": 175.35,
      "admin_name1": "Waikato"
    },
    {
      "place_name": "Morrinsville",
      "postal_code": "3340",
      "country_code": "NZ",
      "latitude": -37.6482,
      "longitude": 175.5202,
      "admin_name1": "Waikato"
    },
    {
      "place_name": "Whangamarino",
      "postal_code": "3782",
      "country_code": "NZ",
      "latitude": -37.3491,
      "longitude": 175.1135,
      "admin_name1": "Waikato"
    },
    {
      "place_name": "Moerangi",
      "postal_code": "3895",
      "country_code": "NZ",
      "latitude": -37.9667,
      "longitude": 174.9167,
      "admin_name1": "Waikato"
    },
    {
      "place_name": "Waitangirua",
      "postal_code": "5024",
      "country_code": "NZ",
      "latitude": -41.1183,
      "longitude": 174.8802,
      "admin_name1": "Wellington"
    },
    {
      "place_name": "Eastbourne",
      "postal_code": "5047",
      "country_code": "NZ",
      "latitude": -41.3,
      "longitude": 174.9,
      "admin_name1": "Wellington"
    },
    {
      "place_name": "Martinborough",
      "postal_code": "5711",
      "country_code": "NZ",
      "latitude": -41.2083,
      "longitude": 175.4302,
      "admin_name1": "Wellington"
    },
    {
      "place_name": "Kumara",
      "postal_code": "7832",
      "country_code": "NZ",
      "latitude": -42.6283,
      "longitude": 171.1801,
      "admin_name1": "West Coast"
    },
    {
      "place_name": "Saint Arnaud",
      "postal_code": "7053",
      "country_code": "NZ",
      "latitude": -41.8,
      "longitude": 172.8333,
      "admin_name1": "Tasman"
    },
    {
      "place_name": "Braeburn",
      "postal_code": "7175",
      "country_code": "NZ",
      "latitude": -41.1833,
      "longitude": 173.0,
      "admin_name1": "Tasman"
    },
    {
      "place_name": "Owairaka",
      "postal_code": "1350",
      "country_code": "NZ",
      "latitude": -36.8882,
      "longitude": 174.7102,
      "admin_name1": "Auckland"
    },
    {
      "place_name": "Eastern Beach",
      "postal_code": "2144",
      "country_code": "NZ",
      "latitude": -36.8682,
      "longitude": 174.9002,
      "admin_name1": "Auckland"
    },
    {
      "place_name": "Ararimu",
      "postal_code": "2675",
      "country_code": "NZ",
      "latitude": -37.15,
      "longitude": 175.0333,
      "admin_name1": "Auckland"
    },
    {
      "place_name": "Pollok",
      "postal_code": "2684",
      "country_code": "NZ",
      "latitude": -37.1333,
      "longitude": 174.6167,
      "admin_name1": "Auckland"
    },
    {
      "place_name": "Opuatia",
      "postal_code": "2696",
      "country_code": "NZ",
      "latitude": -37.4048,
      "longitude": 175.0002,
      "admin_name1": "Auckland"
    },
    {
      "place_name": "Hawarden",
      "postal_code": "7348",
      "country_code": "NZ",
      "latitude": -42.9333,
      "longitude": 172.6333,
      "admin_name1": "Canterbury"
    },
    {
      "place_name": "Darfield",
      "postal_code": "7541",
      "country_code": "NZ",
      "latitude": -43.4833,
      "longitude": 172.1167,
      "admin_name1": "Canterbury"
    },
    {
      "place_name": "Coutts Island",
      "postal_code": "7670",
      "country_code": "NZ",
      "latitude": -43.4333,
      "longitude": 172.6167,
      "admin_name1": "Canterbury"
    },
    {
      "place_name": "Twizel",
      "postal_code": "7944",
      "country_code": "NZ",
      "latitude": -44.2584,
      "longitude": 170.1006,
      "admin_name1": "Canterbury"
    },
    {
      "place_name": "Tutira",
      "postal_code": "4162",
      "country_code": "NZ",
      "latitude": -39.2,
      "longitude": 176.8667,
      "admin_name1": "Hawke's Bay"
    },
    {
      "place_name": "Ruatangata East",
      "postal_code": "0185",
      "country_code": "NZ",
      "latitude": -35.65,
      "longitude": 174.2333,
      "admin_name1": "Northland"
    },
    {
      "place_name": "Te Kopura",
      "postal_code": "0341",
      "country_code": "NZ",
      "latitude": -36.0333,
      "longitude": 173.9333,
      "admin_name1": "Northland"
    },
    {
      "place_name": "Kirikopuni",
      "postal_code": "0381",
      "country_code": "NZ",
      "latitude": -35.8167,
      "longitude": 174.0167,
      "admin_name1": "Northland"
    },
    {
      "place_name": "Rowsells",
      "postal_code": "0520",
      "country_code": "NZ",
      "latitude": -36.1,
      "longitude": 174.35,
      "admin_name1": "Northland"
    },
    {
      "place_name": "Hilderthorpe",
      "postal_code": "9493",
      "country_code": "NZ",
      "latitude": -44.9833,
      "longitude": 171.0667,
      "admin_name1": "Otago"
    },
    {
      "place_name": "Mossburn",
      "postal_code": "9792",
      "country_code": "NZ",
      "latitude": -45.6667,
      "longitude": 168.25,
      "admin_name1": "Southland"
    },
    {
      "place_name": "Wallacetown",
      "postal_code": "9816",
      "country_code": "NZ",
      "latitude": -46.3333,
      "longitude": 168.2833,
      "admin_name1": "Southland"
    },
    {
      "place_name": "New Plymouth",
      "postal_code": "4342",
      "country_code": "NZ",
      "latitude": -39.0667,
      "longitude": 174.0833,
      "admin_name1": "Taranaki"
    },
    {
      "place_name": "Merrilands",
      "postal_code": "4360",
      "country_code": "NZ",
      "latitude": -39.068,
      "longitude": 174.0977,
      "admin_name1": "Taranaki"
    },
    {
      "place_name": "Ararata",
      "postal_code": "4674",
      "country_code": "NZ",
      "latitude": -39.5167,
      "longitude": 174.3667,
      "admin_name1": "Taranaki"
    },
    {
      "place_name": "Frankton Junction",
      "postal_code": "3204",
      "country_code": "NZ",
      "latitude": -37.8,
      "longitude": 175.2667,
      "admin_name1": "Waikato"
    },
    {
      "place_name": "Whatawhata",
      "postal_code": "3261",
      "country_code": "NZ",
      "latitude": -37.8,
      "longitude": 175.15,
      "admin_name1": "Waikato"
    },
    {
      "place_name": "Leamington",
      "postal_code": "3434",
      "country_code": "NZ",
      "latitude": -37.8833,
      "longitude": 175.4667,
      "admin_name1": "Waikato"
    },
    {
      "place_name": "Okauia",
      "postal_code": "3471",
      "country_code": "NZ",
      "latitude": -37.787,
      "longitude": 175.8399,
      "admin_name1": "Waikato"
    },
    {
      "place_name": "Whangapoua",
      "postal_code": "3506",
      "country_code": "NZ",
      "latitude": -36.7167,
      "longitude": 175.6167,
      "admin_name1": "Waikato"
    },
    {
      "place_name": "Te Kawa",
      "postal_code": "3873",
      "country_code": "NZ",
      "latitude": -38.1,
      "longitude": 175.2833,
      "admin_name1": "Waikato"
    },
    {
      "place_name": "Ngaroto",
      "postal_code": "3883",
      "country_code": "NZ",
      "latitude": -37.9833,
      "longitude": 175.3,
      "admin_name1": "Waikato"
    },
    {
      "place_name": "Kingsley Heights",
      "postal_code": "5140",
      "country_code": "NZ",
      "latitude": -41.1183,
      "longitude": 175.0702,
      "admin_name1": "Wellington"
    },
    {
      "place_name": "Stokes Valley",
      "postal_code": "5141",
      "country_code": "NZ",
      "latitude": -41.1783,
      "longitude": 174.9802,
      "admin_name1": "Wellington"
    },
    {
      "place_name": "Paraparaumu Beach",
      "postal_code": "5252",
      "country_code": "NZ",
      "latitude": -40.9,
      "longitude": 174.9833,
      "admin_name1": "Wellington"
    },
    {
      "place_name": "Karori West",
      "postal_code": "6972",
      "country_code": "NZ",
      "latitude": -41.2883,
      "longitude": 174.7102,
      "admin_name1": "Wellington"
    },
    {
      "place_name": "Kairuru",
      "postal_code": "7198",
      "country_code": "NZ",
      "latitude": -41.0333,
      "longitude": 172.9333,
      "admin_name1": "Tasman"
    },
    {
      "place_name": "Red Vale",
      "postal_code": "0792",
      "country_code": "NZ",
      "latitude": -36.6833,
      "longitude": 174.7,
      "admin_name1": "Auckland"
    },
    {
      "place_name": "Waimauku",
      "postal_code": "0812",
      "country_code": "NZ",
      "latitude": -36.75,
      "longitude": 174.5,
      "admin_name1": "Auckland"
    },
    {
      "place_name": "New Windsor",
      "postal_code": "1746",
      "country_code": "NZ",
      "latitude": -36.8982,
      "longitude": 174.7002,
      "admin_name1": "Auckland"
    },
    {
      "place_name": "Beachlands",
      "postal_code": "2018",
      "country_code": "NZ",
      "latitude": -36.8833,
      "longitude": 175.0,
      "admin_name1": "Auckland"
    },
    {
      "place_name": "Whakarewarewa",
      "postal_code": "3043",
      "country_code": "NZ",
      "latitude": -38.1603,
      "longitude": 176.2651,
      "admin_name1": "Bay of Plenty"
    },
    {
      "place_name": "Tarukenga",
      "postal_code": "3072",
      "country_code": "NZ",
      "latitude": -38.0752,
      "longitude": 176.1581,
      "admin_name1": "Bay of Plenty"
    },
    {
      "place_name": "Whakatane",
      "postal_code": "3158",
      "country_code": "NZ",
      "latitude": -37.9585,
      "longitude": 176.9855,
      "admin_name1": "Bay of Plenty"
    },
    {
      "place_name": "Waimana",
      "postal_code": "3196",
      "country_code": "NZ",
      "latitude": -38.15,
      "longitude": 177.0833,
      "admin_name1": "Bay of Plenty"
    },
    {
      "place_name": "Leeston",
      "postal_code": "7632",
      "country_code": "NZ",
      "latitude": -43.7667,
      "longitude": 172.3,
      "admin_name1": "Canterbury"
    },
    {
      "place_name": "Aylesbury",
      "postal_code": "7671",
      "country_code": "NZ",
      "latitude": -43.5333,
      "longitude": 172.2667,
      "admin_name1": "Canterbury"
    },
    {
      "place_name": "Hazelburn",
      "postal_code": "7982",
      "country_code": "NZ",
      "latitude": -44.2,
      "longitude": 170.9833,
      "admin_name1": "Canterbury"
    },
    {
      "place_name": "North Clyde",
      "postal_code": "4108",
      "country_code": "NZ",
      "latitude": -39.0282,
      "longitude": 177.4202,
      "admin_name1": "Hawke's Bay"
    },
    {
      "place_name": "Pirimai",
      "postal_code": "4146",
      "country_code": "NZ",
      "latitude": -39.5082,
      "longitude": 176.8802,
      "admin_name1": "Hawke's Bay"
    },
    {
      "place_name": "Wairoa",
      "postal_code": "4160",
      "country_code": "NZ",
      "latitude": -39.0333,
      "longitude": 177.3667,
      "admin_name1": "Hawke's Bay"
    },
    {
      "place_name": "Pahowai",
      "postal_code": "4161",
      "country_code": "NZ",
      "latitude": -39.6006,
      "longitude": 176.8942,
      "admin_name1": "Hawke's Bay"
    },
    {
      "place_name": "Frasertown",
      "postal_code": "4163",
      "country_code": "NZ",
      "latitude": -38.9686,
      "longitude": 177.4006,
      "admin_name1": "Hawke's Bay"
    },
    {
      "place_name": "Puketitiri",
      "postal_code": "4179",
      "country_code": "NZ",
      "latitude": -39.2833,
      "longitude": 176.55,
      "admin_name1": "Hawke's Bay"
    },
    {
      "place_name": "Ongarue",
      "postal_code": "3997",
      "country_code": "NZ",
      "latitude": -38.7167,
      "longitude": 175.2833,
      "admin_name1": "Manawatu-Wanganui"
    },
    {
      "place_name": "FEILDING",
      "postal_code": "4740",
      "country_code": "NZ",
      "latitude": -40.2183,
      "longitude": 175.5402,
      "admin_name1": "Manawatu-Wanganui"
    },
    {
      "place_name": "Ti-tree Point",
      "postal_code": "4970",
      "country_code": "NZ",
      "latitude": -40.437,
      "longitude": 176.4054,
      "admin_name1": "Manawatu-Wanganui"
    },
    {
      "place_name": "Ruakaka",
      "postal_code": "0116",
      "country_code": "NZ",
      "latitude": -35.8833,
      "longitude": 174.4,
      "admin_name1": "Northland"
    },
    {
      "place_name": "Clydevale",
      "postal_code": "9242",
      "country_code": "NZ",
      "latitude": -46.1,
      "longitude": 169.5333,
      "admin_name1": "Otago"
    },
    {
      "place_name": "East Gore",
      "postal_code": "9710",
      "country_code": "NZ",
      "latitude": -46.0884,
      "longitude": 168.9501,
      "admin_name1": "Southland"
    },
    {
      "place_name": "Glenham",
      "postal_code": "9891",
      "country_code": "NZ",
      "latitude": -46.4,
      "longitude": 168.85,
      "admin_name1": "Southland"
    },
    {
      "place_name": "Manaia",
      "postal_code": "4612",
      "country_code": "NZ",
      "latitude": -39.55,
      "longitude": 174.1333,
      "admin_name1": "Taranaki"
    },
    {
      "place_name": "Claudelands",
      "postal_code": "3257",
      "country_code": "NZ",
      "latitude": -37.7833,
      "longitude": 175.2833,
      "admin_name1": "Waikato"
    },
    {
      "place_name": "Motumaoho",
      "postal_code": "3372",
      "country_code": "NZ",
      "latitude": -37.7,
      "longitude": 175.45,
      "admin_name1": "Waikato"
    },
    {
      "place_name": "Kennedys Bay",
      "postal_code": "3583",
      "country_code": "NZ",
      "latitude": -36.6833,
      "longitude": 175.55,
      "admin_name1": "Waikato"
    },
    {
      "place_name": "Te Awamutu",
      "postal_code": "3840",
      "country_code": "NZ",
      "latitude": -38.0082,
      "longitude": 175.3302,
      "admin_name1": "Waikato"
    },
    {
      "place_name": "Paekakariki",
      "postal_code": "5258",
      "country_code": "NZ",
      "latitude": -40.9854,
      "longitude": 174.9545,
      "admin_name1": "Wellington"
    },
    {
      "place_name": "Pirinoa",
      "postal_code": "5772",
      "country_code": "NZ",
      "latitude": -41.35,
      "longitude": 175.2,
      "admin_name1": "Wellington"
    },
    {
      "place_name": "Franz Josef/Waiau",
      "postal_code": "7856",
      "country_code": "NZ",
      "latitude": -43.3891,
      "longitude": 170.1819,
      "admin_name1": "West Coast"
    },
    {
      "place_name": "Glendene",
      "postal_code": "0645",
      "country_code": "NZ",
      "latitude": -36.8882,
      "longitude": 174.6402,
      "admin_name1": "Auckland"
    },
    {
      "place_name": "Patumahoe",
      "postal_code": "2344",
      "country_code": "NZ",
      "latitude": -37.1833,
      "longitude": 174.8333,
      "admin_name1": "Auckland"
    },
    {
      "place_name": "Ngongotaha",
      "postal_code": "3041",
      "country_code": "NZ",
      "latitude": -38.0833,
      "longitude": 176.2,
      "admin_name1": "Bay of Plenty"
    },
    {
      "place_name": "Waimangu",
      "postal_code": "3073",
      "country_code": "NZ",
      "latitude": -38.284,
      "longitude": 176.3826,
      "admin_name1": "Bay of Plenty"
    },
    {
      "place_name": "Charwell Forks",
      "postal_code": "7373",
      "country_code": "NZ",
      "latitude": -42.4167,
      "longitude": 173.3667,
      "admin_name1": "Canterbury"
    },
    {
      "place_name": "Waitohi Flat",
      "postal_code": "7985",
      "country_code": "NZ",
      "latitude": -44.2167,
      "longitude": 171.1833,
      "admin_name1": "Canterbury"
    },
    {
      "place_name": "Hei Hei",
      "postal_code": "8042",
      "country_code": "NZ",
      "latitude": -43.5283,
      "longitude": 172.5201,
      "admin_name1": "Canterbury"
    },
    {
      "place_name": "Tamarau",
      "postal_code": "4041",
      "country_code": "NZ",
      "latitude": -38.6782,
      "longitude": 178.0502,
      "admin_name1": "Gisborne"
    },
    {
      "place_name": "Pehiri",
      "postal_code": "4072",
      "country_code": "NZ",
      "latitude": -38.6333,
      "longitude": 177.7,
      "admin_name1": "Gisborne"
    },
    {
      "place_name": "Tolaga Bay",
      "postal_code": "4077",
      "country_code": "NZ",
      "latitude": -38.3667,
      "longitude": 178.3,
      "admin_name1": "Gisborne"
    },
    {
      "place_name": "Patangata",
      "postal_code": "4271",
      "country_code": "NZ",
      "latitude": -39.9167,
      "longitude": 176.7167,
      "admin_name1": "Hawke's Bay"
    },
    {
      "place_name": "Waituna West",
      "postal_code": "4779",
      "country_code": "NZ",
      "latitude": -40.05,
      "longitude": 175.6167,
      "admin_name1": "Manawatu-Wanganui"
    },
    {
      "place_name": "Whakatahuri",
      "postal_code": "7284",
      "country_code": "NZ",
      "latitude": -41.0167,
      "longitude": 174.0333,
      "admin_name1": "Marlborough"
    },
    {
      "place_name": "Otangarei",
      "postal_code": "0141",
      "country_code": "NZ",
      "latitude": -35.6882,
      "longitude": 174.3102,
      "admin_name1": "Northland"
    },
    {
      "place_name": "Tutukaka",
      "postal_code": "0153",
      "country_code": "NZ",
      "latitude": -35.6,
      "longitude": 174.5333,
      "admin_name1": "Northland"
    },
    {
      "place_name": "Whangarei Heads",
      "postal_code": "0174",
      "country_code": "NZ",
      "latitude": -35.8167,
      "longitude": 174.5,
      "admin_name1": "Northland"
    },
    {
      "place_name": "Maungakaramea",
      "postal_code": "0178",
      "country_code": "NZ",
      "latitude": -35.85,
      "longitude": 174.2167,
      "admin_name1": "Northland"
    },
    {
      "place_name": "Puketona",
      "postal_code": "0293",
      "country_code": "NZ",
      "latitude": -35.3,
      "longitude": 173.9667,
      "admin_name1": "Northland"
    },
    {
      "place_name": "Whatoro",
      "postal_code": "0379",
      "country_code": "NZ",
      "latitude": -35.75,
      "longitude": 173.6833,
      "admin_name1": "Northland"
    },
    {
      "place_name": "Ahipara",
      "postal_code": "0449",
      "country_code": "NZ",
      "latitude": -35.1667,
      "longitude": 173.1667,
      "admin_name1": "Northland"
    },
    {
      "place_name": "Mangawhai Heads",
      "postal_code": "0505",
      "country_code": "NZ",
      "latitude": -36.0882,
      "longitude": 174.5702,
      "admin_name1": "Northland"
    },
    {
      "place_name": "Matakohe",
      "postal_code": "0550",
      "country_code": "NZ",
      "latitude": -36.1333,
      "longitude": 174.1833,
      "admin_name1": "Northland"
    },
    {
      "place_name": "Portobello",
      "postal_code": "9077",
      "country_code": "NZ",
      "latitude": -45.85,
      "longitude": 170.65,
      "admin_name1": "Otago"
    },
    {
      "place_name": "Makarora",
      "postal_code": "9346",
      "country_code": "NZ",
      "latitude": -44.2333,
      "longitude": 169.2333,
      "admin_name1": "Otago"
    },
    {
      "place_name": "Raes Junction",
      "postal_code": "9588",
      "country_code": "NZ",
      "latitude": -45.7833,
      "longitude": 169.4667,
      "admin_name1": "Otago"
    },
    {
      "place_name": "Mokoreta",
      "postal_code": "9892",
      "country_code": "NZ",
      "latitude": -46.4333,
      "longitude": 169.0667,
      "admin_name1": "Southland"
    },
    {
      "place_name": "Moturoa",
      "postal_code": "4344",
      "country_code": "NZ",
      "latitude": -39.0643,
      "longitude": 174.0356,
      "admin_name1": "Taranaki"
    },
    {
      "place_name": "Uruti",
      "postal_code": "4379",
      "country_code": "NZ",
      "latitude": -38.95,
      "longitude": 174.5333,
      "admin_name1": "Taranaki"
    },
    {
      "place_name": "Nukuhau",
      "postal_code": "4591",
      "country_code": "NZ",
      "latitude": -39.6,
      "longitude": 174.6667,
      "admin_name1": "Taranaki"
    },
    {
      "place_name": "Pukeatua",
      "postal_code": "3494",
      "country_code": "NZ",
      "latitude": -38.0667,
      "longitude": 175.55,
      "admin_name1": "Waikato"
    },
    {
      "place_name": "Tairua",
      "postal_code": "3508",
      "country_code": "NZ",
      "latitude": -37.0167,
      "longitude": 175.85,
      "admin_name1": "Waikato"
    },
    {
      "place_name": "Wharepuhunga",
      "postal_code": "3872",
      "country_code": "NZ",
      "latitude": -38.1333,
      "longitude": 175.45,
      "admin_name1": "Waikato"
    },
    {
      "place_name": "Ranui Heights",
      "postal_code": "5240",
      "country_code": "NZ",
      "latitude": -41.1383,
      "longitude": 174.8402,
      "admin_name1": "Wellington"
    },
    {
      "place_name": "Onepoto",
      "postal_code": "5242",
      "country_code": "NZ",
      "latitude": -41.1083,
      "longitude": 174.8402,
      "admin_name1": "Wellington"
    },
    {
      "place_name": "Karori",
      "postal_code": "6147",
      "country_code": "NZ",
      "latitude": -41.2837,
      "longitude": 174.7414,
      "admin_name1": "Wellington"
    },
    {
      "place_name": "Rewanui",
      "postal_code": "7803",
      "country_code": "NZ",
      "latitude": -42.3833,
      "longitude": 171.3167,
      "admin_name1": "West Coast"
    },
    {
      "place_name": "Kowhitirangi",
      "postal_code": "7883",
      "country_code": "NZ",
      "latitude": -42.8667,
      "longitude": 171.0167,
      "admin_name1": "West Coast"
    },
    {
      "place_name": "Oparara",
      "postal_code": "7893",
      "country_code": "NZ",
      "latitude": -41.2167,
      "longitude": 172.1167,
      "admin_name1": "West Coast"
    },
    {
      "place_name": "Riwaka",
      "postal_code": "7146",
      "country_code": "NZ",
      "latitude": -41.0833,
      "longitude": 173.0,
      "admin_name1": "Tasman"
    },
    {
      "place_name": "Waiouru",
      "postal_code": "4861",
      "country_code": "NZ",
      "latitude": -40.3394,
      "longitude": 175.4771,
      "admin_name1": null
    },
    {
      "place_name": "Port Motueka",
      "postal_code": "7143",
      "country_code": "NZ",
      "latitude": -41.1083,
      "longitude": 173.0958,
      "admin_name1": null
    },
    {
      "place_name": "Karekare",
      "postal_code": "0772",
      "country_code": "NZ",
      "latitude": -36.9833,
      "longitude": 174.4833,
      "admin_name1": "Auckland"
    },
    {
      "place_name": "Parakakau",
      "postal_code": "0873",
      "country_code": "NZ",
      "latitude": -36.5833,
      "longitude": 174.6,
      "admin_name1": "Auckland"
    },
    {
      "place_name": "Point Chevalier",
      "postal_code": "1022",
      "country_code": "NZ",
      "latitude": -36.8633,
      "longitude": 174.7049,
      "admin_name1": "Auckland"
    },
    {
      "place_name": "Botany Downs",
      "postal_code": "2143",
      "country_code": "NZ",
      "latitude": -36.906,
      "longitude": 174.9179,
      "admin_name1": "Auckland"
    },
    {
      "place_name": "Paengaroa",
      "postal_code": "3189",
      "country_code": "NZ",
      "latitude": -37.8167,
      "longitude": 176.4167,
      "admin_name1": "Bay of Plenty"
    },
    {
      "place_name": "Prebbleton",
      "postal_code": "7604",
      "country_code": "NZ",
      "latitude": -43.5833,
      "longitude": 172.5167,
      "admin_name1": "Canterbury"
    },
    {
      "place_name": "Cashmere Hills",
      "postal_code": "8022",
      "country_code": "NZ",
      "latitude": -43.5833,
      "longitude": 172.6333,
      "admin_name1": "Canterbury"
    },
    {
      "place_name": "Diamond Harbour",
      "postal_code": "8941",
      "country_code": "NZ",
      "latitude": -43.6289,
      "longitude": 172.7254,
      "admin_name1": "Canterbury"
    },
    {
      "place_name": "Elsthorpe",
      "postal_code": "4295",
      "country_code": "NZ",
      "latitude": -39.9167,
      "longitude": 176.8167,
      "admin_name1": "Hawke's Bay"
    },
    {
      "place_name": "Takaro",
      "postal_code": "4442",
      "country_code": "NZ",
      "latitude": -40.3579,
      "longitude": 175.5897,
      "admin_name1": "Manawatu-Wanganui"
    },
    {
      "place_name": "Silverhope",
      "postal_code": "4784",
      "country_code": "NZ",
      "latitude": -39.9659,
      "longitude": 175.5283,
      "admin_name1": "Manawatu-Wanganui"
    },
    {
      "place_name": "Kawakawa",
      "postal_code": "0210",
      "country_code": "NZ",
      "latitude": -35.3833,
      "longitude": 174.0667,
      "admin_name1": "Northland"
    },
    {
      "place_name": "Waipapa",
      "postal_code": "0295",
      "country_code": "NZ",
      "latitude": -35.2,
      "longitude": 173.9167,
      "admin_name1": "Northland"
    },
    {
      "place_name": "Mihiwaka",
      "postal_code": "9081",
      "country_code": "NZ",
      "latitude": -45.8,
      "longitude": 170.6333,
      "admin_name1": "Otago"
    },
    {
      "place_name": "Moa Creek",
      "postal_code": "9387",
      "country_code": "NZ",
      "latitude": -45.2,
      "longitude": 169.65,
      "admin_name1": "Otago"
    },
    {
      "place_name": "Oamaru",
      "postal_code": "9444",
      "country_code": "NZ",
      "latitude": -45.0976,
      "longitude": 170.9709,
      "admin_name1": "Otago"
    },
    {
      "place_name": "Millers Flat",
      "postal_code": "9544",
      "country_code": "NZ",
      "latitude": -45.6631,
      "longitude": 169.4117,
      "admin_name1": "Otago"
    },
    {
      "place_name": "Roxburgh Hydro",
      "postal_code": "9571",
      "country_code": "NZ",
      "latitude": -45.4803,
      "longitude": 169.3128,
      "admin_name1": "Otago"
    },
    {
      "place_name": "Lepperton",
      "postal_code": "4373",
      "country_code": "NZ",
      "latitude": -39.0667,
      "longitude": 174.2167,
      "admin_name1": "Taranaki"
    },
    {
      "place_name": "Dawson Falls",
      "postal_code": "4391",
      "country_code": "NZ",
      "latitude": -39.3238,
      "longitude": 174.1046,
      "admin_name1": "Taranaki"
    },
    {
      "place_name": "Kaponga",
      "postal_code": "4642",
      "country_code": "NZ",
      "latitude": -39.4333,
      "longitude": 174.15,
      "admin_name1": "Taranaki"
    },
    {
      "place_name": "Kaawa",
      "postal_code": "2695",
      "country_code": "NZ",
      "latitude": -37.5108,
      "longitude": 174.8836,
      "admin_name1": "Waikato"
    },
    {
      "place_name": "Parawai",
      "postal_code": "3577",
      "country_code": "NZ",
      "latitude": -37.1499,
      "longitude": 175.5599,
      "admin_name1": "Waikato"
    },
    {
      "place_name": "Pirongia",
      "postal_code": "3802",
      "country_code": "NZ",
      "latitude": -38.0,
      "longitude": 175.2,
      "admin_name1": "Waikato"
    },
    {
      "place_name": "Muritai",
      "postal_code": "5013",
      "country_code": "NZ",
      "latitude": -41.3025,
      "longitude": 174.892,
      "admin_name1": "Wellington"
    },
    {
      "place_name": "Korokoro",
      "postal_code": "5016",
      "country_code": "NZ",
      "latitude": -41.2167,
      "longitude": 174.8667,
      "admin_name1": "Wellington"
    },
    {
      "place_name": "Elsdon",
      "postal_code": "5022",
      "country_code": "NZ",
      "latitude": -41.1283,
      "longitude": 174.8202,
      "admin_name1": "Wellington"
    },
    {
      "place_name": "Bell Hill",
      "postal_code": "7872",
      "country_code": "NZ",
      "latitude": -42.55,
      "longitude": 171.6,
      "admin_name1": "West Coast"
    },
    {
      "place_name": "Brightwater",
      "postal_code": "7091",
      "country_code": "NZ",
      "latitude": -41.3833,
      "longitude": 173.1167,
      "admin_name1": "Tasman"
    },
    {
      "place_name": "Papatoetoe",
      "postal_code": "2156",
      "country_code": "NZ",
      "latitude": -36.9682,
      "longitude": 174.8402,
      "admin_name1": "Auckland"
    },
    {
      "place_name": "Waikuku Beach",
      "postal_code": "7448",
      "country_code": "NZ",
      "latitude": -43.2833,
      "longitude": 172.7167,
      "admin_name1": "Canterbury"
    },
    {
      "place_name": "North Loburn",
      "postal_code": "7474",
      "country_code": "NZ",
      "latitude": -43.2167,
      "longitude": 172.5,
      "admin_name1": "Canterbury"
    },
    {
      "place_name": "Coalgate",
      "postal_code": "7646",
      "country_code": "NZ",
      "latitude": -43.4833,
      "longitude": 171.9667,
      "admin_name1": "Canterbury"
    },
    {
      "place_name": "Temuka",
      "postal_code": "7948",
      "country_code": "NZ",
      "latitude": -44.2283,
      "longitude": 171.2801,
      "admin_name1": "Canterbury"
    },
    {
      "place_name": "Kurow",
      "postal_code": "9446",
      "country_code": "NZ",
      "latitude": -44.7334,
      "longitude": 170.4696,
      "admin_name1": "Canterbury"
    },
    {
      "place_name": "Rangitukia",
      "postal_code": "4049",
      "country_code": "NZ",
      "latitude": -37.7667,
      "longitude": 178.45,
      "admin_name1": "Gisborne"
    },
    {
      "place_name": "Whangara",
      "postal_code": "4073",
      "country_code": "NZ",
      "latitude": -38.5667,
      "longitude": 178.2167,
      "admin_name1": "Gisborne"
    },
    {
      "place_name": "Flaxmere",
      "postal_code": "4175",
      "country_code": "NZ",
      "latitude": -39.6182,
      "longitude": 176.7802,
      "admin_name1": "Hawke's Bay"
    },
    {
      "place_name": "Tikokino",
      "postal_code": "4274",
      "country_code": "NZ",
      "latitude": -39.8167,
      "longitude": 176.45,
      "admin_name1": "Hawke's Bay"
    },
    {
      "place_name": "Pukehou",
      "postal_code": "4276",
      "country_code": "NZ",
      "latitude": -39.8333,
      "longitude": 176.6333,
      "admin_name1": "Hawke's Bay"
    },
    {
      "place_name": "Raumati",
      "postal_code": "4976",
      "country_code": "NZ",
      "latitude": -40.1908,
      "longitude": 176.1463,
      "admin_name1": "Manawatu-Wanganui"
    },
    {
      "place_name": "Hopelands",
      "postal_code": "4997",
      "country_code": "NZ",
      "latitude": -40.3522,
      "longitude": 175.9528,
      "admin_name1": "Manawatu-Wanganui"
    },
    {
      "place_name": "Tira-ora",
      "postal_code": "7195",
      "country_code": "NZ",
      "latitude": -41.0833,
      "longitude": 173.8667,
      "admin_name1": "Marlborough"
    },
    {
      "place_name": "Taimate",
      "postal_code": "7285",
      "country_code": "NZ",
      "latitude": -41.7833,
      "longitude": 174.15,
      "admin_name1": "Marlborough"
    },
    {
      "place_name": "Opua",
      "postal_code": "0241",
      "country_code": "NZ",
      "latitude": -35.3167,
      "longitude": 174.1167,
      "admin_name1": "Northland"
    },
    {
      "place_name": "Haruru",
      "postal_code": "0271",
      "country_code": "NZ",
      "latitude": -35.2807,
      "longitude": 174.0543,
      "admin_name1": "Northland"
    },
    {
      "place_name": "Tangaihe",
      "postal_code": "0391",
      "country_code": "NZ",
      "latitude": -36.1667,
      "longitude": 174.0167,
      "admin_name1": "Northland"
    },
    {
      "place_name": "Waimamaku",
      "postal_code": "0446",
      "country_code": "NZ",
      "latitude": -35.5563,
      "longitude": 173.4782,
      "admin_name1": "Northland"
    },
    {
      "place_name": "Kohukohu",
      "postal_code": "0453",
      "country_code": "NZ",
      "latitude": -35.35,
      "longitude": 173.5333,
      "admin_name1": "Northland"
    },
    {
      "place_name": "Tokoiti",
      "postal_code": "9292",
      "country_code": "NZ",
      "latitude": -46.1333,
      "longitude": 170.0,
      "admin_name1": "Otago"
    },
    {
      "place_name": "Wanaka",
      "postal_code": "9305",
      "country_code": "NZ",
      "latitude": -44.7,
      "longitude": 169.15,
      "admin_name1": "Otago"
    },
    {
      "place_name": "Bridge Hill",
      "postal_code": "9320",
      "country_code": "NZ",
      "latitude": -45.2584,
      "longitude": 169.3801,
      "admin_name1": "Otago"
    },
    {
      "place_name": "Saint Bathans",
      "postal_code": "9386",
      "country_code": "NZ",
      "latitude": -44.8667,
      "longitude": 169.8167,
      "admin_name1": "Otago"
    },
    {
      "place_name": "Waiareka Junction",
      "postal_code": "9401",
      "country_code": "NZ",
      "latitude": -45.1,
      "longitude": 170.9333,
      "admin_name1": "Otago"
    },
    {
      "place_name": "Conical Hills",
      "postal_code": "9771",
      "country_code": "NZ",
      "latitude": -46.0667,
      "longitude": 169.2333,
      "admin_name1": "Otago"
    },
    {
      "place_name": "Pukerau",
      "postal_code": "9772",
      "country_code": "NZ",
      "latitude": -46.1,
      "longitude": 169.1,
      "admin_name1": "Southland"
    },
    {
      "place_name": "Puniwhakau",
      "postal_code": "4392",
      "country_code": "NZ",
      "latitude": -39.3282,
      "longitude": 174.6165,
      "admin_name1": "Taranaki"
    },
    {
      "place_name": "Matapu",
      "postal_code": "4675",
      "country_code": "NZ",
      "latitude": -39.4833,
      "longitude": 174.2333,
      "admin_name1": "Taranaki"
    },
    {
      "place_name": "Kaupokonui",
      "postal_code": "4678",
      "country_code": "NZ",
      "latitude": -39.55,
      "longitude": 174.0667,
      "admin_name1": "Taranaki"
    },
    {
      "place_name": "Coroglen",
      "postal_code": "3591",
      "country_code": "NZ",
      "latitude": -36.9167,
      "longitude": 175.7,
      "admin_name1": "Waikato"
    },
    {
      "place_name": "Waiterimu",
      "postal_code": "3784",
      "country_code": "NZ",
      "latitude": -37.45,
      "longitude": 175.3,
      "admin_name1": "Waikato"
    },
    {
      "place_name": "Riversdale Beach",
      "postal_code": "5872",
      "country_code": "NZ",
      "latitude": -41.0883,
      "longitude": 176.0702,
      "admin_name1": "Wellington"
    },
    {
      "place_name": "Strathmore Park",
      "postal_code": "6244",
      "country_code": "NZ",
      "latitude": -41.3289,
      "longitude": 174.8199,
      "admin_name1": "Wellington"
    },
    {
      "place_name": "Ngaio",
      "postal_code": "6441",
      "country_code": "NZ",
      "latitude": -41.2504,
      "longitude": 174.7739,
      "admin_name1": "Wellington"
    },
    {
      "place_name": "Hokitika",
      "postal_code": "7842",
      "country_code": "NZ",
      "latitude": -42.7167,
      "longitude": 170.9667,
      "admin_name1": "West Coast"
    },
    {
      "place_name": "Mokihinui Mine",
      "postal_code": "7891",
      "country_code": "NZ",
      "latitude": -41.5833,
      "longitude": 172.0167,
      "admin_name1": "West Coast"
    },
    {
      "place_name": "Takaka",
      "postal_code": "7110",
      "country_code": "NZ",
      "latitude": -40.85,
      "longitude": 172.8,
      "admin_name1": "Tasman"
    },
    {
      "place_name": "Market Cross",
      "postal_code": "7864",
      "country_code": "NZ",
      "latitude": -42.1545,
      "longitude": 171.3757,
      "admin_name1": null
    },
    {
      "place_name": "Half-moon Bay",
      "postal_code": "9846",
      "country_code": "NZ",
      "latitude": -46.4024,
      "longitude": 168.4223,
      "admin_name1": null
    },
    {
      "place_name": "Woodcocks",
      "postal_code": "0981",
      "country_code": "NZ",
      "latitude": -36.45,
      "longitude": 174.5667,
      "admin_name1": "Auckland"
    },
    {
      "place_name": "Ahuroa",
      "postal_code": "0984",
      "country_code": "NZ",
      "latitude": -36.4753,
      "longitude": 174.5542,
      "admin_name1": "Auckland"
    },
    {
      "place_name": "Auckland",
      "postal_code": "1010",
      "country_code": "NZ",
      "latitude": -36.8485,
      "longitude": 174.7635,
      "admin_name1": "Auckland"
    },
    {
      "place_name": "Kohimarama",
      "postal_code": "1071",
      "country_code": "NZ",
      "latitude": -36.8582,
      "longitude": 174.8402,
      "admin_name1": "Auckland"
    },
    {
      "place_name": "Whakamarama",
      "postal_code": "3176",
      "country_code": "NZ",
      "latitude": -37.7333,
      "longitude": 176.0,
      "admin_name1": "Bay of Plenty"
    },
    {
      "place_name": "Tai Tapu",
      "postal_code": "7645",
      "country_code": "NZ",
      "latitude": -43.6667,
      "longitude": 172.55,
      "admin_name1": "Canterbury"
    },
    {
      "place_name": "Whitecliffs",
      "postal_code": "7673",
      "country_code": "NZ",
      "latitude": -43.4667,
      "longitude": 171.9,
      "admin_name1": "Canterbury"
    },
    {
      "place_name": "Dunsandel",
      "postal_code": "7682",
      "country_code": "NZ",
      "latitude": -43.6667,
      "longitude": 172.1833,
      "admin_name1": "Canterbury"
    },
    {
      "place_name": "Te Karaka",
      "postal_code": "4042",
      "country_code": "NZ",
      "latitude": -38.4667,
      "longitude": 177.8667,
      "admin_name1": "Gisborne"
    },
    {
      "place_name": "Te Awanga",
      "postal_code": "4172",
      "country_code": "NZ",
      "latitude": -39.6333,
      "longitude": 176.9833,
      "admin_name1": "Hawke's Bay"
    },
    {
      "place_name": "Hunterville",
      "postal_code": "4745",
      "country_code": "NZ",
      "latitude": -39.9366,
      "longitude": 175.5684,
      "admin_name1": "Manawatu-Wanganui"
    },
    {
      "place_name": "Kapowai",
      "postal_code": "7193",
      "country_code": "NZ",
      "latitude": -40.9,
      "longitude": 173.8333,
      "admin_name1": "Marlborough"
    },
    {
      "place_name": "Marangai",
      "postal_code": "0475",
      "country_code": "NZ",
      "latitude": -35.3333,
      "longitude": 173.7167,
      "admin_name1": "Northland"
    },
    {
      "place_name": "Saies",
      "postal_code": "0479",
      "country_code": "NZ",
      "latitude": -35.05,
      "longitude": 173.7,
      "admin_name1": "Northland"
    },
    {
      "place_name": "Huarau",
      "postal_code": "0589",
      "country_code": "NZ",
      "latitude": -36.1,
      "longitude": 174.3,
      "admin_name1": "Northland"
    },
    {
      "place_name": "Park Hill",
      "postal_code": "9587",
      "country_code": "NZ",
      "latitude": -45.8167,
      "longitude": 169.2167,
      "admin_name1": "Otago"
    },
    {
      "place_name": "Taupo",
      "postal_code": "3352",
      "country_code": "NZ",
      "latitude": -38.6833,
      "longitude": 176.0833,
      "admin_name1": "Waikato"
    },
    {
      "place_name": "Mokau",
      "postal_code": "4350",
      "country_code": "NZ",
      "latitude": -38.6974,
      "longitude": 174.6192,
      "admin_name1": "Waikato"
    },
    {
      "place_name": "Alicetown",
      "postal_code": "5040",
      "country_code": "NZ",
      "latitude": -41.2083,
      "longitude": 174.8902,
      "admin_name1": "Wellington"
    },
    {
      "place_name": "Lower Hutt",
      "postal_code": "5042",
      "country_code": "NZ",
      "latitude": -41.2167,
      "longitude": 174.9167,
      "admin_name1": "Wellington"
    },
    {
      "place_name": "Parkvale",
      "postal_code": "5792",
      "country_code": "NZ",
      "latitude": -41.05,
      "longitude": 175.55,
      "admin_name1": "Wellington"
    },
    {
      "place_name": "Ohariu",
      "postal_code": "6037",
      "country_code": "NZ",
      "latitude": -41.2,
      "longitude": 174.7667,
      "admin_name1": "Wellington"
    },
    {
      "place_name": "Rongotai",
      "postal_code": "6241",
      "country_code": "NZ",
      "latitude": -41.3212,
      "longitude": 174.8016,
      "admin_name1": "Wellington"
    },
    {
      "place_name": "Ahaura",
      "postal_code": "7843",
      "country_code": "NZ",
      "latitude": -42.3492,
      "longitude": 171.5393,
      "admin_name1": "West Coast"
    },
    {
      "place_name": "Waimangaroa",
      "postal_code": "7848",
      "country_code": "NZ",
      "latitude": -41.7167,
      "longitude": 171.7667,
      "admin_name1": "West Coast"
    },
    {
      "place_name": "Whataroa",
      "postal_code": "7857",
      "country_code": "NZ",
      "latitude": -43.2833,
      "longitude": 170.4167,
      "admin_name1": "West Coast"
    },
    {
      "place_name": "Lake Rotoroa",
      "postal_code": "7072",
      "country_code": "NZ",
      "latitude": -41.8,
      "longitude": 172.6,
      "admin_name1": "Tasman"
    },
    {
      "place_name": "Aohanga",
      "postal_code": "4991",
      "country_code": "NZ",
      "latitude": -40.4885,
      "longitude": 175.9457,
      "admin_name1": null
    },
    {
      "place_name": "Orewa",
      "postal_code": "0946",
      "country_code": "NZ",
      "latitude": -36.5667,
      "longitude": 174.7,
      "admin_name1": "Auckland"
    },
    {
      "place_name": "Te Hana",
      "postal_code": "0974",
      "country_code": "NZ",
      "latitude": -36.2667,
      "longitude": 174.5167,
      "admin_name1": "Auckland"
    },
    {
      "place_name": "Mount Roskill",
      "postal_code": "1041",
      "country_code": "NZ",
      "latitude": -36.9082,
      "longitude": 174.7302,
      "admin_name1": "Auckland"
    },
    {
      "place_name": "Point England",
      "postal_code": "1743",
      "country_code": "NZ",
      "latitude": -36.8782,
      "longitude": 174.8602,
      "admin_name1": "Auckland"
    },
    {
      "place_name": "Pukekohe",
      "postal_code": "2120",
      "country_code": "NZ",
      "latitude": -37.202,
      "longitude": 174.9036,
      "admin_name1": "Auckland"
    },
    {
      "place_name": "Takanini",
      "postal_code": "2245",
      "country_code": "NZ",
      "latitude": -37.0482,
      "longitude": 174.9002,
      "admin_name1": "Auckland"
    },
    {
      "place_name": "Mauku",
      "postal_code": "2678",
      "country_code": "NZ",
      "latitude": -37.2,
      "longitude": 174.8167,
      "admin_name1": "Auckland"
    },
    {
      "place_name": "Lower Kaimai",
      "postal_code": "3171",
      "country_code": "NZ",
      "latitude": -37.8,
      "longitude": 176.0333,
      "admin_name1": "Bay of Plenty"
    },
    {
      "place_name": "Te Pirita",
      "postal_code": "7783",
      "country_code": "NZ",
      "latitude": -43.6667,
      "longitude": 171.95,
      "admin_name1": "Canterbury"
    },
    {
      "place_name": "Turakina",
      "postal_code": "4581",
      "country_code": "NZ",
      "latitude": -40.047,
      "longitude": 175.2147,
      "admin_name1": "Manawatu-Wanganui"
    },
    {
      "place_name": "Utiku",
      "postal_code": "4794",
      "country_code": "NZ",
      "latitude": -39.7334,
      "longitude": 175.8438,
      "admin_name1": "Manawatu-Wanganui"
    },
    {
      "place_name": "Sanson",
      "postal_code": "4817",
      "country_code": "NZ",
      "latitude": -40.2201,
      "longitude": 175.4245,
      "admin_name1": "Manawatu-Wanganui"
    },
    {
      "place_name": "Moengawahine",
      "postal_code": "0176",
      "country_code": "NZ",
      "latitude": -35.6333,
      "longitude": 174.05,
      "admin_name1": "Northland"
    },
    {
      "place_name": "Manawaora",
      "postal_code": "0272",
      "country_code": "NZ",
      "latitude": -35.2833,
      "longitude": 174.2,
      "admin_name1": "Northland"
    },
    {
      "place_name": "Baylys Beach",
      "postal_code": "0377",
      "country_code": "NZ",
      "latitude": -35.9523,
      "longitude": 173.747,
      "admin_name1": "Northland"
    },
    {
      "place_name": "Tarras",
      "postal_code": "9347",
      "country_code": "NZ",
      "latitude": -44.8333,
      "longitude": 169.4167,
      "admin_name1": "Otago"
    },
    {
      "place_name": "Kauru Hill",
      "postal_code": "9492",
      "country_code": "NZ",
      "latitude": -45.1,
      "longitude": 170.75,
      "admin_name1": "Otago"
    },
    {
      "place_name": "Atiamuri",
      "postal_code": "3078",
      "country_code": "NZ",
      "latitude": -38.3833,
      "longitude": 176.0167,
      "admin_name1": "Waikato"
    },
    {
      "place_name": "Nevesville",
      "postal_code": "3578",
      "country_code": "NZ",
      "latitude": -37.1667,
      "longitude": 175.7,
      "admin_name1": "Waikato"
    },
    {
      "place_name": "Waitanguru",
      "postal_code": "3971",
      "country_code": "NZ",
      "latitude": -38.3833,
      "longitude": 174.8667,
      "admin_name1": "Waikato"
    },
    {
      "place_name": "Maoribank",
      "postal_code": "5018",
      "country_code": "NZ",
      "latitude": -41.1083,
      "longitude": 175.0902,
      "admin_name1": "Wellington"
    },
    {
      "place_name": "Pukerua Bay",
      "postal_code": "5381",
      "country_code": "NZ",
      "latitude": -41.0333,
      "longitude": 174.9,
      "admin_name1": "Wellington"
    },
    {
      "place_name": "Carters Beach",
      "postal_code": "7866",
      "country_code": "NZ",
      "latitude": -41.75,
      "longitude": 171.5667,
      "admin_name1": "West Coast"
    },
    {
      "place_name": "Fergusons",
      "postal_code": "7885",
      "country_code": "NZ",
      "latitude": -42.9667,
      "longitude": 170.7333,
      "admin_name1": "West Coast"
    },
    {
      "place_name": "East Takaka",
      "postal_code": "7183",
      "country_code": "NZ",
      "latitude": -40.9167,
      "longitude": 172.8333,
      "admin_name1": "Tasman"
    },
    {
      "place_name": "Otara",
      "postal_code": "2159",
      "country_code": "NZ",
      "latitude": -36.9482,
      "longitude": 174.8702,
      "admin_name1": "Auckland"
    },
    {
      "place_name": "Ruatahuna",
      "postal_code": "3079",
      "country_code": "NZ",
      "latitude": -38.6138,
      "longitude": 176.9592,
      "admin_name1": "Bay of Plenty"
    },
    {
      "place_name": "Tinwald",
      "postal_code": "7741",
      "country_code": "NZ",
      "latitude": -43.9167,
      "longitude": 171.7167,
      "admin_name1": "Canterbury"
    },
    {
      "place_name": "Dorie",
      "postal_code": "7781",
      "country_code": "NZ",
      "latitude": -43.8833,
      "longitude": 172.15,
      "admin_name1": "Canterbury"
    },
    {
      "place_name": "Upper Riccarton",
      "postal_code": "8442",
      "country_code": "NZ",
      "latitude": -43.5283,
      "longitude": 172.5701,
      "admin_name1": "Canterbury"
    },
    {
      "place_name": "Waimarama",
      "postal_code": "4294",
      "country_code": "NZ",
      "latitude": -39.8,
      "longitude": 176.9833,
      "admin_name1": "Hawke's Bay"
    },
    {
      "place_name": "Kakatahi",
      "postal_code": "4586",
      "country_code": "NZ",
      "latitude": -39.6833,
      "longitude": 175.3333,
      "admin_name1": "Manawatu-Wanganui"
    },
    {
      "place_name": "Tangimoana",
      "postal_code": "4822",
      "country_code": "NZ",
      "latitude": -40.3,
      "longitude": 175.25,
      "admin_name1": "Manawatu-Wanganui"
    },
    {
      "place_name": "Rai Valley",
      "postal_code": "7145",
      "country_code": "NZ",
      "latitude": -41.2333,
      "longitude": 173.5833,
      "admin_name1": "Marlborough"
    },
    {
      "place_name": "Mamaranui",
      "postal_code": "0373",
      "country_code": "NZ",
      "latitude": -35.8333,
      "longitude": 173.75,
      "admin_name1": "Northland"
    },
    {
      "place_name": "Mangonui",
      "postal_code": "0442",
      "country_code": "NZ",
      "latitude": -34.9905,
      "longitude": 173.5317,
      "admin_name1": "Northland"
    },
    {
      "place_name": "Sawyers Bay",
      "postal_code": "9023",
      "country_code": "NZ",
      "latitude": -45.8333,
      "longitude": 170.6,
      "admin_name1": "Otago"
    },
    {
      "place_name": "Aramoana",
      "postal_code": "9082",
      "country_code": "NZ",
      "latitude": -45.7833,
      "longitude": 170.7,
      "admin_name1": "Otago"
    },
    {
      "place_name": "Lower Shotover",
      "postal_code": "9304",
      "country_code": "NZ",
      "latitude": -44.9833,
      "longitude": 168.7667,
      "admin_name1": "Otago"
    },
    {
      "place_name": "Lake Hawea",
      "postal_code": "9345",
      "country_code": "NZ",
      "latitude": -44.6084,
      "longitude": 169.2601,
      "admin_name1": "Otago"
    },
    {
      "place_name": "Makarora Wharf",
      "postal_code": "9382",
      "country_code": "NZ",
      "latitude": -44.3167,
      "longitude": 169.1833,
      "admin_name1": "Otago"
    },
    {
      "place_name": "Awarua Plains",
      "postal_code": "9877",
      "country_code": "NZ",
      "latitude": -46.4833,
      "longitude": 168.3833,
      "admin_name1": "Southland"
    },
    {
      "place_name": "Te Kowhai",
      "postal_code": "3288",
      "country_code": "NZ",
      "latitude": -37.75,
      "longitude": 175.15,
      "admin_name1": "Waikato"
    },
    {
      "place_name": "Waerenga",
      "postal_code": "3781",
      "country_code": "NZ",
      "latitude": -37.3667,
      "longitude": 175.2333,
      "admin_name1": "Waikato"
    },
    {
      "place_name": "Kihikihi",
      "postal_code": "3879",
      "country_code": "NZ",
      "latitude": -38.0333,
      "longitude": 175.35,
      "admin_name1": "Waikato"
    },
    {
      "place_name": "Ikamatua",
      "postal_code": "7846",
      "country_code": "NZ",
      "latitude": -42.2667,
      "longitude": 171.6833,
      "admin_name1": "West Coast"
    },
    {
      "place_name": "Browns Bay",
      "postal_code": "0630",
      "country_code": "NZ",
      "latitude": -36.7193,
      "longitude": 174.7367,
      "admin_name1": "Auckland"
    },
    {
      "place_name": "Snells Beach",
      "postal_code": "0942",
      "country_code": "NZ",
      "latitude": -36.4082,
      "longitude": 174.7202,
      "admin_name1": "Auckland"
    },
    {
      "place_name": "Greenlane",
      "postal_code": "1543",
      "country_code": "NZ",
      "latitude": -36.8906,
      "longitude": 174.7943,
      "admin_name1": "Auckland"
    },
    {
      "place_name": "Mamaku",
      "postal_code": "3020",
      "country_code": "NZ",
      "latitude": -38.1,
      "longitude": 176.0833,
      "admin_name1": "Bay of Plenty"
    },
    {
      "place_name": "Glenholme",
      "postal_code": "3044",
      "country_code": "NZ",
      "latitude": -38.1487,
      "longitude": 176.2471,
      "admin_name1": "Bay of Plenty"
    },
    {
      "place_name": "Otumoetai",
      "postal_code": "3145",
      "country_code": "NZ",
      "latitude": -37.6716,
      "longitude": 176.1386,
      "admin_name1": "Bay of Plenty"
    },
    {
      "place_name": "Wigram",
      "postal_code": "8443",
      "country_code": "NZ",
      "latitude": -43.55,
      "longitude": 172.55,
      "admin_name1": "Canterbury"
    },
    {
      "place_name": "Akina",
      "postal_code": "4122",
      "country_code": "NZ",
      "latitude": -39.6482,
      "longitude": 176.8402,
      "admin_name1": "Hawke's Bay"
    },
    {
      "place_name": "Tamatea",
      "postal_code": "4147",
      "country_code": "NZ",
      "latitude": -39.5082,
      "longitude": 176.8602,
      "admin_name1": "Hawke's Bay"
    },
    {
      "place_name": "Saint Leonards",
      "postal_code": "4153",
      "country_code": "NZ",
      "latitude": -39.6282,
      "longitude": 176.8302,
      "admin_name1": "Hawke's Bay"
    },
    {
      "place_name": "Nuhaka",
      "postal_code": "4165",
      "country_code": "NZ",
      "latitude": -39.05,
      "longitude": 177.75,
      "admin_name1": "Hawke's Bay"
    },
    {
      "place_name": "Gonville",
      "postal_code": "4501",
      "country_code": "NZ",
      "latitude": -39.9388,
      "longitude": 175.0457,
      "admin_name1": "Manawatu-Wanganui"
    },
    {
      "place_name": "Turakina South",
      "postal_code": "4547",
      "country_code": "NZ",
      "latitude": -40.0515,
      "longitude": 175.2188,
      "admin_name1": "Manawatu-Wanganui"
    },
    {
      "place_name": "Mangaweka",
      "postal_code": "4746",
      "country_code": "NZ",
      "latitude": -39.8094,
      "longitude": 175.7888,
      "admin_name1": "Manawatu-Wanganui"
    },
    {
      "place_name": "Kiwitea",
      "postal_code": "4777",
      "country_code": "NZ",
      "latitude": -40.1167,
      "longitude": 175.7333,
      "admin_name1": "Manawatu-Wanganui"
    },
    {
      "place_name": "Maungatapere",
      "postal_code": "0179",
      "country_code": "NZ",
      "latitude": -35.75,
      "longitude": 174.2,
      "admin_name1": "Northland"
    },
    {
      "place_name": "Mangawhai",
      "postal_code": "0540",
      "country_code": "NZ",
      "latitude": -36.1167,
      "longitude": 174.5667,
      "admin_name1": "Northland"
    },
    {
      "place_name": "Ruawai",
      "postal_code": "0549",
      "country_code": "NZ",
      "latitude": -36.1333,
      "longitude": 174.0333,
      "admin_name1": "Northland"
    },
    {
      "place_name": "Matakanui",
      "postal_code": "9376",
      "country_code": "NZ",
      "latitude": -45.0167,
      "longitude": 169.5667,
      "admin_name1": "Otago"
    },
    {
      "place_name": "Tuatapere",
      "postal_code": "9620",
      "country_code": "NZ",
      "latitude": -46.1333,
      "longitude": 167.6833,
      "admin_name1": "Southland"
    },
    {
      "place_name": "The Key",
      "postal_code": "9672",
      "country_code": "NZ",
      "latitude": -45.55,
      "longitude": 167.9,
      "admin_name1": "Southland"
    },
    {
      "place_name": "Wendon Valley",
      "postal_code": "9773",
      "country_code": "NZ",
      "latitude": -45.8833,
      "longitude": 168.9667,
      "admin_name1": "Southland"
    },
    {
      "place_name": "Hawthorndale",
      "postal_code": "9845",
      "country_code": "NZ",
      "latitude": -46.3984,
      "longitude": 168.3801,
      "admin_name1": "Southland"
    },
    {
      "place_name": "Otatara",
      "postal_code": "9879",
      "country_code": "NZ",
      "latitude": -46.4333,
      "longitude": 168.3,
      "admin_name1": "Southland"
    },
    {
      "place_name": "Horotiu",
      "postal_code": "3262",
      "country_code": "NZ",
      "latitude": -37.7167,
      "longitude": 175.2,
      "admin_name1": "Waikato"
    },
    {
      "place_name": "Rangitaiki",
      "postal_code": "3379",
      "country_code": "NZ",
      "latitude": -38.8792,
      "longitude": 176.3729,
      "admin_name1": "Waikato"
    },
    {
      "place_name": "Tokoroa",
      "postal_code": "3444",
      "country_code": "NZ",
      "latitude": -38.2333,
      "longitude": 175.8667,
      "admin_name1": "Waikato"
    },
    {
      "place_name": "Bruntwood",
      "postal_code": "3493",
      "country_code": "NZ",
      "latitude": -37.85,
      "longitude": 175.4333,
      "admin_name1": "Waikato"
    },
    {
      "place_name": "Granity",
      "postal_code": "7823",
      "country_code": "NZ",
      "latitude": -41.6333,
      "longitude": 171.85,
      "admin_name1": "West Coast"
    },
    {
      "place_name": "Mechanics Bay",
      "postal_code": "1140",
      "country_code": "NZ",
      "latitude": -36.8382,
      "longitude": 174.7802,
      "admin_name1": "Auckland"
    },
    {
      "place_name": "Mission Bay",
      "postal_code": "1744",
      "country_code": "NZ",
      "latitude": -36.8547,
      "longitude": 174.8317,
      "admin_name1": "Auckland"
    },
    {
      "place_name": "Orakei",
      "postal_code": "1745",
      "country_code": "NZ",
      "latitude": -36.85,
      "longitude": 174.8167,
      "admin_name1": "Auckland"
    },
    {
      "place_name": "Owhata",
      "postal_code": "3042",
      "country_code": "NZ",
      "latitude": -38.1326,
      "longitude": 176.2982,
      "admin_name1": "Bay of Plenty"
    },
    {
      "place_name": "Opotiki",
      "postal_code": "3162",
      "country_code": "NZ",
      "latitude": -38.0091,
      "longitude": 177.2871,
      "admin_name1": "Bay of Plenty"
    },
    {
      "place_name": "Highbank",
      "postal_code": "7782",
      "country_code": "NZ",
      "latitude": -43.6167,
      "longitude": 171.75,
      "admin_name1": "Canterbury"
    },
    {
      "place_name": "Waihaorunga",
      "postal_code": "7977",
      "country_code": "NZ",
      "latitude": -44.75,
      "longitude": 170.8167,
      "admin_name1": "Canterbury"
    },
    {
      "place_name": "Arundel",
      "postal_code": "7992",
      "country_code": "NZ",
      "latitude": -43.9833,
      "longitude": 171.2833,
      "admin_name1": "Canterbury"
    },
    {
      "place_name": "Kaingapai",
      "postal_code": "9498",
      "country_code": "NZ",
      "latitude": -44.6,
      "longitude": 170.5667,
      "admin_name1": "Canterbury"
    },
    {
      "place_name": "Matiere",
      "postal_code": "3995",
      "country_code": "NZ",
      "latitude": -38.75,
      "longitude": 175.1,
      "admin_name1": "Manawatu-Wanganui"
    },
    {
      "place_name": "Upokonui",
      "postal_code": "4575",
      "country_code": "NZ",
      "latitude": -39.7833,
      "longitude": 175.2167,
      "admin_name1": "Manawatu-Wanganui"
    },
    {
      "place_name": "Ohakune",
      "postal_code": "4625",
      "country_code": "NZ",
      "latitude": -39.4082,
      "longitude": 175.4002,
      "admin_name1": "Manawatu-Wanganui"
    },
    {
      "place_name": "Erehwon",
      "postal_code": "4792",
      "country_code": "NZ",
      "latitude": -39.5165,
      "longitude": 175.9651,
      "admin_name1": "Manawatu-Wanganui"
    },
    {
      "place_name": "Bulls",
      "postal_code": "4863",
      "country_code": "NZ",
      "latitude": -40.1749,
      "longitude": 175.3846,
      "admin_name1": "Manawatu-Wanganui"
    },
    {
      "place_name": "Kiritaki",
      "postal_code": "4972",
      "country_code": "NZ",
      "latitude": -40.2392,
      "longitude": 175.9827,
      "admin_name1": "Manawatu-Wanganui"
    },
    {
      "place_name": "Puwera",
      "postal_code": "0170",
      "country_code": "NZ",
      "latitude": -35.7833,
      "longitude": 174.2833,
      "admin_name1": "Northland"
    },
    {
      "place_name": "Whangaruru North",
      "postal_code": "0184",
      "country_code": "NZ",
      "latitude": -35.35,
      "longitude": 174.35,
      "admin_name1": "Northland"
    },
    {
      "place_name": "Dargaville",
      "postal_code": "0310",
      "country_code": "NZ",
      "latitude": -35.9333,
      "longitude": 173.8833,
      "admin_name1": "Northland"
    },
    {
      "place_name": "Pukenui",
      "postal_code": "0460",
      "country_code": "NZ",
      "latitude": -34.8167,
      "longitude": 173.1167,
      "admin_name1": "Northland"
    },
    {
      "place_name": "Manukau",
      "postal_code": "0481",
      "country_code": "NZ",
      "latitude": -35.2333,
      "longitude": 173.2167,
      "admin_name1": "Northland"
    },
    {
      "place_name": "Te Kao",
      "postal_code": "0484",
      "country_code": "NZ",
      "latitude": -34.65,
      "longitude": 172.95,
      "admin_name1": "Northland"
    },
    {
      "place_name": "Waitati",
      "postal_code": "9069",
      "country_code": "NZ",
      "latitude": -45.75,
      "longitude": 170.5667,
      "admin_name1": "Otago"
    },
    {
      "place_name": "Tokarahi",
      "postal_code": "9491",
      "country_code": "NZ",
      "latitude": -44.95,
      "longitude": 170.65,
      "admin_name1": "Otago"
    },
    {
      "place_name": "Frankleigh Park",
      "postal_code": "4343",
      "country_code": "NZ",
      "latitude": -39.0782,
      "longitude": 174.0602,
      "admin_name1": "Taranaki"
    },
    {
      "place_name": "Kaimiro",
      "postal_code": "4386",
      "country_code": "NZ",
      "latitude": -39.2,
      "longitude": 174.15,
      "admin_name1": "Taranaki"
    },
    {
      "place_name": "Te Uku",
      "postal_code": "3266",
      "country_code": "NZ",
      "latitude": -37.8333,
      "longitude": 174.9667,
      "admin_name1": "Waikato"
    },
    {
      "place_name": "Tirohia",
      "postal_code": "3673",
      "country_code": "NZ",
      "latitude": -37.4333,
      "longitude": 175.65,
      "admin_name1": "Waikato"
    },
    {
      "place_name": "Pukekapia",
      "postal_code": "3771",
      "country_code": "NZ",
      "latitude": -37.5333,
      "longitude": 175.1167,
      "admin_name1": "Waikato"
    },
    {
      "place_name": "Grenada North",
      "postal_code": "5028",
      "country_code": "NZ",
      "latitude": -41.1897,
      "longitude": 174.8412,
      "admin_name1": "Wellington"
    },
    {
      "place_name": "Reikorangi",
      "postal_code": "5391",
      "country_code": "NZ",
      "latitude": -40.9,
      "longitude": 175.0833,
      "admin_name1": "Wellington"
    },
    {
      "place_name": "Cross Creek",
      "postal_code": "5773",
      "country_code": "NZ",
      "latitude": -41.1667,
      "longitude": 175.2167,
      "admin_name1": "Wellington"
    },
    {
      "place_name": "Tapawera",
      "postal_code": "7055",
      "country_code": "NZ",
      "latitude": -41.4,
      "longitude": 172.8167,
      "admin_name1": "Tasman"
    },
    {
      "place_name": "Motupiko",
      "postal_code": "7096",
      "country_code": "NZ",
      "latitude": -41.45,
      "longitude": 172.8,
      "admin_name1": "Tasman"
    },
    {
      "place_name": "Maruia",
      "postal_code": "7862",
      "country_code": "NZ",
      "latitude": -42.1545,
      "longitude": 171.3757,
      "admin_name1": null
    },
    {
      "place_name": "Hauraki",
      "postal_code": "0740",
      "country_code": "NZ",
      "latitude": -36.7996,
      "longitude": 174.778,
      "admin_name1": "Auckland"
    },
    {
      "place_name": "Otahuhu",
      "postal_code": "1640",
      "country_code": "NZ",
      "latitude": -36.9382,
      "longitude": 174.8402,
      "admin_name1": "Auckland"
    },
    {
      "place_name": "Tihiotonga",
      "postal_code": "3048",
      "country_code": "NZ",
      "latitude": -38.1726,
      "longitude": 176.2432,
      "admin_name1": "Bay of Plenty"
    },
    {
      "place_name": "Oropi",
      "postal_code": "3173",
      "country_code": "NZ",
      "latitude": -37.8395,
      "longitude": 176.1611,
      "admin_name1": "Bay of Plenty"
    },
    {
      "place_name": "Omihi",
      "postal_code": "7483",
      "country_code": "NZ",
      "latitude": -43.0167,
      "longitude": 172.85,
      "admin_name1": "Canterbury"
    },
    {
      "place_name": "Wainui",
      "postal_code": "7582",
      "country_code": "NZ",
      "latitude": -43.8167,
      "longitude": 172.9,
      "admin_name1": "Canterbury"
    },
    {
      "place_name": "Fendalton",
      "postal_code": "8041",
      "country_code": "NZ",
      "latitude": -43.5167,
      "longitude": 172.6,
      "admin_name1": "Canterbury"
    },
    {
      "place_name": "Pohangina",
      "postal_code": "4884",
      "country_code": "NZ",
      "latitude": -40.1734,
      "longitude": 175.7943,
      "admin_name1": "Manawatu-Wanganui"
    },
    {
      "place_name": "Waimiro",
      "postal_code": "4990",
      "country_code": "NZ",
      "latitude": -40.45,
      "longitude": 176.2333,
      "admin_name1": "Manawatu-Wanganui"
    },
    {
      "place_name": "Ohau",
      "postal_code": "5570",
      "country_code": "NZ",
      "latitude": -40.6667,
      "longitude": 175.25,
      "admin_name1": "Manawatu-Wanganui"
    },
    {
      "place_name": "Purerua",
      "postal_code": "0294",
      "country_code": "NZ",
      "latitude": -35.15,
      "longitude": 174.0333,
      "admin_name1": "Northland"
    },
    {
      "place_name": "Kaitangata",
      "postal_code": "9281",
      "country_code": "NZ",
      "latitude": -46.275,
      "longitude": 169.85,
      "admin_name1": "Otago"
    },
    {
      "place_name": "Otautau",
      "postal_code": "9610",
      "country_code": "NZ",
      "latitude": -46.15,
      "longitude": 168.0,
      "admin_name1": "Southland"
    },
    {
      "place_name": "Gummies Bush",
      "postal_code": "9883",
      "country_code": "NZ",
      "latitude": -46.2833,
      "longitude": 168.0167,
      "admin_name1": "Southland"
    },
    {
      "place_name": "Okaiawa",
      "postal_code": "4671",
      "country_code": "NZ",
      "latitude": -39.5333,
      "longitude": 174.2,
      "admin_name1": "Taranaki"
    },
    {
      "place_name": "Aramiro",
      "postal_code": "3285",
      "country_code": "NZ",
      "latitude": -37.8918,
      "longitude": 175.0318,
      "admin_name1": "Waikato"
    },
    {
      "place_name": "Waitoa",
      "postal_code": "3310",
      "country_code": "NZ",
      "latitude": -37.6167,
      "longitude": 175.6333,
      "admin_name1": "Waikato"
    },
    {
      "place_name": "Manawaru",
      "postal_code": "3391",
      "country_code": "NZ",
      "latitude": -37.6333,
      "longitude": 175.7667,
      "admin_name1": "Waikato"
    },
    {
      "place_name": "Kawhia",
      "postal_code": "3889",
      "country_code": "NZ",
      "latitude": -38.0667,
      "longitude": 174.8167,
      "admin_name1": "Waikato"
    },
    {
      "place_name": "Parakai",
      "postal_code": "0830",
      "country_code": "NZ",
      "latitude": -36.65,
      "longitude": 174.4333,
      "admin_name1": "Auckland"
    },
    {
      "place_name": "Whangaparaoa",
      "postal_code": "0930",
      "country_code": "NZ",
      "latitude": -36.6333,
      "longitude": 174.7667,
      "admin_name1": "Auckland"
    },
    {
      "place_name": "Favona",
      "postal_code": "2151",
      "country_code": "NZ",
      "latitude": -36.9333,
      "longitude": 174.8,
      "admin_name1": "Auckland"
    },
    {
      "place_name": "Homai",
      "postal_code": "2240",
      "country_code": "NZ",
      "latitude": -37.0167,
      "longitude": 174.8833,
      "admin_name1": "Auckland"
    },
    {
      "place_name": "Waipipi",
      "postal_code": "2683",
      "country_code": "NZ",
      "latitude": -37.2167,
      "longitude": 174.6667,
      "admin_name1": "Auckland"
    },
    {
      "place_name": "Taneatua",
      "postal_code": "3123",
      "country_code": "NZ",
      "latitude": -38.0667,
      "longitude": 177.0167,
      "admin_name1": "Bay of Plenty"
    },
    {
      "place_name": "Hairini",
      "postal_code": "3148",
      "country_code": "NZ",
      "latitude": -37.7333,
      "longitude": 176.1667,
      "admin_name1": "Bay of Plenty"
    },
    {
      "place_name": "Kaikoura Suburban",
      "postal_code": "7340",
      "country_code": "NZ",
      "latitude": -42.3833,
      "longitude": 173.65,
      "admin_name1": "Canterbury"
    },
    {
      "place_name": "Masons Flat",
      "postal_code": "7385",
      "country_code": "NZ",
      "latitude": -42.9,
      "longitude": 172.55,
      "admin_name1": "Canterbury"
    },
    {
      "place_name": "Doyleston",
      "postal_code": "7548",
      "country_code": "NZ",
      "latitude": -43.75,
      "longitude": 172.3,
      "admin_name1": "Canterbury"
    },
    {
      "place_name": "Waihao Forks",
      "postal_code": "7979",
      "country_code": "NZ",
      "latitude": -44.8,
      "longitude": 170.9333,
      "admin_name1": "Canterbury"
    },
    {
      "place_name": "Sherwood Downs",
      "postal_code": "7990",
      "country_code": "NZ",
      "latitude": -43.9667,
      "longitude": 170.8667,
      "admin_name1": "Canterbury"
    },
    {
      "place_name": "Te Puia",
      "postal_code": "4048",
      "country_code": "NZ",
      "latitude": -38.0667,
      "longitude": 178.3,
      "admin_name1": "Gisborne"
    },
    {
      "place_name": "Awapuni",
      "postal_code": "4412",
      "country_code": "NZ",
      "latitude": -40.3762,
      "longitude": 175.5838,
      "admin_name1": "Manawatu-Wanganui"
    },
    {
      "place_name": "Mowhanau",
      "postal_code": "4574",
      "country_code": "NZ",
      "latitude": -39.8667,
      "longitude": 174.9,
      "admin_name1": "Manawatu-Wanganui"
    },
    {
      "place_name": "Te Ranga",
      "postal_code": "4696",
      "country_code": "NZ",
      "latitude": -39.3,
      "longitude": 175.2,
      "admin_name1": "Manawatu-Wanganui"
    },
    {
      "place_name": "Umutoi",
      "postal_code": "4771",
      "country_code": "NZ",
      "latitude": -40.0,
      "longitude": 175.9667,
      "admin_name1": "Manawatu-Wanganui"
    },
    {
      "place_name": "Raketapauma",
      "postal_code": "4791",
      "country_code": "NZ",
      "latitude": -39.5513,
      "longitude": 175.65,
      "admin_name1": "Manawatu-Wanganui"
    },
    {
      "place_name": "Waiotira",
      "postal_code": "0193",
      "country_code": "NZ",
      "latitude": -35.9333,
      "longitude": 174.2,
      "admin_name1": "Northland"
    },
    {
      "place_name": "Gimmerburn",
      "postal_code": "9395",
      "country_code": "NZ",
      "latitude": -45.1667,
      "longitude": 170.0,
      "admin_name1": "Otago"
    },
    {
      "place_name": "Kokonga",
      "postal_code": "9397",
      "country_code": "NZ",
      "latitude": -45.2167,
      "longitude": 170.25,
      "admin_name1": "Otago"
    },
    {
      "place_name": "Waiongona",
      "postal_code": "4389",
      "country_code": "NZ",
      "latitude": -39.1,
      "longitude": 174.2167,
      "admin_name1": "Taranaki"
    },
    {
      "place_name": "Huinga",
      "postal_code": "4393",
      "country_code": "NZ",
      "latitude": -39.357,
      "longitude": 174.4335,
      "admin_name1": "Taranaki"
    },
    {
      "place_name": "Waiteika",
      "postal_code": "4682",
      "country_code": "NZ",
      "latitude": -39.4833,
      "longitude": 173.9,
      "admin_name1": "Taranaki"
    },
    {
      "place_name": "Upper Kahui",
      "postal_code": "4684",
      "country_code": "NZ",
      "latitude": -39.3167,
      "longitude": 173.8833,
      "admin_name1": "Taranaki"
    },
    {
      "place_name": "Kaiaua",
      "postal_code": "2473",
      "country_code": "NZ",
      "latitude": -37.1111,
      "longitude": 175.2962,
      "admin_name1": "Waikato"
    },
    {
      "place_name": "Otorohanga",
      "postal_code": "3900",
      "country_code": "NZ",
      "latitude": -38.1833,
      "longitude": 175.2,
      "admin_name1": "Waikato"
    },
    {
      "place_name": "Pinehaven",
      "postal_code": "5019",
      "country_code": "NZ",
      "latitude": -41.1583,
      "longitude": 175.0002,
      "admin_name1": "Wellington"
    },
    {
      "place_name": "Matakitaki",
      "postal_code": "7077",
      "country_code": "NZ",
      "latitude": -41.9667,
      "longitude": 172.3333,
      "admin_name1": "Tasman"
    },
    {
      "place_name": "Brighams Creek",
      "postal_code": "0662",
      "country_code": "NZ",
      "latitude": -36.7833,
      "longitude": 174.6,
      "admin_name1": "Auckland"
    },
    {
      "place_name": "Surfdale",
      "postal_code": "1081",
      "country_code": "NZ",
      "latitude": -36.7911,
      "longitude": 175.0257,
      "admin_name1": "Auckland"
    },
    {
      "place_name": "Pakuranga",
      "postal_code": "2140",
      "country_code": "NZ",
      "latitude": -36.8833,
      "longitude": 174.9167,
      "admin_name1": "Auckland"
    },
    {
      "place_name": "Maraetai",
      "postal_code": "2148",
      "country_code": "NZ",
      "latitude": -36.8833,
      "longitude": 175.05,
      "admin_name1": "Auckland"
    },
    {
      "place_name": "Sunnybrook",
      "postal_code": "3015",
      "country_code": "NZ",
      "latitude": -38.1482,
      "longitude": 176.2102,
      "admin_name1": "Bay of Plenty"
    },
    {
      "place_name": "Omanu Beach",
      "postal_code": "3152",
      "country_code": "NZ",
      "latitude": -37.67,
      "longitude": 176.229,
      "admin_name1": "Bay of Plenty"
    },
    {
      "place_name": "Cheviot",
      "postal_code": "7341",
      "country_code": "NZ",
      "latitude": -42.8167,
      "longitude": 173.2667,
      "admin_name1": "Canterbury"
    },
    {
      "place_name": "West Eyreton",
      "postal_code": "7471",
      "country_code": "NZ",
      "latitude": -43.35,
      "longitude": 172.3833,
      "admin_name1": "Canterbury"
    },
    {
      "place_name": "Avonside",
      "postal_code": "8148",
      "country_code": "NZ",
      "latitude": -43.5183,
      "longitude": 172.6601,
      "admin_name1": "Canterbury"
    },
    {
      "place_name": "Kairanga",
      "postal_code": "4475",
      "country_code": "NZ",
      "latitude": -40.35,
      "longitude": 175.5333,
      "admin_name1": "Manawatu-Wanganui"
    },
    {
      "place_name": "Tahoraiti",
      "postal_code": "4975",
      "country_code": "NZ",
      "latitude": -40.2335,
      "longitude": 176.0597,
      "admin_name1": "Manawatu-Wanganui"
    },
    {
      "place_name": "Koputaroa",
      "postal_code": "5575",
      "country_code": "NZ",
      "latitude": -40.5778,
      "longitude": 175.3384,
      "admin_name1": "Manawatu-Wanganui"
    },
    {
      "place_name": "Manaroa",
      "postal_code": "7282",
      "country_code": "NZ",
      "latitude": -41.1167,
      "longitude": 174.0333,
      "admin_name1": "Marlborough"
    },
    {
      "place_name": "Pakaraka",
      "postal_code": "0472",
      "country_code": "NZ",
      "latitude": -35.35,
      "longitude": 173.95,
      "admin_name1": "Northland"
    },
    {
      "place_name": "Waitahuna",
      "postal_code": "9593",
      "country_code": "NZ",
      "latitude": -45.9833,
      "longitude": 169.7667,
      "admin_name1": "Otago"
    },
    {
      "place_name": "Okoki",
      "postal_code": "4375",
      "country_code": "NZ",
      "latitude": -39.0167,
      "longitude": 174.4833,
      "admin_name1": "Taranaki"
    },
    {
      "place_name": "Oparau",
      "postal_code": "3885",
      "country_code": "NZ",
      "latitude": -38.05,
      "longitude": 174.9167,
      "admin_name1": "Waikato"
    },
    {
      "place_name": "Karehana Bay",
      "postal_code": "5026",
      "country_code": "NZ",
      "latitude": -41.0719,
      "longitude": 174.8575,
      "admin_name1": "Wellington"
    },
    {
      "place_name": "Maungaraki",
      "postal_code": "5050",
      "country_code": "NZ",
      "latitude": -41.2083,
      "longitude": 174.8702,
      "admin_name1": "Wellington"
    },
    {
      "place_name": "Raumati Beach",
      "postal_code": "5255",
      "country_code": "NZ",
      "latitude": -40.9167,
      "longitude": 174.9833,
      "admin_name1": "Wellington"
    },
    {
      "place_name": "Kaiwharawhara",
      "postal_code": "6144",
      "country_code": "NZ",
      "latitude": -41.2667,
      "longitude": 174.7833,
      "admin_name1": "Wellington"
    },
    {
      "place_name": "Berhampore",
      "postal_code": "6242",
      "country_code": "NZ",
      "latitude": -41.3215,
      "longitude": 174.7754,
      "admin_name1": "Wellington"
    },
    {
      "place_name": "Paremoremo",
      "postal_code": "0756",
      "country_code": "NZ",
      "latitude": -36.7667,
      "longitude": 174.6667,
      "admin_name1": "Auckland"
    },
    {
      "place_name": "Huapai",
      "postal_code": "0841",
      "country_code": "NZ",
      "latitude": -36.7667,
      "longitude": 174.55,
      "admin_name1": "Auckland"
    },
    {
      "place_name": "Waiwera",
      "postal_code": "0950",
      "country_code": "NZ",
      "latitude": -36.55,
      "longitude": 174.7167,
      "admin_name1": "Auckland"
    },
    {
      "place_name": "Manurewa East",
      "postal_code": "2105",
      "country_code": "NZ",
      "latitude": -37.0182,
      "longitude": 174.9102,
      "admin_name1": "Auckland"
    },
    {
      "place_name": "Pukekohe East",
      "postal_code": "2677",
      "country_code": "NZ",
      "latitude": -37.2,
      "longitude": 174.95,
      "admin_name1": "Auckland"
    },
    {
      "place_name": "Seadown",
      "postal_code": "7973",
      "country_code": "NZ",
      "latitude": -44.3,
      "longitude": 171.2667,
      "admin_name1": "Canterbury"
    },
    {
      "place_name": "Opoiti",
      "postal_code": "4196",
      "country_code": "NZ",
      "latitude": -38.8883,
      "longitude": 177.4928,
      "admin_name1": "Hawke's Bay"
    },
    {
      "place_name": "Ngaturi",
      "postal_code": "4982",
      "country_code": "NZ",
      "latitude": -40.4682,
      "longitude": 175.9227,
      "admin_name1": "Manawatu-Wanganui"
    },
    {
      "place_name": "Tikipunga",
      "postal_code": "0144",
      "country_code": "NZ",
      "latitude": -35.6882,
      "longitude": 174.3202,
      "admin_name1": "Northland"
    },
    {
      "place_name": "Marohemo",
      "postal_code": "0583",
      "country_code": "NZ",
      "latitude": -36.1833,
      "longitude": 174.3,
      "admin_name1": "Northland"
    },
    {
      "place_name": "Outram",
      "postal_code": "9019",
      "country_code": "NZ",
      "latitude": -45.8667,
      "longitude": 170.2333,
      "admin_name1": "Otago"
    },
    {
      "place_name": "Island Cliff",
      "postal_code": "9494",
      "country_code": "NZ",
      "latitude": -44.95,
      "longitude": 170.6667,
      "admin_name1": "Otago"
    },
    {
      "place_name": "Ahimia",
      "postal_code": "3581",
      "country_code": "NZ",
      "latitude": -36.85,
      "longitude": 175.4833,
      "admin_name1": "Waikato"
    },
    {
      "place_name": "Taupiri",
      "postal_code": "3721",
      "country_code": "NZ",
      "latitude": -37.6167,
      "longitude": 175.1833,
      "admin_name1": "Waikato"
    },
    {
      "place_name": "Orini",
      "postal_code": "3792",
      "country_code": "NZ",
      "latitude": -37.5667,
      "longitude": 175.3,
      "admin_name1": "Waikato"
    },
    {
      "place_name": "Arapae",
      "postal_code": "3981",
      "country_code": "NZ",
      "latitude": -38.4167,
      "longitude": 175.0833,
      "admin_name1": "Waikato"
    },
    {
      "place_name": "Naenae",
      "postal_code": "5044",
      "country_code": "NZ",
      "latitude": -41.1983,
      "longitude": 174.9402,
      "admin_name1": "Wellington"
    },
    {
      "place_name": "Pahautea",
      "postal_code": "5781",
      "country_code": "NZ",
      "latitude": -41.2333,
      "longitude": 175.3833,
      "admin_name1": "Wellington"
    },
    {
      "place_name": "Aickens",
      "postal_code": "7875",
      "country_code": "NZ",
      "latitude": -42.7833,
      "longitude": 171.6167,
      "admin_name1": "West Coast"
    },
    {
      "place_name": "Mahitahi",
      "postal_code": "7886",
      "country_code": "NZ",
      "latitude": -42.9033,
      "longitude": 170.8867,
      "admin_name1": null
    },
    {
      "place_name": "Wellsford",
      "postal_code": "0900",
      "country_code": "NZ",
      "latitude": -36.2833,
      "longitude": 174.5167,
      "admin_name1": "Auckland"
    },
    {
      "place_name": "Saint Heliers",
      "postal_code": "1740",
      "country_code": "NZ",
      "latitude": -36.85,
      "longitude": 174.8667,
      "admin_name1": "Auckland"
    },
    {
      "place_name": "Waikopua",
      "postal_code": "2571",
      "country_code": "NZ",
      "latitude": -36.9167,
      "longitude": 174.9833,
      "admin_name1": "Auckland"
    },
    {
      "place_name": "Greerton",
      "postal_code": "3142",
      "country_code": "NZ",
      "latitude": -37.7254,
      "longitude": 176.1335,
      "admin_name1": "Bay of Plenty"
    },
    {
      "place_name": "Domett",
      "postal_code": "7383",
      "country_code": "NZ",
      "latitude": -42.85,
      "longitude": 173.2167,
      "admin_name1": "Canterbury"
    },
    {
      "place_name": "Hororata",
      "postal_code": "7544",
      "country_code": "NZ",
      "latitude": -43.5333,
      "longitude": 171.95,
      "admin_name1": "Canterbury"
    },
    {
      "place_name": "Ataahua",
      "postal_code": "7591",
      "country_code": "NZ",
      "latitude": -43.7833,
      "longitude": 172.65,
      "admin_name1": "Canterbury"
    },
    {
      "place_name": "Puhuka",
      "postal_code": "7941",
      "country_code": "NZ",
      "latitude": -44.3583,
      "longitude": 171.2301,
      "admin_name1": "Canterbury"
    },
    {
      "place_name": "Glentanner",
      "postal_code": "7946",
      "country_code": "NZ",
      "latitude": -43.9073,
      "longitude": 170.1234,
      "admin_name1": "Canterbury"
    },
    {
      "place_name": "Tiniroto",
      "postal_code": "4078",
      "country_code": "NZ",
      "latitude": -38.7667,
      "longitude": 177.5667,
      "admin_name1": "Gisborne"
    },
    {
      "place_name": "HASTINGS",
      "postal_code": "4120",
      "country_code": "NZ",
      "latitude": -39.6381,
      "longitude": 176.8492,
      "admin_name1": "Hawke's Bay"
    },
    {
      "place_name": "Takapau",
      "postal_code": "4203",
      "country_code": "NZ",
      "latitude": -40.0333,
      "longitude": 176.35,
      "admin_name1": "Hawke's Bay"
    },
    {
      "place_name": "Onga Onga",
      "postal_code": "4244",
      "country_code": "NZ",
      "latitude": -39.9167,
      "longitude": 176.4167,
      "admin_name1": "Hawke's Bay"
    },
    {
      "place_name": "Waitewhenua",
      "postal_code": "3979",
      "country_code": "NZ",
      "latitude": -38.7,
      "longitude": 174.9667,
      "admin_name1": "Manawatu-Wanganui"
    },
    {
      "place_name": "Okahukura",
      "postal_code": "3996",
      "country_code": "NZ",
      "latitude": -38.7833,
      "longitude": 175.2167,
      "admin_name1": "Manawatu-Wanganui"
    },
    {
      "place_name": "Nireaha",
      "postal_code": "4995",
      "country_code": "NZ",
      "latitude": -40.615,
      "longitude": 175.6529,
      "admin_name1": "Manawatu-Wanganui"
    },
    {
      "place_name": "Tinline",
      "postal_code": "7192",
      "country_code": "NZ",
      "latitude": -41.2667,
      "longitude": 173.5,
      "admin_name1": "Marlborough"
    },
    {
      "place_name": "Waro",
      "postal_code": "0114",
      "country_code": "NZ",
      "latitude": -35.5833,
      "longitude": 174.3,
      "admin_name1": "Northland"
    },
    {
      "place_name": "Kairara",
      "postal_code": "0372",
      "country_code": "NZ",
      "latitude": -35.8,
      "longitude": 173.8167,
      "admin_name1": "Northland"
    },
    {
      "place_name": "Tautoro",
      "postal_code": "0474",
      "country_code": "NZ",
      "latitude": -35.4667,
      "longitude": 173.8333,
      "admin_name1": "Northland"
    },
    {
      "place_name": "Stoneburn",
      "postal_code": "9481",
      "country_code": "NZ",
      "latitude": -45.4333,
      "longitude": 170.5667,
      "admin_name1": "Otago"
    },
    {
      "place_name": "Waikoikoi",
      "postal_code": "9775",
      "country_code": "NZ",
      "latitude": -46.0167,
      "longitude": 169.15,
      "admin_name1": "Otago"
    },
    {
      "place_name": "Waianiwa",
      "postal_code": "9874",
      "country_code": "NZ",
      "latitude": -46.3,
      "longitude": 168.2667,
      "admin_name1": "Southland"
    },
    {
      "place_name": "Ratapiko",
      "postal_code": "4390",
      "country_code": "NZ",
      "latitude": -39.2,
      "longitude": 174.3167,
      "admin_name1": "Taranaki"
    },
    {
      "place_name": "Waitotara",
      "postal_code": "4549",
      "country_code": "NZ",
      "latitude": -39.8,
      "longitude": 174.7333,
      "admin_name1": "Taranaki"
    },
    {
      "place_name": "Wairakei",
      "postal_code": "3332",
      "country_code": "NZ",
      "latitude": -38.6333,
      "longitude": 176.1,
      "admin_name1": "Waikato"
    },
    {
      "place_name": "Putaruru",
      "postal_code": "3483",
      "country_code": "NZ",
      "latitude": -38.0482,
      "longitude": 175.7802,
      "admin_name1": "Waikato"
    },
    {
      "place_name": "Hikuai",
      "postal_code": "3579",
      "country_code": "NZ",
      "latitude": -37.0833,
      "longitude": 175.7833,
      "admin_name1": "Waikato"
    },
    {
      "place_name": "Te Rerenga",
      "postal_code": "3582",
      "country_code": "NZ",
      "latitude": -36.75,
      "longitude": 175.6,
      "admin_name1": "Waikato"
    },
    {
      "place_name": "Wairere Falls",
      "postal_code": "3970",
      "country_code": "NZ",
      "latitude": -38.5167,
      "longitude": 175.0167,
      "admin_name1": "Waikato"
    },
    {
      "place_name": "Onekaka",
      "postal_code": "7182",
      "country_code": "NZ",
      "latitude": -40.75,
      "longitude": 172.7,
      "admin_name1": "Tasman"
    },
    {
      "place_name": "Waioruarangi",
      "postal_code": "7300",
      "country_code": "NZ",
      "latitude": -42.6475,
      "longitude": 173.0876,
      "admin_name1": null
    },
    {
      "place_name": "OTAHUHU",
      "postal_code": "1062",
      "country_code": "NZ",
      "latitude": -36.9382,
      "longitude": 174.8402,
      "admin_name1": "Auckland"
    },
    {
      "place_name": "Mount Wellington",
      "postal_code": "1642",
      "country_code": "NZ",
      "latitude": -36.9082,
      "longitude": 174.8202,
      "admin_name1": "Auckland"
    },
    {
      "place_name": "Judea",
      "postal_code": "3146",
      "country_code": "NZ",
      "latitude": -37.6953,
      "longitude": 176.1441,
      "admin_name1": "Bay of Plenty"
    },
    {
      "place_name": "Papamoa",
      "postal_code": "3187",
      "country_code": "NZ",
      "latitude": -37.7333,
      "longitude": 176.3,
      "admin_name1": "Bay of Plenty"
    },
    {
      "place_name": "Ngawaro",
      "postal_code": "3188",
      "country_code": "NZ",
      "latitude": -37.9333,
      "longitude": 176.15,
      "admin_name1": "Bay of Plenty"
    },
    {
      "place_name": "Duvauchelle",
      "postal_code": "7545",
      "country_code": "NZ",
      "latitude": -43.75,
      "longitude": 172.9333,
      "admin_name1": "Canterbury"
    },
    {
      "place_name": "Springston",
      "postal_code": "7616",
      "country_code": "NZ",
      "latitude": -43.65,
      "longitude": 172.4167,
      "admin_name1": "Canterbury"
    },
    {
      "place_name": "North New Brighton",
      "postal_code": "8842",
      "country_code": "NZ",
      "latitude": -43.4918,
      "longitude": 172.7202,
      "admin_name1": "Canterbury"
    },
    {
      "place_name": "Greenmeadows",
      "postal_code": "4145",
      "country_code": "NZ",
      "latitude": -39.5182,
      "longitude": 176.8602,
      "admin_name1": "Hawke's Bay"
    },
    {
      "place_name": "Petane",
      "postal_code": "4149",
      "country_code": "NZ",
      "latitude": -39.4131,
      "longitude": 176.8767,
      "admin_name1": "Hawke's Bay"
    },
    {
      "place_name": "Mangawhata",
      "postal_code": "4477",
      "country_code": "NZ",
      "latitude": -40.4,
      "longitude": 175.4333,
      "admin_name1": "Manawatu-Wanganui"
    },
    {
      "place_name": "Kauangaroa",
      "postal_code": "4577",
      "country_code": "NZ",
      "latitude": -39.9244,
      "longitude": 175.2829,
      "admin_name1": "Manawatu-Wanganui"
    },
    {
      "place_name": "Okoia",
      "postal_code": "4582",
      "country_code": "NZ",
      "latitude": -39.9333,
      "longitude": 175.1333,
      "admin_name1": "Manawatu-Wanganui"
    },
    {
      "place_name": "Makotuku",
      "postal_code": "4977",
      "country_code": "NZ",
      "latitude": -40.1206,
      "longitude": 176.2319,
      "admin_name1": "Manawatu-Wanganui"
    },
    {
      "place_name": "Te Rou",
      "postal_code": "7275",
      "country_code": "NZ",
      "latitude": -41.5667,
      "longitude": 173.4667,
      "admin_name1": "Marlborough"
    },
    {
      "place_name": "Waiharera",
      "postal_code": "0486",
      "country_code": "NZ",
      "latitude": -34.9333,
      "longitude": 173.2167,
      "admin_name1": "Northland"
    },
    {
      "place_name": "Topuni",
      "postal_code": "0975",
      "country_code": "NZ",
      "latitude": -36.2167,
      "longitude": 174.4667,
      "admin_name1": "Northland"
    },
    {
      "place_name": "Glenomaru",
      "postal_code": "9271",
      "country_code": "NZ",
      "latitude": -46.3833,
      "longitude": 169.6833,
      "admin_name1": "Otago"
    },
    {
      "place_name": "Wharewaka",
      "postal_code": "3330",
      "country_code": "NZ",
      "latitude": -38.7311,
      "longitude": 176.0734,
      "admin_name1": "Waikato"
    },
    {
      "place_name": "Kiwitahi",
      "postal_code": "3371",
      "country_code": "NZ",
      "latitude": -37.7,
      "longitude": 175.6,
      "admin_name1": "Waikato"
    },
    {
      "place_name": "Te Papatapu",
      "postal_code": "3894",
      "country_code": "NZ",
      "latitude": -37.95,
      "longitude": 174.8833,
      "admin_name1": "Waikato"
    },
    {
      "place_name": "Paremata",
      "postal_code": "5247",
      "country_code": "NZ",
      "latitude": -41.1167,
      "longitude": 174.8667,
      "admin_name1": "Wellington"
    },
    {
      "place_name": "Khandallah",
      "postal_code": "6035",
      "country_code": "NZ",
      "latitude": -41.2443,
      "longitude": 174.7885,
      "admin_name1": "Wellington"
    },
    {
      "place_name": "Upper Moutere",
      "postal_code": "7144",
      "country_code": "NZ",
      "latitude": -41.2667,
      "longitude": 173.0,
      "admin_name1": "Tasman"
    },
    {
      "place_name": "Huia",
      "postal_code": "0604",
      "country_code": "NZ",
      "latitude": -36.9983,
      "longitude": 174.5667,
      "admin_name1": "Auckland"
    },
    {
      "place_name": "Pohuehue",
      "postal_code": "0983",
      "country_code": "NZ",
      "latitude": -36.45,
      "longitude": 174.65,
      "admin_name1": "Auckland"
    },
    {
      "place_name": "Waterview",
      "postal_code": "1026",
      "country_code": "NZ",
      "latitude": -36.8782,
      "longitude": 174.6902,
      "admin_name1": "Auckland"
    },
    {
      "place_name": "Remuera",
      "postal_code": "1050",
      "country_code": "NZ",
      "latitude": -36.8804,
      "longitude": 174.7982,
      "admin_name1": "Auckland"
    },
    {
      "place_name": "Papakura",
      "postal_code": "2113",
      "country_code": "NZ",
      "latitude": -37.0657,
      "longitude": 174.9439,
      "admin_name1": "Auckland"
    },
    {
      "place_name": "Whakatiri",
      "postal_code": "2585",
      "country_code": "NZ",
      "latitude": -36.95,
      "longitude": 175.1167,
      "admin_name1": "Auckland"
    },
    {
      "place_name": "Waerengaahika",
      "postal_code": "4071",
      "country_code": "NZ",
      "latitude": -38.6,
      "longitude": 177.9333,
      "admin_name1": "Gisborne"
    },
    {
      "place_name": "Puk-kura",
      "postal_code": "4112",
      "country_code": "NZ",
      "latitude": -39.5233,
      "longitude": 176.8442,
      "admin_name1": "Hawke's Bay"
    },
    {
      "place_name": "Mahia",
      "postal_code": "4166",
      "country_code": "NZ",
      "latitude": -39.0872,
      "longitude": 177.9172,
      "admin_name1": "Hawke's Bay"
    },
    {
      "place_name": "Sherwood Rise",
      "postal_code": "0142",
      "country_code": "NZ",
      "latitude": -35.7487,
      "longitude": 174.3598,
      "admin_name1": "Northland"
    },
    {
      "place_name": "Hikurangi",
      "postal_code": "0150",
      "country_code": "NZ",
      "latitude": -35.6,
      "longitude": 174.3,
      "admin_name1": "Northland"
    },
    {
      "place_name": "Waihaha",
      "postal_code": "0283",
      "country_code": "NZ",
      "latitude": -35.3333,
      "longitude": 174.2333,
      "admin_name1": "Northland"
    },
    {
      "place_name": "Tainui",
      "postal_code": "9046",
      "country_code": "NZ",
      "latitude": -45.8984,
      "longitude": 170.5101,
      "admin_name1": "Otago"
    },
    {
      "place_name": "Strathern",
      "postal_code": "9844",
      "country_code": "NZ",
      "latitude": -46.4284,
      "longitude": 168.3601,
      "admin_name1": "Southland"
    },
    {
      "place_name": "Te Roti",
      "postal_code": "4673",
      "country_code": "NZ",
      "latitude": -39.4833,
      "longitude": 174.2667,
      "admin_name1": "Taranaki"
    },
    {
      "place_name": "Pauanui",
      "postal_code": "3546",
      "country_code": "NZ",
      "latitude": -37.0167,
      "longitude": 175.8667,
      "admin_name1": "Waikato"
    },
    {
      "place_name": "Benneydale",
      "postal_code": "3944",
      "country_code": "NZ",
      "latitude": -38.5206,
      "longitude": 175.3616,
      "admin_name1": "Waikato"
    },
    {
      "place_name": "Upper Hutt",
      "postal_code": "5371",
      "country_code": "NZ",
      "latitude": -41.1383,
      "longitude": 175.0502,
      "admin_name1": "Wellington"
    },
    {
      "place_name": "Haast",
      "postal_code": "7844",
      "country_code": "NZ",
      "latitude": -42.3489,
      "longitude": 171.5086,
      "admin_name1": null
    },
    {
      "place_name": "Okiwi",
      "postal_code": "0960",
      "country_code": "NZ",
      "latitude": -36.15,
      "longitude": 175.4167,
      "admin_name1": "Auckland"
    },
    {
      "place_name": "Te Papapa",
      "postal_code": "1061",
      "country_code": "NZ",
      "latitude": -36.9182,
      "longitude": 174.8002,
      "admin_name1": "Auckland"
    },
    {
      "place_name": "Mount Maunganui",
      "postal_code": "3150",
      "country_code": "NZ",
      "latitude": -37.6417,
      "longitude": 176.1861,
      "admin_name1": "Bay of Plenty"
    },
    {
      "place_name": "Cust",
      "postal_code": "7444",
      "country_code": "NZ",
      "latitude": -43.3167,
      "longitude": 172.3667,
      "admin_name1": "Canterbury"
    },
    {
      "place_name": "Lake Tekapo",
      "postal_code": "7945",
      "country_code": "NZ",
      "latitude": -44.0064,
      "longitude": 170.4803,
      "admin_name1": "Canterbury"
    },
    {
      "place_name": "Napier South",
      "postal_code": "4143",
      "country_code": "NZ",
      "latitude": -39.4982,
      "longitude": 176.9002,
      "admin_name1": "Hawke's Bay"
    },
    {
      "place_name": "Tuai",
      "postal_code": "4195",
      "country_code": "NZ",
      "latitude": -38.8167,
      "longitude": 177.1667,
      "admin_name1": "Hawke's Bay"
    },
    {
      "place_name": "Tatu",
      "postal_code": "3980",
      "country_code": "NZ",
      "latitude": -38.9,
      "longitude": 174.95,
      "admin_name1": "Manawatu-Wanganui"
    },
    {
      "place_name": "Apiti",
      "postal_code": "4774",
      "country_code": "NZ",
      "latitude": -39.9667,
      "longitude": 175.8833,
      "admin_name1": "Manawatu-Wanganui"
    },
    {
      "place_name": "Pakihikura",
      "postal_code": "4783",
      "country_code": "NZ",
      "latitude": -39.9333,
      "longitude": 175.7167,
      "admin_name1": "Manawatu-Wanganui"
    },
    {
      "place_name": "Haunui",
      "postal_code": "4986",
      "country_code": "NZ",
      "latitude": -40.6085,
      "longitude": 176.0463,
      "admin_name1": "Manawatu-Wanganui"
    },
    {
      "place_name": "Upcot",
      "postal_code": "7274",
      "country_code": "NZ",
      "latitude": -41.9,
      "longitude": 173.5833,
      "admin_name1": "Marlborough"
    },
    {
      "place_name": "Port Nelson",
      "postal_code": "7043",
      "country_code": "NZ",
      "latitude": -41.264,
      "longitude": 173.2763,
      "admin_name1": "Nelson"
    },
    {
      "place_name": "Awanui",
      "postal_code": "0451",
      "country_code": "NZ",
      "latitude": -35.05,
      "longitude": 173.25,
      "admin_name1": "Northland"
    },
    {
      "place_name": "Mount Cargill",
      "postal_code": "9085",
      "country_code": "NZ",
      "latitude": -45.8,
      "longitude": 170.5667,
      "admin_name1": "Otago"
    },
    {
      "place_name": "Lindis Crossing",
      "postal_code": "9383",
      "country_code": "NZ",
      "latitude": -44.8833,
      "longitude": 169.3833,
      "admin_name1": "Otago"
    },
    {
      "place_name": "Fruitlands",
      "postal_code": "9392",
      "country_code": "NZ",
      "latitude": -45.35,
      "longitude": 169.3,
      "admin_name1": "Otago"
    },
    {
      "place_name": "Makarewa",
      "postal_code": "9876",
      "country_code": "NZ",
      "latitude": -46.3333,
      "longitude": 168.35,
      "admin_name1": "Southland"
    },
    {
      "place_name": "Mangawhio",
      "postal_code": "4592",
      "country_code": "NZ",
      "latitude": -39.7167,
      "longitude": 174.7167,
      "admin_name1": "Taranaki"
    },
    {
      "place_name": "Oaonui",
      "postal_code": "4681",
      "country_code": "NZ",
      "latitude": -39.4,
      "longitude": 173.8167,
      "admin_name1": "Taranaki"
    },
    {
      "place_name": "Kopuku",
      "postal_code": "2471",
      "country_code": "NZ",
      "latitude": -37.2833,
      "longitude": 175.1667,
      "admin_name1": "Waikato"
    },
    {
      "place_name": "Kuratau",
      "postal_code": "3381",
      "country_code": "NZ",
      "latitude": -38.8882,
      "longitude": 175.7702,
      "admin_name1": "Waikato"
    },
    {
      "place_name": "Kinleith",
      "postal_code": "3491",
      "country_code": "NZ",
      "latitude": -38.2833,
      "longitude": 175.9,
      "admin_name1": "Waikato"
    },
    {
      "place_name": "Komakorau",
      "postal_code": "3791",
      "country_code": "NZ",
      "latitude": -37.6333,
      "longitude": 175.2667,
      "admin_name1": "Waikato"
    },
    {
      "place_name": "Kopaki",
      "postal_code": "3983",
      "country_code": "NZ",
      "latitude": -38.4667,
      "longitude": 175.2667,
      "admin_name1": "Waikato"
    },
    {
      "place_name": "Crushington",
      "postal_code": "7895",
      "country_code": "NZ",
      "latitude": -42.15,
      "longitude": 171.9,
      "admin_name1": "West Coast"
    },
    {
      "place_name": "Berwen",
      "postal_code": "9412",
      "country_code": "NZ",
      "latitude": -45.3184,
      "longitude": 170.8101,
      "admin_name1": null
    },
    {
      "place_name": "Matakana",
      "postal_code": "0948",
      "country_code": "NZ",
      "latitude": -36.35,
      "longitude": 174.7167,
      "admin_name1": "Auckland"
    },
    {
      "place_name": "Arch Hill",
      "postal_code": "1021",
      "country_code": "NZ",
      "latitude": -36.8597,
      "longitude": 174.7531,
      "admin_name1": "Auckland"
    },
    {
      "place_name": "Paerata",
      "postal_code": "2676",
      "country_code": "NZ",
      "latitude": -37.1667,
      "longitude": 174.9,
      "admin_name1": "Auckland"
    },
    {
      "place_name": "Matata",
      "postal_code": "3168",
      "country_code": "NZ",
      "latitude": -37.8833,
      "longitude": 176.75,
      "admin_name1": "Bay of Plenty"
    },
    {
      "place_name": "Waikuku",
      "postal_code": "7473",
      "country_code": "NZ",
      "latitude": -43.3,
      "longitude": 172.6833,
      "admin_name1": "Canterbury"
    },
    {
      "place_name": "Matawai",
      "postal_code": "4051",
      "country_code": "NZ",
      "latitude": -38.35,
      "longitude": 177.5333,
      "admin_name1": "Gisborne"
    },
    {
      "place_name": "Ahuiti",
      "postal_code": "4578",
      "country_code": "NZ",
      "latitude": -39.6333,
      "longitude": 175.0,
      "admin_name1": "Manawatu-Wanganui"
    },
    {
      "place_name": "Kaitawa",
      "postal_code": "4981",
      "country_code": "NZ",
      "latitude": -40.4966,
      "longitude": 175.89,
      "admin_name1": "Manawatu-Wanganui"
    },
    {
      "place_name": "Parakao",
      "postal_code": "0172",
      "country_code": "NZ",
      "latitude": -35.7167,
      "longitude": 173.95,
      "admin_name1": "Northland"
    },
    {
      "place_name": "Kuri Bush",
      "postal_code": "9091",
      "country_code": "NZ",
      "latitude": -46.0247,
      "longitude": 170.2297,
      "admin_name1": "Otago"
    },
    {
      "place_name": "Becks",
      "postal_code": "9377",
      "country_code": "NZ",
      "latitude": -45.0,
      "longitude": 169.7333,
      "admin_name1": "Otago"
    },
    {
      "place_name": "Paerau",
      "postal_code": "9398",
      "country_code": "NZ",
      "latitude": -45.4167,
      "longitude": 169.95,
      "admin_name1": "Otago"
    },
    {
      "place_name": "Waikaia",
      "postal_code": "9745",
      "country_code": "NZ",
      "latitude": -45.7333,
      "longitude": 168.85,
      "admin_name1": "Southland"
    },
    {
      "place_name": "Mangorei",
      "postal_code": "4371",
      "country_code": "NZ",
      "latitude": -39.15,
      "longitude": 174.0833,
      "admin_name1": "Taranaki"
    },
    {
      "place_name": "Okau",
      "postal_code": "4378",
      "country_code": "NZ",
      "latitude": -38.8667,
      "longitude": 174.65,
      "admin_name1": "Taranaki"
    },
    {
      "place_name": "Parihaka Pa",
      "postal_code": "4685",
      "country_code": "NZ",
      "latitude": -39.3,
      "longitude": 173.8333,
      "admin_name1": "Taranaki"
    },
    {
      "place_name": "Oruanui",
      "postal_code": "3377",
      "country_code": "NZ",
      "latitude": -38.5833,
      "longitude": 176.0333,
      "admin_name1": "Waikato"
    },
    {
      "place_name": "Te Horo",
      "postal_code": "5544",
      "country_code": "NZ",
      "latitude": -40.8,
      "longitude": 175.1,
      "admin_name1": "Wellington"
    },
    {
      "place_name": "Springs Junction",
      "postal_code": "7847",
      "country_code": "NZ",
      "latitude": -42.3167,
      "longitude": 172.1833,
      "admin_name1": "West Coast"
    },
    {
      "place_name": "Cliff Road",
      "postal_code": "4787",
      "country_code": "NZ",
      "latitude": -39.9582,
      "longitude": 175.5461,
      "admin_name1": null
    }
  ]
]