[
  [
    {
      "place_name": "Punta Robalo",
      "postal_code": "01014",
      "country_code": "PA",
      "latitude": 9.0379,
      "longitude": -82.2477,
      "admin_name1": "Bocas Del Toro"
    },
    {
      "place_name": "Alanje (Cabec)",
      "postal_code": "04029",
      "country_code": "PA",
      "latitude": 8.5829,
      "longitude": -82.683,
      "admin_name1": "Chiriqui"
    },
    {
      "place_name": "Zona Libre",
      "postal_code": "03050",
      "country_code": "PA",
      "latitude": 9.3668,
      "longitude": -79.7696,
      "admin_name1": "Colon"
    },
    {
      "place_name": "Capuri",
      "postal_code": "05007",
      "country_code": "PA",
      "latitude": 7.8668,
      "longitude": -80.5142,
      "admin_name1": "Herrera"
    },
    {
      "place_name": "La Pitaloza",
      "postal_code": "05011",
      "country_code": "PA",
      "latitude": 7.8904,
      "longitude": -80.6122,
      "admin_name1": "Herrera"
    },
    {
      "place_name": "La Espigadilla",
      "postal_code": "06043",
      "country_code": "PA",
      "latitude": 7.8878,
      "longitude": -80.3889,
      "admin_name1": "Los Santos"
    },
    {
      "place_name": "Mogollon",
      "postal_code": "06064",
      "country_code": "PA",
      "latitude": 7.6492,
      "longitude": -80.4572,
      "admin_name1": "Los Santos"
    },
    {
      "place_name": "El Caðafistulo",
      "postal_code": "06026",
      "country_code": "PA",
      "latitude": 7.6939,
      "longitude": -80.2317,
      "admin_name1": "Los Santos"
    },
    {
      "place_name": "Lajaminas",
      "postal_code": "06027",
      "country_code": "PA",
      "latitude": 7.6939,
      "longitude": -80.2317,
      "admin_name1": "Los Santos"
    },
    {
      "place_name": "La Cresta",
      "postal_code": "07167",
      "country_code": "PA",
      "latitude": 8.9801,
      "longitude": -79.5319,
      "admin_name1": "Panama"
    },
    {
      "place_name": "Rodman",
      "postal_code": "07195",
      "country_code": "PA",
      "latitude": 9.0231,
      "longitude": -79.5245,
      "admin_name1": "Panama"
    },
    {
      "place_name": "Belisario Porras",
      "postal_code": "07082",
      "country_code": "PA",
      "latitude": 9.1077,
      "longitude": -79.3581,
      "admin_name1": "Panama"
    },
    {
      "place_name": "Juan D. Arosemena",
      "postal_code": "07002",
      "country_code": "PA",
      "latitude": 8.9364,
      "longitude": -79.5561,
      "admin_name1": "Panama"
    },
    {
      "place_name": "Villa Lucre",
      "postal_code": "07229",
      "country_code": "PA",
      "latitude": 9.0452,
      "longitude": -79.484,
      "admin_name1": "Panama"
    },
    {
      "place_name": "Cerro De Casa",
      "postal_code": "08085",
      "country_code": "PA",
      "latitude": 8.2532,
      "longitude": -81.3737,
      "admin_name1": "Veraguas"
    },
    {
      "place_name": "Vigui",
      "postal_code": "08095",
      "country_code": "PA",
      "latitude": 8.3399,
      "longitude": -81.4975,
      "admin_name1": "Veraguas"
    },
    {
      "place_name": "Pilon",
      "postal_code": "08063",
      "country_code": "PA",
      "latitude": 7.9568,
      "longitude": -81.0723,
      "admin_name1": "Veraguas"
    },
    {
      "place_name": "Remance",
      "postal_code": "08044",
      "country_code": "PA",
      "latitude": 8.3073,
      "longitude": -81.0808,
      "admin_name1": "Veraguas"
    },
    {
      "place_name": "Rodeo Viejo",
      "postal_code": "08028",
      "country_code": "PA",
      "latitude": 8.1151,
      "longitude": -81.3159,
      "admin_name1": "Veraguas"
    },
    {
      "place_name": "Sitio Prado",
      "postal_code": "10048",
      "country_code": "PA",
      "latitude": 8.3728,
      "longitude": -81.58,
      "admin_name1": "Comarca Ngobe Bugle"
    },
    {
      "place_name": "Hato Chami",
      "postal_code": "10035",
      "country_code": "PA",
      "latitude": 8.4485,
      "longitude": -81.7702,
      "admin_name1": "Comarca Ngobe Bugle"
    },
    {
      "place_name": "Guibale",
      "postal_code": "10058",
      "country_code": "PA",
      "latitude": 8.514,
      "longitude": -81.3595,
      "admin_name1": "Comarca Ngobe Bugle"
    },
    {
      "place_name": "Guaroni",
      "postal_code": "10005",
      "country_code": "PA",
      "latitude": 8.6848,
      "longitude": -81.7719,
      "admin_name1": "Comarca Ngobe Bugle"
    },
    {
      "place_name": "Puerto Armuelles (Cabec)",
      "postal_code": "04011",
      "country_code": "PA",
      "latitude": 8.4553,
      "longitude": -82.7396,
      "admin_name1": "Chiriqui"
    },
    {
      "place_name": "Bugaba",
      "postal_code": "04018",
      "country_code": "PA",
      "latitude": 8.4861,
      "longitude": -82.6202,
      "admin_name1": "Chiriqui"
    },
    {
      "place_name": "La Pintada (Cabec)",
      "postal_code": "02021",
      "country_code": "PA",
      "latitude": 8.5796,
      "longitude": -80.5169,
      "admin_name1": "Cocle"
    },
    {
      "place_name": "Quebrada Del Rosario",
      "postal_code": "05035",
      "country_code": "PA",
      "latitude": 7.7176,
      "longitude": -80.7389,
      "admin_name1": "Herrera"
    },
    {
      "place_name": "Potuga",
      "postal_code": "05021",
      "country_code": "PA",
      "latitude": 8.0659,
      "longitude": -80.6209,
      "admin_name1": "Herrera"
    },
    {
      "place_name": "El Muðoz",
      "postal_code": "06007",
      "country_code": "PA",
      "latitude": 7.7039,
      "longitude": -80.2911,
      "admin_name1": "Los Santos"
    },
    {
      "place_name": "Tonosi (Cabec)",
      "postal_code": "06070",
      "country_code": "PA",
      "latitude": 7.4177,
      "longitude": -80.487,
      "admin_name1": "Los Santos"
    },
    {
      "place_name": "San Carlos /Cabec)",
      "postal_code": "07033",
      "country_code": "PA",
      "latitude": 8.624,
      "longitude": -79.9402,
      "admin_name1": "Panama"
    },
    {
      "place_name": "Guayabito",
      "postal_code": "07036",
      "country_code": "PA",
      "latitude": 9.0523,
      "longitude": -79.4357,
      "admin_name1": "Panama"
    },
    {
      "place_name": "Barrio Balboa",
      "postal_code": "07064",
      "country_code": "PA",
      "latitude": 8.8279,
      "longitude": -79.714,
      "admin_name1": "Panama"
    },
    {
      "place_name": "Herrera",
      "postal_code": "07072",
      "country_code": "PA",
      "latitude": 9.1315,
      "longitude": -79.7278,
      "admin_name1": "Panama"
    },
    {
      "place_name": "Rio De Jesus (Cabec)",
      "postal_code": "08067",
      "country_code": "PA",
      "latitude": 7.861,
      "longitude": -81.1286,
      "admin_name1": "Veraguas"
    },
    {
      "place_name": "Gatuncito",
      "postal_code": "08052",
      "country_code": "PA",
      "latitude": 8.5282,
      "longitude": -80.9572,
      "admin_name1": "Veraguas"
    },
    {
      "place_name": "Chepigana",
      "postal_code": "12003",
      "country_code": "PA",
      "latitude": 8.2845,
      "longitude": -78.0419,
      "admin_name1": "Darien Y Comarca Embera"
    },
    {
      "place_name": "Yaviza",
      "postal_code": "12025",
      "country_code": "PA",
      "latitude": 8.1583,
      "longitude": -77.6928,
      "admin_name1": "Darien Y Comarca Embera"
    },
    {
      "place_name": "Bastimentos",
      "postal_code": "01002",
      "country_code": "PA",
      "latitude": 9.3486,
      "longitude": -82.2109,
      "admin_name1": "Bocas Del Toro"
    },
    {
      "place_name": "San Juan De Dios",
      "postal_code": "02008",
      "country_code": "PA",
      "latitude": 8.5512,
      "longitude": -80.2262,
      "admin_name1": "Cocle"
    },
    {
      "place_name": "Barrio Norte",
      "postal_code": "03001",
      "country_code": "PA",
      "latitude": 9.3626,
      "longitude": -79.8999,
      "admin_name1": "Colon"
    },
    {
      "place_name": "Llano Bonito",
      "postal_code": "05005",
      "country_code": "PA",
      "latitude": 7.974,
      "longitude": -80.4209,
      "admin_name1": "Herrera"
    },
    {
      "place_name": "Menchaca",
      "postal_code": "05043",
      "country_code": "PA",
      "latitude": 7.8704,
      "longitude": -80.7592,
      "admin_name1": "Herrera"
    },
    {
      "place_name": "Brujas",
      "postal_code": "07056",
      "country_code": "PA",
      "latitude": 8.5861,
      "longitude": -78.5314,
      "admin_name1": "Panama"
    },
    {
      "place_name": "Cabulla",
      "postal_code": "07132",
      "country_code": "PA",
      "latitude": 9.015,
      "longitude": -79.5112,
      "admin_name1": "Panama"
    },
    {
      "place_name": "Cuatro Altos",
      "postal_code": "07151",
      "country_code": "PA",
      "latitude": 9.0192,
      "longitude": -79.5486,
      "admin_name1": "Panama"
    },
    {
      "place_name": "Los Cerilla",
      "postal_code": "07176",
      "country_code": "PA",
      "latitude": 9.0559,
      "longitude": -79.4551,
      "admin_name1": "Panama"
    },
    {
      "place_name": "Urbanizacion Tere Mar",
      "postal_code": "07226",
      "country_code": "PA",
      "latitude": 9.0479,
      "longitude": -79.5212,
      "admin_name1": "Panama"
    },
    {
      "place_name": "Chitra",
      "postal_code": "08031",
      "country_code": "PA",
      "latitude": 8.3196,
      "longitude": -80.8282,
      "admin_name1": "Veraguas"
    },
    {
      "place_name": "El Paredon",
      "postal_code": "10055",
      "country_code": "PA",
      "latitude": 8.4136,
      "longitude": -81.4613,
      "admin_name1": "Comarca Ngobe Bugle"
    },
    {
      "place_name": "Bisisra",
      "postal_code": "10001",
      "country_code": "PA",
      "latitude": 8.6848,
      "longitude": -81.7719,
      "admin_name1": "Comarca Ngobe Bugle"
    },
    {
      "place_name": "Wargandi",
      "postal_code": "11001",
      "country_code": "PA",
      "latitude": 8.857,
      "longitude": -77.978,
      "admin_name1": "Comarca Wargandi"
    },
    {
      "place_name": "Rio Congo",
      "postal_code": "12007",
      "country_code": "PA",
      "latitude": 8.4025,
      "longitude": -78.3689,
      "admin_name1": "Darien Y Comarca Embera"
    },
    {
      "place_name": "Punta Laurel",
      "postal_code": "01003",
      "country_code": "PA",
      "latitude": 9.1412,
      "longitude": -82.127,
      "admin_name1": "Bocas Del Toro"
    },
    {
      "place_name": "Tierra Oscura",
      "postal_code": "01005",
      "country_code": "PA",
      "latitude": 9.2014,
      "longitude": -82.2759,
      "admin_name1": "Bocas Del Toro"
    },
    {
      "place_name": "El Teribe",
      "postal_code": "01009",
      "country_code": "PA",
      "latitude": 9.2973,
      "longitude": -82.3254,
      "admin_name1": "Bocas Del Toro"
    },
    {
      "place_name": "Los Anastacios",
      "postal_code": "04061",
      "country_code": "PA",
      "latitude": 8.5303,
      "longitude": -82.423,
      "admin_name1": "Chiriqui"
    },
    {
      "place_name": "Aguadulce (Cabec)",
      "postal_code": "02038",
      "country_code": "PA",
      "latitude": 8.4341,
      "longitude": -80.6585,
      "admin_name1": "Cocle"
    },
    {
      "place_name": "Chiriqui Arriba",
      "postal_code": "02014",
      "country_code": "PA",
      "latitude": 8.5783,
      "longitude": -80.3153,
      "admin_name1": "Cocle"
    },
    {
      "place_name": "Cocle Del Norte",
      "postal_code": "03023",
      "country_code": "PA",
      "latitude": 9.0754,
      "longitude": -80.5718,
      "admin_name1": "Colon"
    },
    {
      "place_name": "Las Minas (Cabec)",
      "postal_code": "05030",
      "country_code": "PA",
      "latitude": 7.8062,
      "longitude": -80.8087,
      "admin_name1": "Herrera"
    },
    {
      "place_name": "El Ciprian",
      "postal_code": "05036",
      "country_code": "PA",
      "latitude": 7.8062,
      "longitude": -80.8087,
      "admin_name1": "Herrera"
    },
    {
      "place_name": "El Macano",
      "postal_code": "06032",
      "country_code": "PA",
      "latitude": 7.6878,
      "longitude": -80.4053,
      "admin_name1": "Los Santos"
    },
    {
      "place_name": "Purio",
      "postal_code": "06068",
      "country_code": "PA",
      "latitude": 7.5992,
      "longitude": -80.084,
      "admin_name1": "Los Santos"
    },
    {
      "place_name": "Union Santeða",
      "postal_code": "07058",
      "country_code": "PA",
      "latitude": 8.8901,
      "longitude": -78.7833,
      "admin_name1": "Panama"
    },
    {
      "place_name": "Pacora",
      "postal_code": "07105",
      "country_code": "PA",
      "latitude": 9.0825,
      "longitude": -79.2896,
      "admin_name1": "Panama"
    },
    {
      "place_name": "Ciudad Radial",
      "postal_code": "07143",
      "country_code": "PA",
      "latitude": 9.0426,
      "longitude": -79.437,
      "admin_name1": "Panama"
    },
    {
      "place_name": "Via España",
      "postal_code": "07206",
      "country_code": "PA",
      "latitude": 9.0154,
      "longitude": -79.5217,
      "admin_name1": "Panama"
    },
    {
      "place_name": "La Mesa (Cabec)",
      "postal_code": "08013",
      "country_code": "PA",
      "latitude": 8.1879,
      "longitude": -81.2781,
      "admin_name1": "Veraguas"
    },
    {
      "place_name": "San Martin De Porres",
      "postal_code": "08094",
      "country_code": "PA",
      "latitude": 8.1223,
      "longitude": -81.5194,
      "admin_name1": "Veraguas"
    },
    {
      "place_name": "Gobernadora",
      "postal_code": "08060",
      "country_code": "PA",
      "latitude": 7.5593,
      "longitude": -81.1855,
      "admin_name1": "Veraguas"
    },
    {
      "place_name": "Utira",
      "postal_code": "08070",
      "country_code": "PA",
      "latitude": 7.9749,
      "longitude": -81.2173,
      "admin_name1": "Veraguas"
    },
    {
      "place_name": "Corra Falso",
      "postal_code": "08042",
      "country_code": "PA",
      "latitude": 8.4612,
      "longitude": -80.9973,
      "admin_name1": "Veraguas"
    },
    {
      "place_name": "Carlos Santana",
      "postal_code": "08009",
      "country_code": "PA",
      "latitude": 8.062,
      "longitude": -81.001,
      "admin_name1": "Veraguas"
    },
    {
      "place_name": "Loma Yuca",
      "postal_code": "10014",
      "country_code": "PA",
      "latitude": 8.7569,
      "longitude": -81.5106,
      "admin_name1": "Comarca Ngobe Bugle"
    },
    {
      "place_name": "Meteti",
      "postal_code": "12026",
      "country_code": "PA",
      "latitude": 8.4991,
      "longitude": -77.979,
      "admin_name1": "Darien Y Comarca Embera"
    },
    {
      "place_name": "Guarumal",
      "postal_code": "04031",
      "country_code": "PA",
      "latitude": 8.3479,
      "longitude": -82.5298,
      "admin_name1": "Chiriqui"
    },
    {
      "place_name": "Rodolfo Aguilar",
      "postal_code": "04015",
      "country_code": "PA",
      "latitude": 8.4553,
      "longitude": -82.7396,
      "admin_name1": "Chiriqui"
    },
    {
      "place_name": "Horconcitos (Cabec)",
      "postal_code": "04077",
      "country_code": "PA",
      "latitude": 8.3312,
      "longitude": -82.0175,
      "admin_name1": "Chiriqui"
    },
    {
      "place_name": "Anton (Cabec)",
      "postal_code": "02001",
      "country_code": "PA",
      "latitude": 8.5204,
      "longitude": -80.1915,
      "admin_name1": "Cocle"
    },
    {
      "place_name": "Piða",
      "postal_code": "03020",
      "country_code": "PA",
      "latitude": 9.2509,
      "longitude": -80.1528,
      "admin_name1": "Colon"
    },
    {
      "place_name": "Playa Chiquita",
      "postal_code": "03038",
      "country_code": "PA",
      "latitude": 9.5662,
      "longitude": -79.2918,
      "admin_name1": "Colon"
    },
    {
      "place_name": "Guarare",
      "postal_code": "06030",
      "country_code": "PA",
      "latitude": 7.8198,
      "longitude": -80.2809,
      "admin_name1": "Los Santos"
    },
    {
      "place_name": "El Cacao",
      "postal_code": "06074",
      "country_code": "PA",
      "latitude": 7.4493,
      "longitude": -80.4035,
      "admin_name1": "Los Santos"
    },
    {
      "place_name": "El Chorrillo",
      "postal_code": "07091",
      "country_code": "PA",
      "latitude": 8.9496,
      "longitude": -79.5472,
      "admin_name1": "Panama"
    },
    {
      "place_name": "Catedral",
      "postal_code": "07137",
      "country_code": "PA",
      "latitude": 9.015,
      "longitude": -79.5112,
      "admin_name1": "Panama"
    },
    {
      "place_name": "Obarrio",
      "postal_code": "07185",
      "country_code": "PA",
      "latitude": 8.9896,
      "longitude": -79.5179,
      "admin_name1": "Panama"
    },
    {
      "place_name": "Rio Abajo Ato Pintado",
      "postal_code": "07194",
      "country_code": "PA",
      "latitude": 9.0231,
      "longitude": -79.5245,
      "admin_name1": "Panama"
    },
    {
      "place_name": "Otoque Occidente",
      "postal_code": "07061",
      "country_code": "PA",
      "latitude": 8.6063,
      "longitude": -79.6059,
      "admin_name1": "Panama"
    },
    {
      "place_name": "Caimito",
      "postal_code": "07010",
      "country_code": "PA",
      "latitude": 8.6898,
      "longitude": -80.1832,
      "admin_name1": "Panama"
    },
    {
      "place_name": "Las Ollas Arriba",
      "postal_code": "07017",
      "country_code": "PA",
      "latitude": 8.8128,
      "longitude": -79.9006,
      "admin_name1": "Panama"
    },
    {
      "place_name": "La Montaðuela",
      "postal_code": "08056",
      "country_code": "PA",
      "latitude": 8.2911,
      "longitude": -81.0009,
      "admin_name1": "Veraguas"
    },
    {
      "place_name": "Bahia Honda",
      "postal_code": "08020",
      "country_code": "PA",
      "latitude": 7.7524,
      "longitude": -81.517,
      "admin_name1": "Veraguas"
    },
    {
      "place_name": "Niba",
      "postal_code": "10024",
      "country_code": "PA",
      "latitude": 8.4224,
      "longitude": -81.9109,
      "admin_name1": "Comarca Ngobe Bugle"
    },
    {
      "place_name": "Chichica",
      "postal_code": "10038",
      "country_code": "PA",
      "latitude": 8.415,
      "longitude": -81.7736,
      "admin_name1": "Comarca Ngobe Bugle"
    },
    {
      "place_name": "Mununi",
      "postal_code": "10006",
      "country_code": "PA",
      "latitude": 8.7994,
      "longitude": -81.7972,
      "admin_name1": "Comarca Ngobe Bugle"
    },
    {
      "place_name": "Tucuti",
      "postal_code": "12012",
      "country_code": "PA",
      "latitude": 7.9601,
      "longitude": -77.9322,
      "admin_name1": "Darien Y Comarca Embera"
    },
    {
      "place_name": "Paya",
      "postal_code": "12021",
      "country_code": "PA",
      "latitude": 7.9058,
      "longitude": -77.4037,
      "admin_name1": "Darien Y Comarca Embera"
    },
    {
      "place_name": "Almirante",
      "postal_code": "01007",
      "country_code": "PA",
      "latitude": 9.3009,
      "longitude": -82.4018,
      "admin_name1": "Bocas Del Toro"
    },
    {
      "place_name": "Volcan",
      "postal_code": "04027",
      "country_code": "PA",
      "latitude": 8.7805,
      "longitude": -82.639,
      "admin_name1": "Chiriqui"
    },
    {
      "place_name": "Bijagual",
      "postal_code": "04002",
      "country_code": "PA",
      "latitude": 8.5149,
      "longitude": -82.3336,
      "admin_name1": "Chiriqui"
    },
    {
      "place_name": "La Pava",
      "postal_code": "02037",
      "country_code": "PA",
      "latitude": 8.4341,
      "longitude": -80.6585,
      "admin_name1": "Cocle"
    },
    {
      "place_name": "Portobelillo",
      "postal_code": "05020",
      "country_code": "PA",
      "latitude": 8.0175,
      "longitude": -80.5978,
      "admin_name1": "Herrera"
    },
    {
      "place_name": "Sabanagrande",
      "postal_code": "05028",
      "country_code": "PA",
      "latitude": 7.9391,
      "longitude": -80.5971,
      "admin_name1": "Herrera"
    },
    {
      "place_name": "Calidonia",
      "postal_code": "07093",
      "country_code": "PA",
      "latitude": 8.9673,
      "longitude": -79.5359,
      "admin_name1": "Panama"
    },
    {
      "place_name": "Don Bosco",
      "postal_code": "07154",
      "country_code": "PA",
      "latitude": 9.1348,
      "longitude": -79.6103,
      "admin_name1": "Panama"
    },
    {
      "place_name": "Jose De Espinar",
      "postal_code": "07165",
      "country_code": "PA",
      "latitude": 9.0495,
      "longitude": -79.4545,
      "admin_name1": "Panama"
    },
    {
      "place_name": "Los Caobos",
      "postal_code": "07175",
      "country_code": "PA",
      "latitude": 9.0867,
      "longitude": -79.4364,
      "admin_name1": "Panama"
    },
    {
      "place_name": "Urbanizacion Nuevoreparto Chanis",
      "postal_code": "07204",
      "country_code": "PA",
      "latitude": 9.0154,
      "longitude": -79.5217,
      "admin_name1": "Panama"
    },
    {
      "place_name": "Capira",
      "postal_code": "07009",
      "country_code": "PA",
      "latitude": 8.6944,
      "longitude": -79.8691,
      "admin_name1": "Panama"
    },
    {
      "place_name": "La Yeguada",
      "postal_code": "08037",
      "country_code": "PA",
      "latitude": 8.261,
      "longitude": -80.8288,
      "admin_name1": "Veraguas"
    },
    {
      "place_name": "Calovebora",
      "postal_code": "08048",
      "country_code": "PA",
      "latitude": 8.787,
      "longitude": -81.2106,
      "admin_name1": "Veraguas"
    },
    {
      "place_name": "Salto Dupi",
      "postal_code": "10032",
      "country_code": "PA",
      "latitude": 8.3504,
      "longitude": -81.8882,
      "admin_name1": "Comarca Ngobe Bugle"
    },
    {
      "place_name": "Krua",
      "postal_code": "10043",
      "country_code": "PA",
      "latitude": 8.3665,
      "longitude": -81.6649,
      "admin_name1": "Comarca Ngobe Bugle"
    },
    {
      "place_name": "Roka",
      "postal_code": "10047",
      "country_code": "PA",
      "latitude": 8.3665,
      "longitude": -81.6649,
      "admin_name1": "Comarca Ngobe Bugle"
    },
    {
      "place_name": "Agua De Salud",
      "postal_code": "10051",
      "country_code": "PA",
      "latitude": 8.5105,
      "longitude": -81.4742,
      "admin_name1": "Comarca Ngobe Bugle"
    },
    {
      "place_name": "El Piro",
      "postal_code": "10056",
      "country_code": "PA",
      "latitude": 8.4083,
      "longitude": -81.5224,
      "admin_name1": "Comarca Ngobe Bugle"
    },
    {
      "place_name": "Nuevo Mexico",
      "postal_code": "04036",
      "country_code": "PA",
      "latitude": 8.4272,
      "longitude": -82.5972,
      "admin_name1": "Chiriqui"
    },
    {
      "place_name": "Bagala",
      "postal_code": "04038",
      "country_code": "PA",
      "latitude": 8.4671,
      "longitude": -82.5269,
      "admin_name1": "Chiriqui"
    },
    {
      "place_name": "Monte Lirio",
      "postal_code": "04048",
      "country_code": "PA",
      "latitude": 8.7933,
      "longitude": -82.8245,
      "admin_name1": "Chiriqui"
    },
    {
      "place_name": "Ola (Cabec)",
      "postal_code": "02033",
      "country_code": "PA",
      "latitude": 8.4341,
      "longitude": -80.6585,
      "admin_name1": "Cocle"
    },
    {
      "place_name": "Puerto Pilon",
      "postal_code": "03010",
      "country_code": "PA",
      "latitude": 9.3632,
      "longitude": -79.7933,
      "admin_name1": "Colon"
    },
    {
      "place_name": "Garrote",
      "postal_code": "03030",
      "country_code": "PA",
      "latitude": 9.6054,
      "longitude": -79.5856,
      "admin_name1": "Colon"
    },
    {
      "place_name": "Cerro Largo",
      "postal_code": "05038",
      "country_code": "PA",
      "latitude": 7.839,
      "longitude": -80.8308,
      "admin_name1": "Herrera"
    },
    {
      "place_name": "El Pajaro",
      "postal_code": "05024",
      "country_code": "PA",
      "latitude": 7.9474,
      "longitude": -80.5741,
      "admin_name1": "Herrera"
    },
    {
      "place_name": "La Pasera",
      "postal_code": "06035",
      "country_code": "PA",
      "latitude": 7.798,
      "longitude": -80.3044,
      "admin_name1": "Los Santos"
    },
    {
      "place_name": "Juan Diaz",
      "postal_code": "07101",
      "country_code": "PA",
      "latitude": 9.0406,
      "longitude": -79.4408,
      "admin_name1": "Panama"
    },
    {
      "place_name": "Altos De Tocumen",
      "postal_code": "07120",
      "country_code": "PA",
      "latitude": 9.055,
      "longitude": -79.4106,
      "admin_name1": "Panama"
    },
    {
      "place_name": "Monte Oscuro",
      "postal_code": "07182",
      "country_code": "PA",
      "latitude": 9.0309,
      "longitude": -79.5116,
      "admin_name1": "Panama"
    },
    {
      "place_name": "Otoque Oriente",
      "postal_code": "07062",
      "country_code": "PA",
      "latitude": 8.6038,
      "longitude": -79.5955,
      "admin_name1": "Panama"
    },
    {
      "place_name": "Los Valles",
      "postal_code": "08079",
      "country_code": "PA",
      "latitude": 8.4461,
      "longitude": -81.1966,
      "admin_name1": "Veraguas"
    },
    {
      "place_name": "Pixvae",
      "postal_code": "08091",
      "country_code": "PA",
      "latitude": 8.1223,
      "longitude": -81.5194,
      "admin_name1": "Veraguas"
    },
    {
      "place_name": "Los Hatillos",
      "postal_code": "08043",
      "country_code": "PA",
      "latitude": 8.314,
      "longitude": -80.9851,
      "admin_name1": "Veraguas"
    },
    {
      "place_name": "Santa Fe (Cabec)",
      "postal_code": "08047",
      "country_code": "PA",
      "latitude": 8.4612,
      "longitude": -80.9973,
      "admin_name1": "Veraguas"
    },
    {
      "place_name": "El Cuay",
      "postal_code": "08050",
      "country_code": "PA",
      "latitude": 8.2911,
      "longitude": -81.0009,
      "admin_name1": "Veraguas"
    },
    {
      "place_name": "Camaron Arriba",
      "postal_code": "10021",
      "country_code": "PA",
      "latitude": 8.3877,
      "longitude": -81.9965,
      "admin_name1": "Comarca Ngobe Bugle"
    },
    {
      "place_name": "Peða Blanca",
      "postal_code": "10046",
      "country_code": "PA",
      "latitude": 8.3665,
      "longitude": -81.6649,
      "admin_name1": "Comarca Ngobe Bugle"
    },
    {
      "place_name": "Lajero",
      "postal_code": "10034",
      "country_code": "PA",
      "latitude": 8.29,
      "longitude": -81.7701,
      "admin_name1": "Comarca Ngobe Bugle"
    },
    {
      "place_name": "Rio Chiriqui",
      "postal_code": "10013",
      "country_code": "PA",
      "latitude": 8.7939,
      "longitude": -81.9088,
      "admin_name1": "Comarca Ngobe Bugle"
    },
    {
      "place_name": "Tobobe",
      "postal_code": "10015",
      "country_code": "PA",
      "latitude": 9.1208,
      "longitude": -81.828,
      "admin_name1": "Comarca Ngobe Bugle"
    },
    {
      "place_name": "Seteganti",
      "postal_code": "12010",
      "country_code": "PA",
      "latitude": 8.294,
      "longitude": -78.0892,
      "admin_name1": "Darien Y Comarca Embera"
    },
    {
      "place_name": "Rio Congo Arriba",
      "postal_code": "12015",
      "country_code": "PA",
      "latitude": 8.305,
      "longitude": -78.1847,
      "admin_name1": "Darien Y Comarca Embera"
    },
    {
      "place_name": "Aserrio De Gariche",
      "postal_code": "04017",
      "country_code": "PA",
      "latitude": 8.4864,
      "longitude": -82.7893,
      "admin_name1": "Chiriqui"
    },
    {
      "place_name": "Toza",
      "postal_code": "02032",
      "country_code": "PA",
      "latitude": 8.3452,
      "longitude": -80.6411,
      "admin_name1": "Cocle"
    },
    {
      "place_name": "Rio Indio",
      "postal_code": "03026",
      "country_code": "PA",
      "latitude": 9.1927,
      "longitude": -80.1907,
      "admin_name1": "Colon"
    },
    {
      "place_name": "Villa Lourdes",
      "postal_code": "06052",
      "country_code": "PA",
      "latitude": 7.8098,
      "longitude": -80.4723,
      "admin_name1": "Los Santos"
    },
    {
      "place_name": "Bajos De Guerra",
      "postal_code": "06056",
      "country_code": "PA",
      "latitude": 7.7904,
      "longitude": -80.4725,
      "admin_name1": "Los Santos"
    },
    {
      "place_name": "Gonzalo Vasquez",
      "postal_code": "07057",
      "country_code": "PA",
      "latitude": 8.4198,
      "longitude": -78.4519,
      "admin_name1": "Panama"
    },
    {
      "place_name": "Albrook",
      "postal_code": "07116",
      "country_code": "PA",
      "latitude": 8.9779,
      "longitude": -79.5587,
      "admin_name1": "Panama"
    },
    {
      "place_name": "Las Guias",
      "postal_code": "08038",
      "country_code": "PA",
      "latitude": 8.3196,
      "longitude": -80.8282,
      "admin_name1": "Veraguas"
    },
    {
      "place_name": "Sona (Cabec)",
      "postal_code": "08019",
      "country_code": "PA",
      "latitude": 8.1879,
      "longitude": -81.2781,
      "admin_name1": "Veraguas"
    },
    {
      "place_name": "Boca De Balsa",
      "postal_code": "10018",
      "country_code": "PA",
      "latitude": 8.53,
      "longitude": -82.0313,
      "admin_name1": "Comarca Ngobe Bugle"
    },
    {
      "place_name": "Baco",
      "postal_code": "04014",
      "country_code": "PA",
      "latitude": 8.3595,
      "longitude": -82.7498,
      "admin_name1": "Chiriqui"
    },
    {
      "place_name": "Boqueron (Cabec)",
      "postal_code": "04037",
      "country_code": "PA",
      "latitude": 8.4272,
      "longitude": -82.5972,
      "admin_name1": "Chiriqui"
    },
    {
      "place_name": "Jaramillo",
      "postal_code": "04057",
      "country_code": "PA",
      "latitude": 8.7707,
      "longitude": -82.4232,
      "admin_name1": "Chiriqui"
    },
    {
      "place_name": "David (Cabec)",
      "postal_code": "04001",
      "country_code": "PA",
      "latitude": 8.4443,
      "longitude": -82.4131,
      "admin_name1": "Chiriqui"
    },
    {
      "place_name": "Potrerillos Abajo",
      "postal_code": "04063",
      "country_code": "PA",
      "latitude": 8.6452,
      "longitude": -82.4857,
      "admin_name1": "Chiriqui"
    },
    {
      "place_name": "El Nancito",
      "postal_code": "04073",
      "country_code": "PA",
      "latitude": 8.2412,
      "longitude": -81.7321,
      "admin_name1": "Chiriqui"
    },
    {
      "place_name": "Ciricito",
      "postal_code": "03005",
      "country_code": "PA",
      "latitude": 9.2956,
      "longitude": -79.8533,
      "admin_name1": "Colon"
    },
    {
      "place_name": "Cristobal",
      "postal_code": "03006",
      "country_code": "PA",
      "latitude": 9.3522,
      "longitude": -79.9044,
      "admin_name1": "Colon"
    },
    {
      "place_name": "Nuevo Chagres (Cabec)",
      "postal_code": "03015",
      "country_code": "PA",
      "latitude": 9.2328,
      "longitude": -79.9047,
      "admin_name1": "Colon"
    },
    {
      "place_name": "Peðas Chatas",
      "postal_code": "05041",
      "country_code": "PA",
      "latitude": 8.0371,
      "longitude": -80.7232,
      "admin_name1": "Herrera"
    },
    {
      "place_name": "Torti",
      "postal_code": "07054",
      "country_code": "PA",
      "latitude": 8.9215,
      "longitude": -78.3985,
      "admin_name1": "Panama"
    },
    {
      "place_name": "Cerro Batea",
      "postal_code": "07138",
      "country_code": "PA",
      "latitude": 9.2069,
      "longitude": -79.4185,
      "admin_name1": "Panama"
    },
    {
      "place_name": "Belisario Frias",
      "postal_code": "07087",
      "country_code": "PA",
      "latitude": 9.1077,
      "longitude": -79.3581,
      "admin_name1": "Panama"
    },
    {
      "place_name": "Nuevo Emperador",
      "postal_code": "07003",
      "country_code": "PA",
      "latitude": 9.0028,
      "longitude": -79.7304,
      "admin_name1": "Panama"
    },
    {
      "place_name": "Ciri De Los Sotos",
      "postal_code": "07013",
      "country_code": "PA",
      "latitude": 8.9758,
      "longitude": -80.0925,
      "admin_name1": "Panama"
    },
    {
      "place_name": "Chica",
      "postal_code": "07026",
      "country_code": "PA",
      "latitude": 8.6661,
      "longitude": -79.9383,
      "admin_name1": "Panama"
    },
    {
      "place_name": "La Carrillo",
      "postal_code": "08058",
      "country_code": "PA",
      "latitude": 7.9702,
      "longitude": -80.8817,
      "admin_name1": "Veraguas"
    },
    {
      "place_name": "Puerto Vidal",
      "postal_code": "08092",
      "country_code": "PA",
      "latitude": 8.0493,
      "longitude": -81.6045,
      "admin_name1": "Veraguas"
    },
    {
      "place_name": "Man Creek",
      "postal_code": "10009",
      "country_code": "PA",
      "latitude": 8.6848,
      "longitude": -81.7719,
      "admin_name1": "Comarca Ngobe Bugle"
    },
    {
      "place_name": "Jingurudo",
      "postal_code": "12017",
      "country_code": "PA",
      "latitude": 7.8775,
      "longitude": -78.0839,
      "admin_name1": "Darien Y Comarca Embera"
    },
    {
      "place_name": "Cauchero",
      "postal_code": "01004",
      "country_code": "PA",
      "latitude": 9.2973,
      "longitude": -82.3254,
      "admin_name1": "Bocas Del Toro"
    },
    {
      "place_name": "Valle Del Risco",
      "postal_code": "01010",
      "country_code": "PA",
      "latitude": 9.1841,
      "longitude": -82.3876,
      "admin_name1": "Bocas Del Toro"
    },
    {
      "place_name": "Chepillo",
      "postal_code": "07050",
      "country_code": "PA",
      "latitude": 8.954,
      "longitude": -79.1286,
      "admin_name1": "Panama"
    },
    {
      "place_name": "Curundu",
      "postal_code": "07094",
      "country_code": "PA",
      "latitude": 8.9709,
      "longitude": -79.5461,
      "admin_name1": "Panama"
    },
    {
      "place_name": "Cerro Viento",
      "postal_code": "07139",
      "country_code": "PA",
      "latitude": 9.2069,
      "longitude": -79.4185,
      "admin_name1": "Panama"
    },
    {
      "place_name": "Villa Saita",
      "postal_code": "07210",
      "country_code": "PA",
      "latitude": 9.1145,
      "longitude": -79.4723,
      "admin_name1": "Panama"
    },
    {
      "place_name": "Cerro Silvestre",
      "postal_code": "07008",
      "country_code": "PA",
      "latitude": 8.9402,
      "longitude": -79.6799,
      "admin_name1": "Panama"
    },
    {
      "place_name": "Montijo (Cabec)",
      "postal_code": "08059",
      "country_code": "PA",
      "latitude": 8.2911,
      "longitude": -81.0009,
      "admin_name1": "Veraguas"
    },
    {
      "place_name": "San Fransisco (Cabec)",
      "postal_code": "08041",
      "country_code": "PA",
      "latitude": 8.4612,
      "longitude": -80.9973,
      "admin_name1": "Veraguas"
    },
    {
      "place_name": "Tuwai",
      "postal_code": "10008",
      "country_code": "PA",
      "latitude": 8.6848,
      "longitude": -81.7719,
      "admin_name1": "Comarca Ngobe Bugle"
    },
    {
      "place_name": "Camoganti",
      "postal_code": "12002",
      "country_code": "PA",
      "latitude": 8.0417,
      "longitude": -77.8868,
      "admin_name1": "Darien Y Comarca Embera"
    },
    {
      "place_name": "Plaza De Caisan",
      "postal_code": "04049",
      "country_code": "PA",
      "latitude": 8.7435,
      "longitude": -82.8207,
      "admin_name1": "Chiriqui"
    },
    {
      "place_name": "El Caðo",
      "postal_code": "02029",
      "country_code": "PA",
      "latitude": 8.5796,
      "longitude": -80.5169,
      "admin_name1": "Cocle"
    },
    {
      "place_name": "Chepo",
      "postal_code": "05050",
      "country_code": "PA",
      "latitude": 7.75,
      "longitude": -80.8,
      "admin_name1": "Herrera"
    },
    {
      "place_name": "Las Llanas",
      "postal_code": "05014",
      "country_code": "PA",
      "latitude": 7.8904,
      "longitude": -80.6122,
      "admin_name1": "Herrera"
    },
    {
      "place_name": "El Barrero",
      "postal_code": "05025",
      "country_code": "PA",
      "latitude": 7.9335,
      "longitude": -80.5204,
      "admin_name1": "Herrera"
    },
    {
      "place_name": "El Guasimo",
      "postal_code": "06041",
      "country_code": "PA",
      "latitude": 7.8094,
      "longitude": -80.527,
      "admin_name1": "Los Santos"
    },
    {
      "place_name": "Chilibre",
      "postal_code": "07103",
      "country_code": "PA",
      "latitude": 9.154,
      "longitude": -79.6202,
      "admin_name1": "Panama"
    },
    {
      "place_name": "Cbuenos Aires",
      "postal_code": "07024",
      "country_code": "PA",
      "latitude": 8.8562,
      "longitude": -79.7256,
      "admin_name1": "Panama"
    },
    {
      "place_name": "Villa Lobos",
      "postal_code": "07228",
      "country_code": "PA",
      "latitude": 9.0479,
      "longitude": -79.5212,
      "admin_name1": "Panama"
    },
    {
      "place_name": "San Pedro Del Espino",
      "postal_code": "08006",
      "country_code": "PA",
      "latitude": 8.1387,
      "longitude": -81.0821,
      "admin_name1": "Veraguas"
    },
    {
      "place_name": "Hato Juli",
      "postal_code": "10030",
      "country_code": "PA",
      "latitude": 8.3676,
      "longitude": -81.8192,
      "admin_name1": "Comarca Ngobe Bugle"
    },
    {
      "place_name": "Alto De Jesus",
      "postal_code": "10052",
      "country_code": "PA",
      "latitude": 8.4136,
      "longitude": -81.4613,
      "admin_name1": "Comarca Ngobe Bugle"
    },
    {
      "place_name": "Garachine",
      "postal_code": "12004",
      "country_code": "PA",
      "latitude": 8.0668,
      "longitude": -78.3644,
      "admin_name1": "Darien Y Comarca Embera"
    },
    {
      "place_name": "Gualaca (Cabec)",
      "postal_code": "04067",
      "country_code": "PA",
      "latitude": 8.5649,
      "longitude": -82.4117,
      "admin_name1": "Chiriqui"
    },
    {
      "place_name": "Lasjas De Tole",
      "postal_code": "04084",
      "country_code": "PA",
      "latitude": 8.2348,
      "longitude": -81.8391,
      "admin_name1": "Chiriqui"
    },
    {
      "place_name": "Rio Hato",
      "postal_code": "02007",
      "country_code": "PA",
      "latitude": 8.5397,
      "longitude": -80.1643,
      "admin_name1": "Cocle"
    },
    {
      "place_name": "Bayano",
      "postal_code": "06003",
      "country_code": "PA",
      "latitude": 7.6381,
      "longitude": -80.3847,
      "admin_name1": "Los Santos"
    },
    {
      "place_name": "Altos De Curundu",
      "postal_code": "07119",
      "country_code": "PA",
      "latitude": 9.0002,
      "longitude": -79.5244,
      "admin_name1": "Panama"
    },
    {
      "place_name": "Boca La Caja",
      "postal_code": "07131",
      "country_code": "PA",
      "latitude": 8.9845,
      "longitude": -79.5058,
      "admin_name1": "Panama"
    },
    {
      "place_name": "Chame",
      "postal_code": "07140",
      "country_code": "PA",
      "latitude": 9.2069,
      "longitude": -79.4185,
      "admin_name1": "Panama"
    },
    {
      "place_name": "Mano De Piedra",
      "postal_code": "07178",
      "country_code": "PA",
      "latitude": 9.2069,
      "longitude": -79.4185,
      "admin_name1": "Panama"
    },
    {
      "place_name": "Residencial La Castellana",
      "postal_code": "07218",
      "country_code": "PA",
      "latitude": 9.0574,
      "longitude": -79.4759,
      "admin_name1": "Panama"
    },
    {
      "place_name": "Monjaras",
      "postal_code": "08039",
      "country_code": "PA",
      "latitude": 8.3717,
      "longitude": -80.8657,
      "admin_name1": "Veraguas"
    },
    {
      "place_name": "La Peða",
      "postal_code": "08003",
      "country_code": "PA",
      "latitude": 8.062,
      "longitude": -81.001,
      "admin_name1": "Veraguas"
    },
    {
      "place_name": "Quebrada De Oro",
      "postal_code": "08026",
      "country_code": "PA",
      "latitude": 8.0355,
      "longitude": -81.3869,
      "admin_name1": "Veraguas"
    },
    {
      "place_name": "Rio Sabalo",
      "postal_code": "12018",
      "country_code": "PA",
      "latitude": 7.9821,
      "longitude": -78.2194,
      "admin_name1": "Darien Y Comarca Embera"
    },
    {
      "place_name": "Punta Peða",
      "postal_code": "01016",
      "country_code": "PA",
      "latitude": 9.1841,
      "longitude": -82.3876,
      "admin_name1": "Bocas Del Toro"
    },
    {
      "place_name": "Remedios (Cabec)",
      "postal_code": "04072",
      "country_code": "PA",
      "latitude": 8.3312,
      "longitude": -82.0175,
      "admin_name1": "Chiriqui"
    },
    {
      "place_name": "Cocle",
      "postal_code": "02013",
      "country_code": "PA",
      "latitude": 8.4651,
      "longitude": -80.4155,
      "admin_name1": "Cocle"
    },
    {
      "place_name": "Leones",
      "postal_code": "05034",
      "country_code": "PA",
      "latitude": 7.8062,
      "longitude": -80.8087,
      "admin_name1": "Herrera"
    },
    {
      "place_name": "Bajo Corral",
      "postal_code": "06002",
      "country_code": "PA",
      "latitude": 7.6064,
      "longitude": -80.2586,
      "admin_name1": "Los Santos"
    },
    {
      "place_name": "Parque Lefevre",
      "postal_code": "07110",
      "country_code": "PA",
      "latitude": 9.0227,
      "longitude": -79.4786,
      "admin_name1": "Panama"
    },
    {
      "place_name": "Alto Del Chace",
      "postal_code": "07118",
      "country_code": "PA",
      "latitude": 9.0002,
      "longitude": -79.5244,
      "admin_name1": "Panama"
    },
    {
      "place_name": "Cermeðo",
      "postal_code": "07012",
      "country_code": "PA",
      "latitude": 8.6898,
      "longitude": -80.1832,
      "admin_name1": "Panama"
    },
    {
      "place_name": "Nueva Gorgona",
      "postal_code": "07029",
      "country_code": "PA",
      "latitude": 8.5548,
      "longitude": -79.8743,
      "admin_name1": "Panama"
    },
    {
      "place_name": "Urb. Remon Cantera",
      "postal_code": "07224",
      "country_code": "PA",
      "latitude": 9.0479,
      "longitude": -79.5212,
      "admin_name1": "Panama"
    },
    {
      "place_name": "Cebaco",
      "postal_code": "08066",
      "country_code": "PA",
      "latitude": 7.861,
      "longitude": -81.1286,
      "admin_name1": "Veraguas"
    },
    {
      "place_name": "El Bale",
      "postal_code": "10054",
      "country_code": "PA",
      "latitude": 8.346,
      "longitude": -81.3716,
      "admin_name1": "Comarca Ngobe Bugle"
    },
    {
      "place_name": "El Bongo",
      "postal_code": "04028",
      "country_code": "PA",
      "latitude": 8.5926,
      "longitude": -82.6226,
      "admin_name1": "Chiriqui"
    },
    {
      "place_name": "Nombre De Dios",
      "postal_code": "03036",
      "country_code": "PA",
      "latitude": 9.5815,
      "longitude": -79.4685,
      "admin_name1": "Colon"
    },
    {
      "place_name": "Cabuya",
      "postal_code": "05016",
      "country_code": "PA",
      "latitude": 8.031,
      "longitude": -80.6311,
      "admin_name1": "Herrera"
    },
    {
      "place_name": "La Tronosa",
      "postal_code": "06078",
      "country_code": "PA",
      "latitude": 7.4362,
      "longitude": -80.5897,
      "admin_name1": "Los Santos"
    },
    {
      "place_name": "Chepo (Cabec)",
      "postal_code": "07048",
      "country_code": "PA",
      "latitude": 8.5374,
      "longitude": -79.1045,
      "admin_name1": "Panama"
    },
    {
      "place_name": "Torrijos-Carter",
      "postal_code": "07202",
      "country_code": "PA",
      "latitude": 9.2069,
      "longitude": -79.4185,
      "admin_name1": "Panama"
    },
    {
      "place_name": "Amelia D. De Icaza",
      "postal_code": "07081",
      "country_code": "PA",
      "latitude": 9.1077,
      "longitude": -79.3581,
      "admin_name1": "Panama"
    },
    {
      "place_name": "Jose D. Espinar",
      "postal_code": "07083",
      "country_code": "PA",
      "latitude": 9.1077,
      "longitude": -79.3581,
      "admin_name1": "Panama"
    },
    {
      "place_name": "Arraijan (Cabec)",
      "postal_code": "07001",
      "country_code": "PA",
      "latitude": 8.9364,
      "longitude": -79.5561,
      "admin_name1": "Panama"
    },
    {
      "place_name": "Vaca Monte",
      "postal_code": "07112",
      "country_code": "PA",
      "latitude": 9.0002,
      "longitude": -79.5244,
      "admin_name1": "Panama"
    },
    {
      "place_name": "Nargana",
      "postal_code": "09002",
      "country_code": "PA",
      "latitude": 9.4439,
      "longitude": -78.5867,
      "admin_name1": "Comarca Kuna Yala"
    },
    {
      "place_name": "Canto Del Llano",
      "postal_code": "08007",
      "country_code": "PA",
      "latitude": 8.1231,
      "longitude": -80.9642,
      "admin_name1": "Veraguas"
    },
    {
      "place_name": "El Maraðon",
      "postal_code": "08023",
      "country_code": "PA",
      "latitude": 7.8971,
      "longitude": -81.3559,
      "admin_name1": "Veraguas"
    },
    {
      "place_name": "Quebro",
      "postal_code": "08074",
      "country_code": "PA",
      "latitude": 7.4387,
      "longitude": -80.8859,
      "admin_name1": "Veraguas"
    },
    {
      "place_name": "La Palma (Cabec)",
      "postal_code": "12001",
      "country_code": "PA",
      "latitude": 8.1052,
      "longitude": -78.1493,
      "admin_name1": "Darien Y Comarca Embera"
    },
    {
      "place_name": "Lajas Blancas",
      "postal_code": "12028",
      "country_code": "PA",
      "latitude": 8.415,
      "longitude": -77.8087,
      "admin_name1": "Darien Y Comarca Embera"
    },
    {
      "place_name": "Divala",
      "postal_code": "04030",
      "country_code": "PA",
      "latitude": 8.4129,
      "longitude": -82.7137,
      "admin_name1": "Chiriqui"
    },
    {
      "place_name": "Gomez",
      "postal_code": "04020",
      "country_code": "PA",
      "latitude": 8.5649,
      "longitude": -82.7402,
      "admin_name1": "Chiriqui"
    },
    {
      "place_name": "Chiriqui",
      "postal_code": "04004",
      "country_code": "PA",
      "latitude": 8.3971,
      "longitude": -82.3216,
      "admin_name1": "Chiriqui"
    },
    {
      "place_name": "Dominical",
      "postal_code": "04052",
      "country_code": "PA",
      "latitude": 8.6719,
      "longitude": -82.7999,
      "admin_name1": "Chiriqui"
    },
    {
      "place_name": "Pocri",
      "postal_code": "02041",
      "country_code": "PA",
      "latitude": 8.2564,
      "longitude": -80.5463,
      "admin_name1": "Cocle"
    },
    {
      "place_name": "San Uan Bautista",
      "postal_code": "05004",
      "country_code": "PA",
      "latitude": 7.8668,
      "longitude": -80.5142,
      "admin_name1": "Herrera"
    },
    {
      "place_name": "Nuario",
      "postal_code": "06015",
      "country_code": "PA",
      "latitude": 7.5271,
      "longitude": -80.32,
      "admin_name1": "Los Santos"
    },
    {
      "place_name": "Mariabe",
      "postal_code": "06067",
      "country_code": "PA",
      "latitude": 7.5834,
      "longitude": -80.0642,
      "admin_name1": "Los Santos"
    },
    {
      "place_name": "24 De Diciembre",
      "postal_code": "07109",
      "country_code": "PA",
      "latitude": 9.0798,
      "longitude": -79.4525,
      "admin_name1": "Panama"
    },
    {
      "place_name": "Ato Pintado Urbanización",
      "postal_code": "07126",
      "country_code": "PA",
      "latitude": 9.055,
      "longitude": -79.4106,
      "admin_name1": "Panama"
    },
    {
      "place_name": "Colinas Del Golf",
      "postal_code": "07147",
      "country_code": "PA",
      "latitude": 8.9895,
      "longitude": -79.5082,
      "admin_name1": "Panama"
    },
    {
      "place_name": "Coquira",
      "postal_code": "07149",
      "country_code": "PA",
      "latitude": 9.2069,
      "longitude": -79.4185,
      "admin_name1": "Panama"
    },
    {
      "place_name": "La Doña",
      "postal_code": "07168",
      "country_code": "PA",
      "latitude": 9.0495,
      "longitude": -79.4545,
      "admin_name1": "Panama"
    },
    {
      "place_name": "Veranillo",
      "postal_code": "07205",
      "country_code": "PA",
      "latitude": 8.9842,
      "longitude": -79.537,
      "admin_name1": "Panama"
    },
    {
      "place_name": "Arnulfo Arias",
      "postal_code": "07086",
      "country_code": "PA",
      "latitude": 9.1077,
      "longitude": -79.3581,
      "admin_name1": "Panama"
    },
    {
      "place_name": "Cerro Banco",
      "postal_code": "10019",
      "country_code": "PA",
      "latitude": 8.4639,
      "longitude": -81.9407,
      "admin_name1": "Comarca Ngobe Bugle"
    },
    {
      "place_name": "Namnoni",
      "postal_code": "10023",
      "country_code": "PA",
      "latitude": 8.4224,
      "longitude": -81.9109,
      "admin_name1": "Comarca Ngobe Bugle"
    },
    {
      "place_name": "Jadeberi",
      "postal_code": "10037",
      "country_code": "PA",
      "latitude": 8.371,
      "longitude": -81.791,
      "admin_name1": "Comarca Ngobe Bugle"
    },
    {
      "place_name": "Agua Fria",
      "postal_code": "12013",
      "country_code": "PA",
      "latitude": 8.935,
      "longitude": -78.494,
      "admin_name1": "Darien Y Comarca Embera"
    },
    {
      "place_name": "Cerro Punta",
      "postal_code": "04019",
      "country_code": "PA",
      "latitude": 8.8522,
      "longitude": -82.5736,
      "admin_name1": "Chiriqui"
    },
    {
      "place_name": "El Harino",
      "postal_code": "02022",
      "country_code": "PA",
      "latitude": 8.6141,
      "longitude": -80.5582,
      "admin_name1": "Cocle"
    },
    {
      "place_name": "Piedras Gordas",
      "postal_code": "02025",
      "country_code": "PA",
      "latitude": 8.6389,
      "longitude": -80.5114,
      "admin_name1": "Cocle"
    },
    {
      "place_name": "Palmas Bellas",
      "postal_code": "03019",
      "country_code": "PA",
      "latitude": 9.2284,
      "longitude": -80.085,
      "admin_name1": "Colon"
    },
    {
      "place_name": "Las Tablas Abajo",
      "postal_code": "06014",
      "country_code": "PA",
      "latitude": 7.7938,
      "longitude": -80.2525,
      "admin_name1": "Los Santos"
    },
    {
      "place_name": "Macaracas (Cabec)",
      "postal_code": "06054",
      "country_code": "PA",
      "latitude": 7.7904,
      "longitude": -80.4725,
      "admin_name1": "Los Santos"
    },
    {
      "place_name": "Pasiga",
      "postal_code": "07059",
      "country_code": "PA",
      "latitude": 8.9408,
      "longitude": -78.909,
      "admin_name1": "Panama"
    },
    {
      "place_name": "Rio Abajo",
      "postal_code": "07100",
      "country_code": "PA",
      "latitude": 9.024,
      "longitude": -79.4936,
      "admin_name1": "Panama"
    },
    {
      "place_name": "Altos Del Hipodromo",
      "postal_code": "07122",
      "country_code": "PA",
      "latitude": 9.055,
      "longitude": -79.4106,
      "admin_name1": "Panama"
    },
    {
      "place_name": "Cocoli",
      "postal_code": "07146",
      "country_code": "PA",
      "latitude": 9.2069,
      "longitude": -79.4185,
      "admin_name1": "Panama"
    },
    {
      "place_name": "Pan De Azucar",
      "postal_code": "07187",
      "country_code": "PA",
      "latitude": 9.2069,
      "longitude": -79.4185,
      "admin_name1": "Panama"
    },
    {
      "place_name": "Perejil",
      "postal_code": "07190",
      "country_code": "PA",
      "latitude": 8.9757,
      "longitude": -79.5364,
      "admin_name1": "Panama"
    },
    {
      "place_name": "Iturralde",
      "postal_code": "07074",
      "country_code": "PA",
      "latitude": 9.1315,
      "longitude": -79.7278,
      "admin_name1": "Panama"
    },
    {
      "place_name": "Atalaya (Cabec)",
      "postal_code": "08054",
      "country_code": "PA",
      "latitude": 8.2911,
      "longitude": -81.0009,
      "admin_name1": "Veraguas"
    },
    {
      "place_name": "Buri",
      "postal_code": "10002",
      "country_code": "PA",
      "latitude": 8.6848,
      "longitude": -81.7719,
      "admin_name1": "Comarca Ngobe Bugle"
    },
    {
      "place_name": "Sambu",
      "postal_code": "12009",
      "country_code": "PA",
      "latitude": 8.0254,
      "longitude": -78.2093,
      "admin_name1": "Darien Y Comarca Embera"
    },
    {
      "place_name": "Dolega (Cabec)",
      "postal_code": "04059",
      "country_code": "PA",
      "latitude": 8.7303,
      "longitude": -82.5604,
      "admin_name1": "Chiriqui"
    },
    {
      "place_name": "Nata (Cabec)",
      "postal_code": "02027",
      "country_code": "PA",
      "latitude": 8.5796,
      "longitude": -80.5169,
      "admin_name1": "Cocle"
    },
    {
      "place_name": "Toabre",
      "postal_code": "02019",
      "country_code": "PA",
      "latitude": 8.6507,
      "longitude": -80.3212,
      "admin_name1": "Cocle"
    },
    {
      "place_name": "Cuango",
      "postal_code": "03034",
      "country_code": "PA",
      "latitude": 9.5687,
      "longitude": -79.3106,
      "admin_name1": "Colon"
    },
    {
      "place_name": "Santa Maria (Cabec)",
      "postal_code": "05044",
      "country_code": "PA",
      "latitude": 8.0371,
      "longitude": -80.7232,
      "admin_name1": "Herrera"
    },
    {
      "place_name": "Llano Abajo",
      "postal_code": "06037",
      "country_code": "PA",
      "latitude": 7.7939,
      "longitude": -80.4076,
      "admin_name1": "Los Santos"
    },
    {
      "place_name": "Saboga",
      "postal_code": "07047",
      "country_code": "PA",
      "latitude": 8.6269,
      "longitude": -79.0612,
      "admin_name1": "Panama"
    },
    {
      "place_name": "Tocumen",
      "postal_code": "07107",
      "country_code": "PA",
      "latitude": 9.0894,
      "longitude": -79.3831,
      "admin_name1": "Panama"
    },
    {
      "place_name": "Punta Paitilla",
      "postal_code": "07192",
      "country_code": "PA",
      "latitude": 9.0231,
      "longitude": -79.5245,
      "admin_name1": "Panama"
    },
    {
      "place_name": "Santa Librada",
      "postal_code": "07198",
      "country_code": "PA",
      "latitude": 9.0636,
      "longitude": -79.535,
      "admin_name1": "Panama"
    },
    {
      "place_name": "Feuillet",
      "postal_code": "07070",
      "country_code": "PA",
      "latitude": 9.1315,
      "longitude": -79.7278,
      "admin_name1": "Panama"
    },
    {
      "place_name": "Calobre (Cabec)",
      "postal_code": "08029",
      "country_code": "PA",
      "latitude": 7.8971,
      "longitude": -81.3559,
      "admin_name1": "Veraguas"
    },
    {
      "place_name": "El Cocla",
      "postal_code": "08032",
      "country_code": "PA",
      "latitude": 8.3218,
      "longitude": -80.9181,
      "admin_name1": "Veraguas"
    },
    {
      "place_name": "Edwin Fabrega",
      "postal_code": "08010",
      "country_code": "PA",
      "latitude": 8.1879,
      "longitude": -81.2781,
      "admin_name1": "Veraguas"
    },
    {
      "place_name": "Cascabel",
      "postal_code": "10026",
      "country_code": "PA",
      "latitude": 8.5272,
      "longitude": -81.8759,
      "admin_name1": "Comarca Ngobe Bugle"
    },
    {
      "place_name": "Susama",
      "postal_code": "10036",
      "country_code": "PA",
      "latitude": 8.3613,
      "longitude": -81.8007,
      "admin_name1": "Comarca Ngobe Bugle"
    },
    {
      "place_name": "El Real S. M. (Cabec)",
      "postal_code": "12019",
      "country_code": "PA",
      "latitude": 8.305,
      "longitude": -78.1847,
      "admin_name1": "Darien Y Comarca Embera"
    },
    {
      "place_name": "La Concepcion (Cabec)",
      "postal_code": "04016",
      "country_code": "PA",
      "latitude": 8.4553,
      "longitude": -82.7396,
      "admin_name1": "Chiriqui"
    },
    {
      "place_name": "Quebrada De Piedra",
      "postal_code": "04086",
      "country_code": "PA",
      "latitude": 8.096,
      "longitude": -81.6831,
      "admin_name1": "Chiriqui"
    },
    {
      "place_name": "Cbella Vista",
      "postal_code": "04087",
      "country_code": "PA",
      "latitude": 8.2348,
      "longitude": -81.8391,
      "admin_name1": "Chiriqui"
    },
    {
      "place_name": "Veladero",
      "postal_code": "04090",
      "country_code": "PA",
      "latitude": 8.2346,
      "longitude": -81.6525,
      "admin_name1": "Chiriqui"
    },
    {
      "place_name": "El Calabacito",
      "postal_code": "05008",
      "country_code": "PA",
      "latitude": 7.7205,
      "longitude": -80.5972,
      "admin_name1": "Herrera"
    },
    {
      "place_name": "Guarare Arriba",
      "postal_code": "06033",
      "country_code": "PA",
      "latitude": 7.808,
      "longitude": -80.3592,
      "admin_name1": "Los Santos"
    },
    {
      "place_name": "Las Tablas (Cabec)",
      "postal_code": "06001",
      "country_code": "PA",
      "latitude": 7.7039,
      "longitude": -80.2911,
      "admin_name1": "Los Santos"
    },
    {
      "place_name": "Pedro Gonzalez",
      "postal_code": "07046",
      "country_code": "PA",
      "latitude": 8.4143,
      "longitude": -79.1047,
      "admin_name1": "Panama"
    },
    {
      "place_name": "Coco Solo",
      "postal_code": "07145",
      "country_code": "PA",
      "latitude": 8.9895,
      "longitude": -79.5082,
      "admin_name1": "Panama"
    },
    {
      "place_name": "Mateo Iturralde",
      "postal_code": "07084",
      "country_code": "PA",
      "latitude": 9.1077,
      "longitude": -79.3581,
      "admin_name1": "Panama"
    },
    {
      "place_name": "Playa Leonapuerto Caimito",
      "postal_code": "07079",
      "country_code": "PA",
      "latitude": 9.1315,
      "longitude": -79.7278,
      "admin_name1": "Panama"
    },
    {
      "place_name": "Aligandi",
      "postal_code": "09001",
      "country_code": "PA",
      "latitude": 8.2043,
      "longitude": -77.7775,
      "admin_name1": "Comarca Kuna Yala"
    },
    {
      "place_name": "Tibuala",
      "postal_code": "09004",
      "country_code": "PA",
      "latitude": 8.7715,
      "longitude": -77.9278,
      "admin_name1": "Comarca Kuna Yala"
    },
    {
      "place_name": "La Tetilla",
      "postal_code": "08036",
      "country_code": "PA",
      "latitude": 8.2514,
      "longitude": -80.8795,
      "admin_name1": "Veraguas"
    },
    {
      "place_name": "Caðazas (Cabec)",
      "postal_code": "08077",
      "country_code": "PA",
      "latitude": 7.807,
      "longitude": -81.1222,
      "admin_name1": "Veraguas"
    },
    {
      "place_name": "Cerro Iglesias",
      "postal_code": "10033",
      "country_code": "PA",
      "latitude": 8.3613,
      "longitude": -81.8007,
      "admin_name1": "Comarca Ngobe Bugle"
    },
    {
      "place_name": "Changuinola (Cabec)",
      "postal_code": "01006",
      "country_code": "PA",
      "latitude": 9.2973,
      "longitude": -82.3254,
      "admin_name1": "Bocas Del Toro"
    },
    {
      "place_name": "Chiriqui Grande (Cabec)",
      "postal_code": "01013",
      "country_code": "PA",
      "latitude": 9.1841,
      "longitude": -82.3876,
      "admin_name1": "Bocas Del Toro"
    },
    {
      "place_name": "Paja De Sombrero",
      "postal_code": "04070",
      "country_code": "PA",
      "latitude": 8.6861,
      "longitude": -82.3215,
      "admin_name1": "Chiriqui"
    },
    {
      "place_name": "Rio Sereno (Cabec)",
      "postal_code": "04045",
      "country_code": "PA",
      "latitude": 8.6435,
      "longitude": -82.6501,
      "admin_name1": "Chiriqui"
    },
    {
      "place_name": "Tulu",
      "postal_code": "02020",
      "country_code": "PA",
      "latitude": 8.7399,
      "longitude": -80.4052,
      "admin_name1": "Cocle"
    },
    {
      "place_name": "Carate",
      "postal_code": "06004",
      "country_code": "PA",
      "latitude": 7.732,
      "longitude": -80.2954,
      "admin_name1": "Los Santos"
    },
    {
      "place_name": "Pedasi (Cabec)",
      "postal_code": "06065",
      "country_code": "PA",
      "latitude": 7.6085,
      "longitude": -80.3279,
      "admin_name1": "Los Santos"
    },
    {
      "place_name": "Pocri (Cabec)",
      "postal_code": "06025",
      "country_code": "PA",
      "latitude": 7.6939,
      "longitude": -80.2317,
      "admin_name1": "Los Santos"
    },
    {
      "place_name": "Carrasquilla",
      "postal_code": "07136",
      "country_code": "PA",
      "latitude": 9.0023,
      "longitude": -79.5135,
      "admin_name1": "Panama"
    },
    {
      "place_name": "Rana De Oro",
      "postal_code": "07217",
      "country_code": "PA",
      "latitude": 9.0794,
      "longitude": -79.428,
      "admin_name1": "Panama"
    },
    {
      "place_name": "Barnizal",
      "postal_code": "08030",
      "country_code": "PA",
      "latitude": 8.4046,
      "longitude": -80.7777,
      "admin_name1": "Veraguas"
    },
    {
      "place_name": "La Raya De Calobre",
      "postal_code": "08035",
      "country_code": "PA",
      "latitude": 8.2206,
      "longitude": -80.8256,
      "admin_name1": "Veraguas"
    },
    {
      "place_name": "El Picador",
      "postal_code": "08081",
      "country_code": "PA",
      "latitude": 8.3795,
      "longitude": -81.255,
      "admin_name1": "Veraguas"
    },
    {
      "place_name": "Maraca",
      "postal_code": "10044",
      "country_code": "PA",
      "latitude": 8.3761,
      "longitude": -81.7333,
      "admin_name1": "Comarca Ngobe Bugle"
    },
    {
      "place_name": "Rio Iglesias",
      "postal_code": "12008",
      "country_code": "PA",
      "latitude": 8.3971,
      "longitude": -78.0104,
      "admin_name1": "Darien Y Comarca Embera"
    },
    {
      "place_name": "Rambala",
      "postal_code": "01017",
      "country_code": "PA",
      "latitude": 8.9262,
      "longitude": -82.1838,
      "admin_name1": "Bocas Del Toro"
    },
    {
      "place_name": "Los Cerros De Paja",
      "postal_code": "05013",
      "country_code": "PA",
      "latitude": 7.7206,
      "longitude": -80.6708,
      "admin_name1": "Herrera"
    },
    {
      "place_name": "Vallerriquito",
      "postal_code": "06024",
      "country_code": "PA",
      "latitude": 7.6223,
      "longitude": -80.3166,
      "admin_name1": "Los Santos"
    },
    {
      "place_name": "Madungandi",
      "postal_code": "07063",
      "country_code": "PA",
      "latitude": 8.8279,
      "longitude": -79.714,
      "admin_name1": "Panama"
    },
    {
      "place_name": "Panama Viejo",
      "postal_code": "07188",
      "country_code": "PA",
      "latitude": 8.9842,
      "longitude": -79.537,
      "admin_name1": "Panama"
    },
    {
      "place_name": "La Garcena",
      "postal_code": "08061",
      "country_code": "PA",
      "latitude": 7.861,
      "longitude": -81.1286,
      "admin_name1": "Veraguas"
    },
    {
      "place_name": "Ponuga",
      "postal_code": "08005",
      "country_code": "PA",
      "latitude": 7.8827,
      "longitude": -80.9771,
      "admin_name1": "Veraguas"
    },
    {
      "place_name": "Hato Culantro",
      "postal_code": "10028",
      "country_code": "PA",
      "latitude": 8.4721,
      "longitude": -81.862,
      "admin_name1": "Comarca Ngobe Bugle"
    },
    {
      "place_name": "Alto Caballero",
      "postal_code": "10039",
      "country_code": "PA",
      "latitude": 8.2932,
      "longitude": -81.6751,
      "admin_name1": "Comarca Ngobe Bugle"
    },
    {
      "place_name": "Jaque",
      "postal_code": "12005",
      "country_code": "PA",
      "latitude": 7.5183,
      "longitude": -78.1634,
      "admin_name1": "Darien Y Comarca Embera"
    },
    {
      "place_name": "Bajo Boquete (Cabec)",
      "postal_code": "04053",
      "country_code": "PA",
      "latitude": 8.7303,
      "longitude": -82.5604,
      "admin_name1": "Chiriqui"
    },
    {
      "place_name": "Miguel De La Borda (Cabec)",
      "postal_code": "03022",
      "country_code": "PA",
      "latitude": 9.2509,
      "longitude": -80.1528,
      "admin_name1": "Colon"
    },
    {
      "place_name": "Rincon Hondo",
      "postal_code": "05029",
      "country_code": "PA",
      "latitude": 7.8421,
      "longitude": -80.603,
      "admin_name1": "Herrera"
    },
    {
      "place_name": "La Villa De Los Santos",
      "postal_code": "06040",
      "country_code": "PA",
      "latitude": 7.936,
      "longitude": -80.413,
      "admin_name1": "Los Santos"
    },
    {
      "place_name": "Llano De Piedra",
      "postal_code": "06063",
      "country_code": "PA",
      "latitude": 7.6657,
      "longitude": -80.5625,
      "admin_name1": "Los Santos"
    },
    {
      "place_name": "Aeropuerto De Tocumen",
      "postal_code": "07114",
      "country_code": "PA",
      "latitude": 9.0002,
      "longitude": -79.5244,
      "admin_name1": "Panama"
    },
    {
      "place_name": "Sajalices",
      "postal_code": "07031",
      "country_code": "PA",
      "latitude": 8.6819,
      "longitude": -79.8676,
      "admin_name1": "Panama"
    },
    {
      "place_name": "Hato Jobo",
      "postal_code": "10029",
      "country_code": "PA",
      "latitude": 8.4103,
      "longitude": -81.8924,
      "admin_name1": "Comarca Ngobe Bugle"
    },
    {
      "place_name": "Bagama",
      "postal_code": "10040",
      "country_code": "PA",
      "latitude": 8.3665,
      "longitude": -81.6649,
      "admin_name1": "Comarca Ngobe Bugle"
    },
    {
      "place_name": "Puerto Piða",
      "postal_code": "12006",
      "country_code": "PA",
      "latitude": 8.1052,
      "longitude": -78.1493,
      "admin_name1": "Darien Y Comarca Embera"
    },
    {
      "place_name": "Guabito",
      "postal_code": "01008",
      "country_code": "PA",
      "latitude": 9.4944,
      "longitude": -82.6115,
      "admin_name1": "Bocas Del Toro"
    },
    {
      "place_name": "Breðon",
      "postal_code": "04046",
      "country_code": "PA",
      "latitude": 8.6435,
      "longitude": -82.6501,
      "admin_name1": "Chiriqui"
    },
    {
      "place_name": "Juay",
      "postal_code": "04092",
      "country_code": "PA",
      "latitude": 8.2869,
      "longitude": -81.9476,
      "admin_name1": "Chiriqui"
    },
    {
      "place_name": "Justo Fidel Palacios",
      "postal_code": "04089",
      "country_code": "PA",
      "latitude": 8.2348,
      "longitude": -81.8391,
      "admin_name1": "Chiriqui"
    },
    {
      "place_name": "Penonome (Cabec)",
      "postal_code": "02011",
      "country_code": "PA",
      "latitude": 8.5783,
      "longitude": -80.3153,
      "admin_name1": "Cocle"
    },
    {
      "place_name": "El Enea",
      "postal_code": "06034",
      "country_code": "PA",
      "latitude": 7.8388,
      "longitude": -80.2723,
      "admin_name1": "Los Santos"
    },
    {
      "place_name": "Las Guabas",
      "postal_code": "06045",
      "country_code": "PA",
      "latitude": 7.8147,
      "longitude": -80.5015,
      "admin_name1": "Los Santos"
    },
    {
      "place_name": "Paritilla",
      "postal_code": "06029",
      "country_code": "PA",
      "latitude": 7.6293,
      "longitude": -80.1742,
      "admin_name1": "Los Santos"
    },
    {
      "place_name": "Altos Del Crisol",
      "postal_code": "07121",
      "country_code": "PA",
      "latitude": 9.055,
      "longitude": -79.4106,
      "admin_name1": "Panama"
    },
    {
      "place_name": "Arraijan",
      "postal_code": "07125",
      "country_code": "PA",
      "latitude": 9.055,
      "longitude": -79.4106,
      "admin_name1": "Panama"
    },
    {
      "place_name": "Viejo Veranillo",
      "postal_code": "07207",
      "country_code": "PA",
      "latitude": 8.9842,
      "longitude": -79.537,
      "admin_name1": "Panama"
    },
    {
      "place_name": "Burunga",
      "postal_code": "07007",
      "country_code": "PA",
      "latitude": 8.9619,
      "longitude": -79.6723,
      "admin_name1": "Panama"
    },
    {
      "place_name": "Ciri Grande",
      "postal_code": "07014",
      "country_code": "PA",
      "latitude": 8.7648,
      "longitude": -80.0567,
      "admin_name1": "Panama"
    },
    {
      "place_name": "Villa Rosario",
      "postal_code": "07020",
      "country_code": "PA",
      "latitude": 8.7797,
      "longitude": -79.8735,
      "admin_name1": "Panama"
    },
    {
      "place_name": "Barrio Colon",
      "postal_code": "07065",
      "country_code": "PA",
      "latitude": 8.8279,
      "longitude": -79.714,
      "admin_name1": "Panama"
    },
    {
      "place_name": "Emplanada De Corcha",
      "postal_code": "10022",
      "country_code": "PA",
      "latitude": 8.4224,
      "longitude": -81.9109,
      "admin_name1": "Comarca Ngobe Bugle"
    },
    {
      "place_name": "Hato Corotu",
      "postal_code": "10027",
      "country_code": "PA",
      "latitude": 8.3352,
      "longitude": -81.9703,
      "admin_name1": "Comarca Ngobe Bugle"
    },
    {
      "place_name": "Pinogana",
      "postal_code": "12022",
      "country_code": "PA",
      "latitude": 8.1172,
      "longitude": -77.6831,
      "admin_name1": "Darien Y Comarca Embera"
    },
    {
      "place_name": "Pucuro",
      "postal_code": "12023",
      "country_code": "PA",
      "latitude": 7.9788,
      "longitude": -77.4876,
      "admin_name1": "Darien Y Comarca Embera"
    },
    {
      "place_name": "Tijeras",
      "postal_code": "04044",
      "country_code": "PA",
      "latitude": 8.4693,
      "longitude": -82.5484,
      "admin_name1": "Chiriqui"
    },
    {
      "place_name": "Sortova",
      "postal_code": "04026",
      "country_code": "PA",
      "latitude": 8.5511,
      "longitude": -82.6509,
      "admin_name1": "Chiriqui"
    },
    {
      "place_name": "Cochea",
      "postal_code": "04003",
      "country_code": "PA",
      "latitude": 8.4443,
      "longitude": -82.4131,
      "admin_name1": "Chiriqui"
    },
    {
      "place_name": "San Pablo Nuevo",
      "postal_code": "04009",
      "country_code": "PA",
      "latitude": 8.4277,
      "longitude": -82.5001,
      "admin_name1": "Chiriqui"
    },
    {
      "place_name": "Caðas Gordas",
      "postal_code": "04047",
      "country_code": "PA",
      "latitude": 8.6435,
      "longitude": -82.6501,
      "admin_name1": "Chiriqui"
    },
    {
      "place_name": "Tole(Cabec)",
      "postal_code": "04082",
      "country_code": "PA",
      "latitude": 8.2348,
      "longitude": -81.8391,
      "admin_name1": "Chiriqui"
    },
    {
      "place_name": "Sabanitas",
      "postal_code": "03011",
      "country_code": "PA",
      "latitude": 9.3452,
      "longitude": -79.8054,
      "admin_name1": "Colon"
    },
    {
      "place_name": "Bahia La Mina",
      "postal_code": "03042",
      "country_code": "PA",
      "latitude": 9.5222,
      "longitude": -79.6159,
      "admin_name1": "Colon"
    },
    {
      "place_name": "San Jose Del General",
      "postal_code": "03027",
      "country_code": "PA",
      "latitude": 9.2509,
      "longitude": -80.1528,
      "admin_name1": "Colon"
    },
    {
      "place_name": "Portobelo (Cabec)",
      "postal_code": "03028",
      "country_code": "PA",
      "latitude": 9.2509,
      "longitude": -80.1528,
      "admin_name1": "Colon"
    },
    {
      "place_name": "Maria Chiquita",
      "postal_code": "03032",
      "country_code": "PA",
      "latitude": 9.4429,
      "longitude": -79.753,
      "admin_name1": "Colon"
    },
    {
      "place_name": "Los Asientos",
      "postal_code": "06066",
      "country_code": "PA",
      "latitude": 7.5185,
      "longitude": -80.1329,
      "admin_name1": "Los Santos"
    },
    {
      "place_name": "Caðas",
      "postal_code": "06072",
      "country_code": "PA",
      "latitude": 7.4177,
      "longitude": -80.487,
      "admin_name1": "Los Santos"
    },
    {
      "place_name": "Sta. Cruz De Chinina",
      "postal_code": "07053",
      "country_code": "PA",
      "latitude": 8.8901,
      "longitude": -78.7833,
      "admin_name1": "Panama"
    },
    {
      "place_name": "Villa Caceres",
      "postal_code": "07208",
      "country_code": "PA",
      "latitude": 9.0154,
      "longitude": -79.5217,
      "admin_name1": "Panama"
    },
    {
      "place_name": "Omar Torrijos",
      "postal_code": "07088",
      "country_code": "PA",
      "latitude": 9.1077,
      "longitude": -79.3581,
      "admin_name1": "Panama"
    },
    {
      "place_name": "Rufina Alfaro",
      "postal_code": "07089",
      "country_code": "PA",
      "latitude": 9.1077,
      "longitude": -79.3581,
      "admin_name1": "Panama"
    },
    {
      "place_name": "Obaldia",
      "postal_code": "07078",
      "country_code": "PA",
      "latitude": 9.1315,
      "longitude": -79.7278,
      "admin_name1": "Panama"
    },
    {
      "place_name": "Hato Pilon",
      "postal_code": "10025",
      "country_code": "PA",
      "latitude": 8.4017,
      "longitude": -81.8681,
      "admin_name1": "Comarca Ngobe Bugle"
    },
    {
      "place_name": "Guariviara",
      "postal_code": "10004",
      "country_code": "PA",
      "latitude": 8.6848,
      "longitude": -81.7719,
      "admin_name1": "Comarca Ngobe Bugle"
    },
    {
      "place_name": "Bahia Azul",
      "postal_code": "10012",
      "country_code": "PA",
      "latitude": 9.1418,
      "longitude": -81.8942,
      "admin_name1": "Comarca Ngobe Bugle"
    },
    {
      "place_name": "Bocas Del Toro (Cabecera)",
      "postal_code": "01001",
      "country_code": "PA",
      "latitude": 9.2973,
      "longitude": -82.3254,
      "admin_name1": "Bocas Del Toro"
    },
    {
      "place_name": "Alto Boquete",
      "postal_code": "04056",
      "country_code": "PA",
      "latitude": 8.7362,
      "longitude": -82.4333,
      "admin_name1": "Chiriqui"
    },
    {
      "place_name": "Las Lajas (Cabec)",
      "postal_code": "04091",
      "country_code": "PA",
      "latitude": 8.2599,
      "longitude": -81.8523,
      "admin_name1": "Chiriqui"
    },
    {
      "place_name": "Boca Del Monte",
      "postal_code": "04079",
      "country_code": "PA",
      "latitude": 8.3564,
      "longitude": -82.1169,
      "admin_name1": "Chiriqui"
    },
    {
      "place_name": "Potrero De Caða",
      "postal_code": "04085",
      "country_code": "PA",
      "latitude": 8.2348,
      "longitude": -81.8391,
      "admin_name1": "Chiriqui"
    },
    {
      "place_name": "Caðaberal",
      "postal_code": "02012",
      "country_code": "PA",
      "latitude": 8.5783,
      "longitude": -80.3153,
      "admin_name1": "Cocle"
    },
    {
      "place_name": "Viento Frio",
      "postal_code": "03040",
      "country_code": "PA",
      "latitude": 9.5826,
      "longitude": -79.4069,
      "admin_name1": "Colon"
    },
    {
      "place_name": "Ocu (Cabec)",
      "postal_code": "05037",
      "country_code": "PA",
      "latitude": 7.8062,
      "longitude": -80.8087,
      "admin_name1": "Herrera"
    },
    {
      "place_name": "Llana De La Cruz",
      "postal_code": "05018",
      "country_code": "PA",
      "latitude": 7.8904,
      "longitude": -80.6122,
      "admin_name1": "Herrera"
    },
    {
      "place_name": "Pese (Cabec)",
      "postal_code": "05022",
      "country_code": "PA",
      "latitude": 7.9391,
      "longitude": -80.5971,
      "admin_name1": "Herrera"
    },
    {
      "place_name": "Altos De Guerra",
      "postal_code": "06071",
      "country_code": "PA",
      "latitude": 7.4177,
      "longitude": -80.487,
      "admin_name1": "Los Santos"
    },
    {
      "place_name": "Taboga",
      "postal_code": "07060",
      "country_code": "PA",
      "latitude": 8.8279,
      "longitude": -79.714,
      "admin_name1": "Panama"
    },
    {
      "place_name": "Punta Chame",
      "postal_code": "07030",
      "country_code": "PA",
      "latitude": 8.6442,
      "longitude": -79.707,
      "admin_name1": "Panama"
    },
    {
      "place_name": "Cative",
      "postal_code": "08022",
      "country_code": "PA",
      "latitude": 7.9191,
      "longitude": -81.3801,
      "admin_name1": "Veraguas"
    },
    {
      "place_name": "Quebrada De Loro",
      "postal_code": "10031",
      "country_code": "PA",
      "latitude": 8.3544,
      "longitude": -81.918,
      "admin_name1": "Comarca Ngobe Bugle"
    },
    {
      "place_name": "Cerro Caða",
      "postal_code": "10041",
      "country_code": "PA",
      "latitude": 8.3665,
      "longitude": -81.6649,
      "admin_name1": "Comarca Ngobe Bugle"
    },
    {
      "place_name": "Kankitu",
      "postal_code": "10003",
      "country_code": "PA",
      "latitude": 8.6848,
      "longitude": -81.7719,
      "admin_name1": "Comarca Ngobe Bugle"
    },
    {
      "place_name": "Kusapin",
      "postal_code": "10010",
      "country_code": "PA",
      "latitude": 9.1816,
      "longitude": -81.8879,
      "admin_name1": "Comarca Ngobe Bugle"
    },
    {
      "place_name": "El Chiru",
      "postal_code": "02003",
      "country_code": "PA",
      "latitude": 8.5706,
      "longitude": -80.1497,
      "admin_name1": "Cocle"
    },
    {
      "place_name": "Oria Arriba",
      "postal_code": "06069",
      "country_code": "PA",
      "latitude": 7.5075,
      "longitude": -80.206,
      "admin_name1": "Los Santos"
    },
    {
      "place_name": "Chiman (Cabec)",
      "postal_code": "07055",
      "country_code": "PA",
      "latitude": 8.8901,
      "longitude": -78.7833,
      "admin_name1": "Panama"
    },
    {
      "place_name": "Gatun",
      "postal_code": "07162",
      "country_code": "PA",
      "latitude": 9.0495,
      "longitude": -79.4545,
      "admin_name1": "Panama"
    },
    {
      "place_name": "Lidice",
      "postal_code": "07018",
      "country_code": "PA",
      "latitude": 8.7487,
      "longitude": -79.9097,
      "admin_name1": "Panama"
    },
    {
      "place_name": "Urbanizacion Balmoral",
      "postal_code": "07225",
      "country_code": "PA",
      "latitude": 9.0585,
      "longitude": -79.434,
      "admin_name1": "Panama"
    },
    {
      "place_name": "La Raya Sta. Maria",
      "postal_code": "08004",
      "country_code": "PA",
      "latitude": 8.062,
      "longitude": -81.001,
      "admin_name1": "Veraguas"
    },
    {
      "place_name": "Tebario",
      "postal_code": "08075",
      "country_code": "PA",
      "latitude": 7.7192,
      "longitude": -80.9746,
      "admin_name1": "Veraguas"
    },
    {
      "place_name": "Cerro De Patena",
      "postal_code": "10020",
      "country_code": "PA",
      "latitude": 8.4224,
      "longitude": -81.9109,
      "admin_name1": "Comarca Ngobe Bugle"
    },
    {
      "place_name": "Taimati",
      "postal_code": "12011",
      "country_code": "PA",
      "latitude": 8.1536,
      "longitude": -78.2444,
      "admin_name1": "Darien Y Comarca Embera"
    },
    {
      "place_name": "Hornito",
      "postal_code": "04068",
      "country_code": "PA",
      "latitude": 8.5649,
      "longitude": -82.4117,
      "admin_name1": "Chiriqui"
    },
    {
      "place_name": "Gobea",
      "postal_code": "03025",
      "country_code": "PA",
      "latitude": 9.1679,
      "longitude": -80.2538,
      "admin_name1": "Colon"
    },
    {
      "place_name": "Palenque (Cabec)",
      "postal_code": "03033",
      "country_code": "PA",
      "latitude": 9.5618,
      "longitude": -79.4135,
      "admin_name1": "Colon"
    },
    {
      "place_name": "Chitre (Cabec)",
      "postal_code": "05001",
      "country_code": "PA",
      "latitude": 7.8668,
      "longitude": -80.5142,
      "admin_name1": "Herrera"
    },
    {
      "place_name": "Chumical",
      "postal_code": "05032",
      "country_code": "PA",
      "latitude": 7.8464,
      "longitude": -80.7366,
      "admin_name1": "Herrera"
    },
    {
      "place_name": "Alta Mira",
      "postal_code": "07117",
      "country_code": "PA",
      "latitude": 9.0002,
      "longitude": -79.5244,
      "admin_name1": "Panama"
    },
    {
      "place_name": "Ave. Balboa",
      "postal_code": "07127",
      "country_code": "PA",
      "latitude": 9.055,
      "longitude": -79.4106,
      "admin_name1": "Panama"
    },
    {
      "place_name": "Gonzalillo",
      "postal_code": "07163",
      "country_code": "PA",
      "latitude": 9.0978,
      "longitude": -79.5131,
      "admin_name1": "Panama"
    },
    {
      "place_name": "Cerro De Plata",
      "postal_code": "08078",
      "country_code": "PA",
      "latitude": 7.807,
      "longitude": -81.1222,
      "admin_name1": "Veraguas"
    },
    {
      "place_name": "Lajas Adentro",
      "postal_code": "04094",
      "country_code": "PA",
      "latitude": 8.2493,
      "longitude": -81.8797,
      "admin_name1": "Chiriqui"
    },
    {
      "place_name": "Monagrillo",
      "postal_code": "05003",
      "country_code": "PA",
      "latitude": 7.9826,
      "longitude": -80.433,
      "admin_name1": "Herrera"
    },
    {
      "place_name": "El Tijera",
      "postal_code": "05042",
      "country_code": "PA",
      "latitude": 8.0371,
      "longitude": -80.7232,
      "admin_name1": "Herrera"
    },
    {
      "place_name": "Parita (Cabec)",
      "postal_code": "05015",
      "country_code": "PA",
      "latitude": 7.8904,
      "longitude": -80.6122,
      "admin_name1": "Herrera"
    },
    {
      "place_name": "Guanico",
      "postal_code": "06077",
      "country_code": "PA",
      "latitude": 7.2909,
      "longitude": -80.4328,
      "admin_name1": "Los Santos"
    },
    {
      "place_name": "San Miguel /Cabec)",
      "postal_code": "07042",
      "country_code": "PA",
      "latitude": 8.5374,
      "longitude": -79.1045,
      "admin_name1": "Panama"
    },
    {
      "place_name": "24 Diciembre",
      "postal_code": "07113",
      "country_code": "PA",
      "latitude": 9.0002,
      "longitude": -79.5244,
      "admin_name1": "Panama"
    },
    {
      "place_name": "Urb. Dos Mares",
      "postal_code": "07203",
      "country_code": "PA",
      "latitude": 9.0154,
      "longitude": -79.5217,
      "admin_name1": "Panama"
    },
    {
      "place_name": "Viila Carmen",
      "postal_code": "07019",
      "country_code": "PA",
      "latitude": 8.6898,
      "longitude": -80.1832,
      "admin_name1": "Panama"
    },
    {
      "place_name": "Arosemena",
      "postal_code": "07067",
      "country_code": "PA",
      "latitude": 8.9734,
      "longitude": -79.9653,
      "admin_name1": "Panama"
    },
    {
      "place_name": "El Aromillo",
      "postal_code": "08083",
      "country_code": "PA",
      "latitude": 8.2532,
      "longitude": -81.3737,
      "admin_name1": "Veraguas"
    },
    {
      "place_name": "El Maria",
      "postal_code": "08087",
      "country_code": "PA",
      "latitude": 8.248,
      "longitude": -81.4317,
      "admin_name1": "Veraguas"
    },
    {
      "place_name": "Llano De Cativa",
      "postal_code": "08072",
      "country_code": "PA",
      "latitude": 7.807,
      "longitude": -81.1222,
      "admin_name1": "Veraguas"
    },
    {
      "place_name": "Soloy",
      "postal_code": "10017",
      "country_code": "PA",
      "latitude": 8.4969,
      "longitude": -82.072,
      "admin_name1": "Comarca Ngobe Bugle"
    },
    {
      "place_name": "Yape",
      "postal_code": "12024",
      "country_code": "PA",
      "latitude": 8.0984,
      "longitude": -77.5982,
      "admin_name1": "Darien Y Comarca Embera"
    },
    {
      "place_name": "Querevalo",
      "postal_code": "04033",
      "country_code": "PA",
      "latitude": 8.3724,
      "longitude": -82.5199,
      "admin_name1": "Chiriqui"
    },
    {
      "place_name": "San Pablo Viejo",
      "postal_code": "04010",
      "country_code": "PA",
      "latitude": 8.4553,
      "longitude": -82.7396,
      "admin_name1": "Chiriqui"
    },
    {
      "place_name": "El Cope",
      "postal_code": "02034",
      "country_code": "PA",
      "latitude": 8.4393,
      "longitude": -80.6801,
      "admin_name1": "Cocle"
    },
    {
      "place_name": "Los Pozos (Cabec)",
      "postal_code": "05006",
      "country_code": "PA",
      "latitude": 7.8668,
      "longitude": -80.5142,
      "admin_name1": "Herrera"
    },
    {
      "place_name": "Valle Rico",
      "postal_code": "06023",
      "country_code": "PA",
      "latitude": 7.73,
      "longitude": -80.2483,
      "admin_name1": "Los Santos"
    },
    {
      "place_name": "Jardin Olimpico",
      "postal_code": "07164",
      "country_code": "PA",
      "latitude": 9.0306,
      "longitude": -79.4702,
      "admin_name1": "Panama"
    },
    {
      "place_name": "Villa De La Fuente",
      "postal_code": "07209",
      "country_code": "PA",
      "latitude": 9.0154,
      "longitude": -79.5217,
      "admin_name1": "Panama"
    },
    {
      "place_name": "Villa Unida",
      "postal_code": "07211",
      "country_code": "PA",
      "latitude": 9.1918,
      "longitude": -79.6237,
      "admin_name1": "Panama"
    },
    {
      "place_name": "Victoriano Lorenzo",
      "postal_code": "07085",
      "country_code": "PA",
      "latitude": 9.0593,
      "longitude": -79.4898,
      "admin_name1": "Panama"
    },
    {
      "place_name": "Chame (Cabec)",
      "postal_code": "07022",
      "country_code": "PA",
      "latitude": 8.8562,
      "longitude": -79.7256,
      "admin_name1": "Panama"
    },
    {
      "place_name": "Puerto Obaldia",
      "postal_code": "09003",
      "country_code": "PA",
      "latitude": 8.6663,
      "longitude": -77.4192,
      "admin_name1": "Comarca Kuna Yala"
    },
    {
      "place_name": "Bisvalles",
      "postal_code": "08014",
      "country_code": "PA",
      "latitude": 8.1847,
      "longitude": -81.2211,
      "admin_name1": "Veraguas"
    },
    {
      "place_name": "Las Palmas (Cabec)",
      "postal_code": "08084",
      "country_code": "PA",
      "latitude": 8.2532,
      "longitude": -81.3737,
      "admin_name1": "Veraguas"
    },
    {
      "place_name": "Union Del Norte",
      "postal_code": "08064",
      "country_code": "PA",
      "latitude": 7.861,
      "longitude": -81.1286,
      "admin_name1": "Veraguas"
    },
    {
      "place_name": "Catorce De Noviembre",
      "postal_code": "08071",
      "country_code": "PA",
      "latitude": 7.807,
      "longitude": -81.1222,
      "admin_name1": "Veraguas"
    },
    {
      "place_name": "Rio Luis",
      "postal_code": "08053",
      "country_code": "PA",
      "latitude": 8.6827,
      "longitude": -81.2195,
      "admin_name1": "Veraguas"
    },
    {
      "place_name": "Cerro Puerco",
      "postal_code": "10042",
      "country_code": "PA",
      "latitude": 8.3505,
      "longitude": -81.6815,
      "admin_name1": "Comarca Ngobe Bugle"
    },
    {
      "place_name": "Cucunati",
      "postal_code": "12014",
      "country_code": "PA",
      "latitude": 8.5791,
      "longitude": -78.2558,
      "admin_name1": "Darien Y Comarca Embera"
    },
    {
      "place_name": "Boca De Chupe",
      "postal_code": "12020",
      "country_code": "PA",
      "latitude": 8.1675,
      "longitude": -77.6647,
      "admin_name1": "Darien Y Comarca Embera"
    },
    {
      "place_name": "Cirilo Guaynora",
      "postal_code": "12027",
      "country_code": "PA",
      "latitude": 8.1675,
      "longitude": -77.6647,
      "admin_name1": "Darien Y Comarca Embera"
    }
  ]
]