[
  [
    {
      "place_name": "Jurong West Street 71",
      "postal_code": "640707",
      "country_code": "SG",
      "latitude": 1.3418,
      "longitude": 103.694,
      "admin_name1": null
    },
    {
      "place_name": "Jurong West Street 73",
      "postal_code": "640744",
      "country_code": "SG",
      "latitude": 1.3467,
      "longitude": 103.699,
      "admin_name1": null
    },
    {
      "place_name": "Jurong West Street 81",
      "postal_code": "640812",
      "country_code": "SG",
      "latitude": 1.3463,
      "longitude": 103.6959,
      "admin_name1": null
    },
    {
      "place_name": "Jurong West Street 91",
      "postal_code": "640916",
      "country_code": "SG",
      "latitude": 1.3407,
      "longitude": 103.6878,
      "admin_name1": null
    },
    {
      "place_name": "Jurong West Street 93",
      "postal_code": "640967",
      "country_code": "SG",
      "latitude": 1.3414,
      "longitude": 103.6933,
      "admin_name1": null
    },
    {
      "place_name": "Jurong West Street 64",
      "postal_code": "641677",
      "country_code": "SG",
      "latitude": 1.3456,
      "longitude": 103.705,
      "admin_name1": null
    },
    {
      "place_name": "Jurong West Street 74",
      "postal_code": "641764",
      "country_code": "SG",
      "latitude": 1.35,
      "longitude": 103.699,
      "admin_name1": null
    },
    {
      "place_name": "Jurong West Street 65",
      "postal_code": "642663",
      "country_code": "SG",
      "latitude": 1.3381,
      "longitude": 103.7016,
      "admin_name1": null
    },
    {
      "place_name": "Westwood Avenue",
      "postal_code": "648209",
      "country_code": "SG",
      "latitude": 1.3524,
      "longitude": 103.6979,
      "admin_name1": null
    },
    {
      "place_name": "Lakeside Drive",
      "postal_code": "648318",
      "country_code": "SG",
      "latitude": 1.3431,
      "longitude": 103.7179,
      "admin_name1": null
    },
    {
      "place_name": "Westwood Crescent",
      "postal_code": "648500",
      "country_code": "SG",
      "latitude": 1.3526,
      "longitude": 103.7001,
      "admin_name1": null
    },
    {
      "place_name": "Westwood Road",
      "postal_code": "648570",
      "country_code": "SG",
      "latitude": 1.3513,
      "longitude": 103.6992,
      "admin_name1": null
    },
    {
      "place_name": "Westwood Walk",
      "postal_code": "648676",
      "country_code": "SG",
      "latitude": 1.3524,
      "longitude": 103.6989,
      "admin_name1": null
    },
    {
      "place_name": "Westwood Drive",
      "postal_code": "648857",
      "country_code": "SG",
      "latitude": 1.3511,
      "longitude": 103.7006,
      "admin_name1": null
    },
    {
      "place_name": "Jurong West Street 42",
      "postal_code": "649371",
      "country_code": "SG",
      "latitude": 1.3523,
      "longitude": 103.7218,
      "admin_name1": null
    },
    {
      "place_name": "Jurong West Avenue 5",
      "postal_code": "649486",
      "country_code": "SG",
      "latitude": 1.3488,
      "longitude": 103.7034,
      "admin_name1": null
    },
    {
      "place_name": "Corporation Road",
      "postal_code": "649820",
      "country_code": "SG",
      "latitude": 1.342,
      "longitude": 103.7167,
      "admin_name1": null
    },
    {
      "place_name": "Bukit Batok West Avenue 6",
      "postal_code": "650107",
      "country_code": "SG",
      "latitude": 1.3478,
      "longitude": 103.7466,
      "admin_name1": null
    },
    {
      "place_name": "Bukit Batok Central",
      "postal_code": "650120",
      "country_code": "SG",
      "latitude": 1.3511,
      "longitude": 103.7477,
      "admin_name1": null
    },
    {
      "place_name": "Bukit Batok West Avenue 8",
      "postal_code": "650182",
      "country_code": "SG",
      "latitude": 1.3456,
      "longitude": 103.7438,
      "admin_name1": null
    },
    {
      "place_name": "Bukit Batok Street 21",
      "postal_code": "650208",
      "country_code": "SG",
      "latitude": 1.3459,
      "longitude": 103.7488,
      "admin_name1": null
    },
    {
      "place_name": "Bukit Batok Street 33",
      "postal_code": "650324",
      "country_code": "SG",
      "latitude": 1.3622,
      "longitude": 103.7476,
      "admin_name1": null
    },
    {
      "place_name": "Bukit Batok Street 34",
      "postal_code": "650340",
      "country_code": "SG",
      "latitude": 1.3631,
      "longitude": 103.7495,
      "admin_name1": null
    },
    {
      "place_name": "Bukit Batok West Avenue 4",
      "postal_code": "650410",
      "country_code": "SG",
      "latitude": 1.3645,
      "longitude": 103.745,
      "admin_name1": null
    },
    {
      "place_name": "Bukit Batok West Avenue 2",
      "postal_code": "650423",
      "country_code": "SG",
      "latitude": 1.3622,
      "longitude": 103.7449,
      "admin_name1": null
    },
    {
      "place_name": "Bukit Batok Street 51",
      "postal_code": "650532",
      "country_code": "SG",
      "latitude": 1.3563,
      "longitude": 103.7497,
      "admin_name1": null
    },
    {
      "place_name": "Bukit Batok Street 31",
      "postal_code": "651377",
      "country_code": "SG",
      "latitude": 1.3592,
      "longitude": 103.7499,
      "admin_name1": null
    },
    {
      "place_name": "Bukit Batok Street 22",
      "postal_code": "653296",
      "country_code": "SG",
      "latitude": 1.3437,
      "longitude": 103.7482,
      "admin_name1": null
    },
    {
      "place_name": "Pavilion Circle",
      "postal_code": "658005",
      "country_code": "SG",
      "latitude": 1.3684,
      "longitude": 103.753,
      "admin_name1": null
    },
    {
      "place_name": "Pavilion Place",
      "postal_code": "658035",
      "country_code": "SG",
      "latitude": 1.3698,
      "longitude": 103.753,
      "admin_name1": null
    },
    {
      "place_name": "Pavilion Green",
      "postal_code": "658301",
      "country_code": "SG",
      "latitude": 1.3686,
      "longitude": 103.752,
      "admin_name1": null
    },
    {
      "place_name": "Pavilion View",
      "postal_code": "658436",
      "country_code": "SG",
      "latitude": 1.3692,
      "longitude": 103.7519,
      "admin_name1": null
    },
    {
      "place_name": "Pavilion Grove",
      "postal_code": "658605",
      "country_code": "SG",
      "latitude": 1.3709,
      "longitude": 103.7526,
      "admin_name1": null
    },
    {
      "place_name": "Pavilion Rise",
      "postal_code": "658638",
      "country_code": "SG",
      "latitude": 1.3706,
      "longitude": 103.7512,
      "admin_name1": null
    },
    {
      "place_name": "Pavilion Street",
      "postal_code": "658685",
      "country_code": "SG",
      "latitude": 1.3718,
      "longitude": 103.7524,
      "admin_name1": null
    },
    {
      "place_name": "Burgundy Crescent",
      "postal_code": "658762",
      "country_code": "SG",
      "latitude": 1.3399,
      "longitude": 103.7603,
      "admin_name1": null
    },
    {
      "place_name": "Bukit Batok Street 24",
      "postal_code": "659480",
      "country_code": "SG",
      "latitude": 1.3421,
      "longitude": 103.7544,
      "admin_name1": null
    },
    {
      "place_name": "Bukit Batok Street 23",
      "postal_code": "659528",
      "country_code": "SG",
      "latitude": 1.3435,
      "longitude": 103.752,
      "admin_name1": null
    },
    {
      "place_name": "Phoenix Road",
      "postal_code": "668173",
      "country_code": "SG",
      "latitude": 1.3768,
      "longitude": 103.7575,
      "admin_name1": null
    },
    {
      "place_name": "Phoenix Garden",
      "postal_code": "668281",
      "country_code": "SG",
      "latitude": 1.3767,
      "longitude": 103.7589,
      "admin_name1": null
    },
    {
      "place_name": "Phoenix Avenue",
      "postal_code": "668383",
      "country_code": "SG",
      "latitude": 1.3752,
      "longitude": 103.7575,
      "admin_name1": null
    },
    {
      "place_name": "Jalan Zamrud",
      "postal_code": "668610",
      "country_code": "SG",
      "latitude": 1.36,
      "longitude": 103.7621,
      "admin_name1": null
    },
    {
      "place_name": "Jalan Intan",
      "postal_code": "668774",
      "country_code": "SG",
      "latitude": 1.3597,
      "longitude": 103.762,
      "admin_name1": null
    },
    {
      "place_name": "Jalan Gumilang",
      "postal_code": "668866",
      "country_code": "SG",
      "latitude": 1.3585,
      "longitude": 103.7606,
      "admin_name1": null
    },
    {
      "place_name": "Jalan Dermawan",
      "postal_code": "668987",
      "country_code": "SG",
      "latitude": 1.3597,
      "longitude": 103.7608,
      "admin_name1": null
    },
    {
      "place_name": "Hillview Terrace",
      "postal_code": "669233",
      "country_code": "SG",
      "latitude": 1.3533,
      "longitude": 103.7588,
      "admin_name1": null
    },
    {
      "place_name": "Hillview Drive",
      "postal_code": "669380",
      "country_code": "SG",
      "latitude": 1.3547,
      "longitude": 103.7598,
      "admin_name1": null
    },
    {
      "place_name": "Hillview Crescent",
      "postal_code": "669447",
      "country_code": "SG",
      "latitude": 1.3542,
      "longitude": 103.7591,
      "admin_name1": null
    },
    {
      "place_name": "Gombak Drive",
      "postal_code": "669646",
      "country_code": "SG",
      "latitude": 1.3719,
      "longitude": 103.7593,
      "admin_name1": null
    },
    {
      "place_name": "Galistan Avenue",
      "postal_code": "669695",
      "country_code": "SG",
      "latitude": 1.3784,
      "longitude": 103.7598,
      "admin_name1": null
    },
    {
      "place_name": "Chu Lin Road",
      "postal_code": "669920",
      "country_code": "SG",
      "latitude": 1.3579,
      "longitude": 103.759,
      "admin_name1": null
    },
    {
      "place_name": "Pending Road",
      "postal_code": "670124",
      "country_code": "SG",
      "latitude": 1.3769,
      "longitude": 103.7711,
      "admin_name1": null
    },
    {
      "place_name": "Saujana Road",
      "postal_code": "670415",
      "country_code": "SG",
      "latitude": 1.3834,
      "longitude": 103.7689,
      "admin_name1": null
    },
    {
      "place_name": "Fajar Road",
      "postal_code": "670453",
      "country_code": "SG",
      "latitude": 1.3854,
      "longitude": 103.7717,
      "admin_name1": null
    },
    {
      "place_name": "Segar Road",
      "postal_code": "670476",
      "country_code": "SG",
      "latitude": 1.3889,
      "longitude": 103.7729,
      "admin_name1": null
    },
    {
      "place_name": "Bukit Panjang Ring Road",
      "postal_code": "670533",
      "country_code": "SG",
      "latitude": 1.385,
      "longitude": 103.7638,
      "admin_name1": null
    },
    {
      "place_name": "Senja Road",
      "postal_code": "670604",
      "country_code": "SG",
      "latitude": 1.381,
      "longitude": 103.7625,
      "admin_name1": null
    },
    {
      "place_name": "Dairy Farm Lane",
      "postal_code": "677621",
      "country_code": "SG",
      "latitude": 1.3654,
      "longitude": 103.7732,
      "admin_name1": null
    },
    {
      "place_name": "Dairy Farm Heights",
      "postal_code": "677661",
      "country_code": "SG",
      "latitude": 1.3659,
      "longitude": 103.7717,
      "admin_name1": null
    },
    {
      "place_name": "Jelebu Road",
      "postal_code": "677673",
      "country_code": "SG",
      "latitude": 1.3787,
      "longitude": 103.764,
      "admin_name1": null
    },
    {
      "place_name": "Almond Street",
      "postal_code": "677676",
      "country_code": "SG",
      "latitude": 1.3712,
      "longitude": 103.7731,
      "admin_name1": null
    },
    {
      "place_name": "Almond Avenue",
      "postal_code": "677749",
      "country_code": "SG",
      "latitude": 1.3724,
      "longitude": 103.7727,
      "admin_name1": null
    },
    {
      "place_name": "Almond Crescent",
      "postal_code": "677802",
      "country_code": "SG",
      "latitude": 1.3725,
      "longitude": 103.7735,
      "admin_name1": null
    },
    {
      "place_name": "Woodlands Road",
      "postal_code": "678031",
      "country_code": "SG",
      "latitude": 1.398,
      "longitude": 103.7533,
      "admin_name1": null
    },
    {
      "place_name": "Upper Bukit Timah Road",
      "postal_code": "678043",
      "country_code": "SG",
      "latitude": 1.3579,
      "longitude": 103.768,
      "admin_name1": null
    },
    {
      "place_name": "Petir Road",
      "postal_code": "678269",
      "country_code": "SG",
      "latitude": 1.3778,
      "longitude": 103.7666,
      "admin_name1": null
    },
    {
      "place_name": "Jalan Uji",
      "postal_code": "678364",
      "country_code": "SG",
      "latitude": 1.358,
      "longitude": 103.7689,
      "admin_name1": null
    },
    {
      "place_name": "Jalan Tumpu",
      "postal_code": "678425",
      "country_code": "SG",
      "latitude": 1.3596,
      "longitude": 103.769,
      "admin_name1": null
    },
    {
      "place_name": "Jalan Siap",
      "postal_code": "678554",
      "country_code": "SG",
      "latitude": 1.3599,
      "longitude": 103.7689,
      "admin_name1": null
    },
    {
      "place_name": "Jalan Pakis",
      "postal_code": "678609",
      "country_code": "SG",
      "latitude": 1.3675,
      "longitude": 103.7693,
      "admin_name1": null
    },
    {
      "place_name": "Jalan Emas Urai",
      "postal_code": "678727",
      "country_code": "SG",
      "latitude": 1.3675,
      "longitude": 103.7707,
      "admin_name1": null
    },
    {
      "place_name": "Jalan Asas",
      "postal_code": "678781",
      "country_code": "SG",
      "latitude": 1.3591,
      "longitude": 103.7682,
      "admin_name1": null
    },
    {
      "place_name": "Hazel Park Terrace",
      "postal_code": "678895",
      "country_code": "SG",
      "latitude": 1.3718,
      "longitude": 103.7651,
      "admin_name1": null
    },
    {
      "place_name": "Dairy Farm Road",
      "postal_code": "679043",
      "country_code": "SG",
      "latitude": 1.3653,
      "longitude": 103.7696,
      "admin_name1": null
    },
    {
      "place_name": "Chestnut Terrace",
      "postal_code": "679121",
      "country_code": "SG",
      "latitude": 1.3674,
      "longitude": 103.769,
      "admin_name1": null
    },
    {
      "place_name": "Chestnut Lane",
      "postal_code": "679185",
      "country_code": "SG",
      "latitude": 1.3669,
      "longitude": 103.7682,
      "admin_name1": null
    },
    {
      "place_name": "Chestnut Gardens",
      "postal_code": "679238",
      "country_code": "SG",
      "latitude": 1.3688,
      "longitude": 103.7685,
      "admin_name1": null
    },
    {
      "place_name": "Chestnut Drive",
      "postal_code": "679301",
      "country_code": "SG",
      "latitude": 1.3688,
      "longitude": 103.7707,
      "admin_name1": null
    },
    {
      "place_name": "Chestnut Crescent",
      "postal_code": "679386",
      "country_code": "SG",
      "latitude": 1.3726,
      "longitude": 103.7708,
      "admin_name1": null
    },
    {
      "place_name": "Chestnut Close",
      "postal_code": "679447",
      "country_code": "SG",
      "latitude": 1.3697,
      "longitude": 103.7725,
      "admin_name1": null
    },
    {
      "place_name": "Chestnut Avenue",
      "postal_code": "679492",
      "country_code": "SG",
      "latitude": 1.3695,
      "longitude": 103.7714,
      "admin_name1": null
    },
    {
      "place_name": "Cashew Road",
      "postal_code": "679662",
      "country_code": "SG",
      "latitude": 1.3727,
      "longitude": 103.767,
      "admin_name1": null
    },
    {
      "place_name": "Cashew Crescent",
      "postal_code": "679764",
      "country_code": "SG",
      "latitude": 1.3712,
      "longitude": 103.7688,
      "admin_name1": null
    },
    {
      "place_name": "Bukit Panjang Road",
      "postal_code": "679910",
      "country_code": "SG",
      "latitude": 1.3816,
      "longitude": 103.7647,
      "admin_name1": null
    },
    {
      "place_name": "Teck Whye Lane",
      "postal_code": "680014",
      "country_code": "SG",
      "latitude": 1.3785,
      "longitude": 103.7557,
      "admin_name1": null
    },
    {
      "place_name": "Choa Chu Kang Central",
      "postal_code": "680221",
      "country_code": "SG",
      "latitude": 1.3822,
      "longitude": 103.7451,
      "admin_name1": null
    },
    {
      "place_name": "Choa Chu Kang Avenue 3",
      "postal_code": "680410",
      "country_code": "SG",
      "latitude": 1.3806,
      "longitude": 103.7415,
      "admin_name1": null
    },
    {
      "place_name": "Choa Chu Kang Avenue 4",
      "postal_code": "680425",
      "country_code": "SG",
      "latitude": 1.3812,
      "longitude": 103.7395,
      "admin_name1": null
    },
    {
      "place_name": "Choa Chu Kang Street 51",
      "postal_code": "680530",
      "country_code": "SG",
      "latitude": 1.3926,
      "longitude": 103.7418,
      "admin_name1": null
    },
    {
      "place_name": "Choa Chu Kang Street 52",
      "postal_code": "680552",
      "country_code": "SG",
      "latitude": 1.3946,
      "longitude": 103.7427,
      "admin_name1": null
    },
    {
      "place_name": "Choa Chu Kang Street 62",
      "postal_code": "680626",
      "country_code": "SG",
      "latitude": 1.3983,
      "longitude": 103.7459,
      "admin_name1": null
    },
    {
      "place_name": "Choa Chu Kang North 6",
      "postal_code": "680635",
      "country_code": "SG",
      "latitude": 1.3974,
      "longitude": 103.7496,
      "admin_name1": null
    },
    {
      "place_name": "Choa Chu Kang Street 64",
      "postal_code": "680641",
      "country_code": "SG",
      "latitude": 1.3983,
      "longitude": 103.7498,
      "admin_name1": null
    },
    {
      "place_name": "Choa Chu Kang Crescent",
      "postal_code": "680689",
      "country_code": "SG",
      "latitude": 1.4027,
      "longitude": 103.7511,
      "admin_name1": null
    },
    {
      "place_name": "Choa Chu Kang North 5",
      "postal_code": "680766",
      "country_code": "SG",
      "latitude": 1.3936,
      "longitude": 103.7497,
      "admin_name1": null
    },
    {
      "place_name": "Jalan Teck Whye",
      "postal_code": "681154",
      "country_code": "SG",
      "latitude": 1.3792,
      "longitude": 103.7575,
      "admin_name1": null
    },
    {
      "place_name": "Choa Chu Kang Street 54",
      "postal_code": "681771",
      "country_code": "SG",
      "latitude": 1.3945,
      "longitude": 103.75,
      "admin_name1": null
    },
    {
      "place_name": "Choa Chu Kang Drive",
      "postal_code": "681787",
      "country_code": "SG",
      "latitude": 1.3954,
      "longitude": 103.7481,
      "admin_name1": null
    },
    {
      "place_name": "Choa Chu Kang Avenue 7",
      "postal_code": "681811",
      "country_code": "SG",
      "latitude": 1.3737,
      "longitude": 103.7459,
      "admin_name1": null
    },
    {
      "place_name": "Choa Chu Kang Avenue 5",
      "postal_code": "682488",
      "country_code": "SG",
      "latitude": 1.377,
      "longitude": 103.7393,
      "admin_name1": null
    },
    {
      "place_name": "Choa Chu Kang Avenue 1",
      "postal_code": "683807",
      "country_code": "SG",
      "latitude": 1.3762,
      "longitude": 103.7458,
      "admin_name1": null
    },
    {
      "place_name": "Choa Chu Kang Grove",
      "postal_code": "688206",
      "country_code": "SG",
      "latitude": 1.3767,
      "longitude": 103.7505,
      "admin_name1": null
    },
    {
      "place_name": "Verde Avenue",
      "postal_code": "688301",
      "country_code": "SG",
      "latitude": 1.3906,
      "longitude": 103.7516,
      "admin_name1": null
    },
    {
      "place_name": "Verde Crescent",
      "postal_code": "688487",
      "country_code": "SG",
      "latitude": 1.3923,
      "longitude": 103.7503,
      "admin_name1": null
    },
    {
      "place_name": "Verde Grove",
      "postal_code": "688533",
      "country_code": "SG",
      "latitude": 1.3911,
      "longitude": 103.7523,
      "admin_name1": null
    },
    {
      "place_name": "Verde Place",
      "postal_code": "688633",
      "country_code": "SG",
      "latitude": 1.3918,
      "longitude": 103.7516,
      "admin_name1": null
    },
    {
      "place_name": "Verde View",
      "postal_code": "688650",
      "country_code": "SG",
      "latitude": 1.3926,
      "longitude": 103.7521,
      "admin_name1": null
    },
    {
      "place_name": "Verde Walk",
      "postal_code": "688773",
      "country_code": "SG",
      "latitude": 1.3922,
      "longitude": 103.7509,
      "admin_name1": null
    },
    {
      "place_name": "Choa Chu Kang Way",
      "postal_code": "688786",
      "country_code": "SG",
      "latitude": 1.3776,
      "longitude": 103.7503,
      "admin_name1": null
    },
    {
      "place_name": "Hong San Walk",
      "postal_code": "689015",
      "country_code": "SG",
      "latitude": 1.3777,
      "longitude": 103.7459,
      "admin_name1": null
    },
    {
      "place_name": "Choa Chu Kang Road",
      "postal_code": "689389",
      "country_code": "SG",
      "latitude": 1.3779,
      "longitude": 103.7582,
      "admin_name1": null
    },
    {
      "place_name": "Plantation Crescent",
      "postal_code": "690127",
      "country_code": "SG",
      "latitude": 1.3576,
      "longitude": 103.7342,
      "admin_name1": null
    },
    {
      "place_name": "Old Choa Chu Kang Road",
      "postal_code": "698903",
      "country_code": "SG",
      "latitude": 1.3755,
      "longitude": 103.7183,
      "admin_name1": null
    },
    {
      "place_name": "Jalan Lekar",
      "postal_code": "698934",
      "country_code": "SG",
      "latitude": 1.3852,
      "longitude": 103.722,
      "admin_name1": null
    },
    {
      "place_name": "Lim Chu Kang Lane 3",
      "postal_code": "718890",
      "country_code": "SG",
      "latitude": 1.4297,
      "longitude": 103.7161,
      "admin_name1": null
    },
    {
      "place_name": "Neo Tiew Crescent",
      "postal_code": "718913",
      "country_code": "SG",
      "latitude": 1.4377,
      "longitude": 103.7254,
      "admin_name1": null
    },
    {
      "place_name": "Lim Chu Kang Lane 3a",
      "postal_code": "719842",
      "country_code": "SG",
      "latitude": 1.4283,
      "longitude": 103.7068,
      "admin_name1": null
    },
    {
      "place_name": "Mandai Link",
      "postal_code": "728650",
      "country_code": "SG",
      "latitude": 1.4111,
      "longitude": 103.758,
      "admin_name1": null
    },
    {
      "place_name": "Kranji Link",
      "postal_code": "728677",
      "country_code": "SG",
      "latitude": 1.4363,
      "longitude": 103.7463,
      "admin_name1": null
    },
    {
      "place_name": "Sungei Kadut Crescent",
      "postal_code": "728687",
      "country_code": "SG",
      "latitude": 1.4105,
      "longitude": 103.7444,
      "admin_name1": null
    },
    {
      "place_name": "Sungei Kadut Way",
      "postal_code": "728771",
      "country_code": "SG",
      "latitude": 1.4073,
      "longitude": 103.7486,
      "admin_name1": null
    },
    {
      "place_name": "Sungei Kadut Street 6",
      "postal_code": "728863",
      "country_code": "SG",
      "latitude": 1.4283,
      "longitude": 103.7492,
      "admin_name1": null
    },
    {
      "place_name": "Sungei Kadut Street 5",
      "postal_code": "728955",
      "country_code": "SG",
      "latitude": 1.425,
      "longitude": 103.7465,
      "admin_name1": null
    },
    {
      "place_name": "Sungei Kadut Street 4",
      "postal_code": "729041",
      "country_code": "SG",
      "latitude": 1.4187,
      "longitude": 103.7473,
      "admin_name1": null
    },
    {
      "place_name": "Sungei Kadut Street 1",
      "postal_code": "729340",
      "country_code": "SG",
      "latitude": 1.4142,
      "longitude": 103.7513,
      "admin_name1": null
    },
    {
      "place_name": "Sungei Kadut Loop",
      "postal_code": "729463",
      "country_code": "SG",
      "latitude": 1.4177,
      "longitude": 103.7417,
      "admin_name1": null
    },
    {
      "place_name": "Sungei Kadut Avenue",
      "postal_code": "729489",
      "country_code": "SG",
      "latitude": 1.4044,
      "longitude": 103.7553,
      "admin_name1": null
    },
    {
      "place_name": "Sungei Kadut Drive",
      "postal_code": "729565",
      "country_code": "SG",
      "latitude": 1.4095,
      "longitude": 103.7466,
      "admin_name1": null
    },
    {
      "place_name": "Mandai Road",
      "postal_code": "729755",
      "country_code": "SG",
      "latitude": 1.4079,
      "longitude": 103.7745,
      "admin_name1": null
    },
    {
      "place_name": "Mandai Estate",
      "postal_code": "729917",
      "country_code": "SG",
      "latitude": 1.407,
      "longitude": 103.7591,
      "admin_name1": null
    },
    {
      "place_name": "Marsiling Drive",
      "postal_code": "730007",
      "country_code": "SG",
      "latitude": 1.4417,
      "longitude": 103.7767,
      "admin_name1": null
    },
    {
      "place_name": "Woodlands Street 13",
      "postal_code": "730111",
      "country_code": "SG",
      "latitude": 1.4379,
      "longitude": 103.7821,
      "admin_name1": null
    },
    {
      "place_name": "Marsiling Rise",
      "postal_code": "730126",
      "country_code": "SG",
      "latitude": 1.4382,
      "longitude": 103.7798,
      "admin_name1": null
    },
    {
      "place_name": "Woodlands Street 11",
      "postal_code": "730167",
      "country_code": "SG",
      "latitude": 1.4336,
      "longitude": 103.7759,
      "admin_name1": null
    },
    {
      "place_name": "Woodlands Street 31",
      "postal_code": "730316",
      "country_code": "SG",
      "latitude": 1.4315,
      "longitude": 103.7764,
      "admin_name1": null
    },
    {
      "place_name": "Woodlands Avenue 1",
      "postal_code": "730368",
      "country_code": "SG",
      "latitude": 1.4329,
      "longitude": 103.7867,
      "admin_name1": null
    },
    {
      "place_name": "Woodlands Street 41",
      "postal_code": "730406",
      "country_code": "SG",
      "latitude": 1.4294,
      "longitude": 103.7727,
      "admin_name1": null
    },
    {
      "place_name": "Woodlands Drive 14",
      "postal_code": "730535",
      "country_code": "SG",
      "latitude": 1.4311,
      "longitude": 103.792,
      "admin_name1": null
    },
    {
      "place_name": "Woodlands Drive 44",
      "postal_code": "730551",
      "country_code": "SG",
      "latitude": 1.4331,
      "longitude": 103.7952,
      "admin_name1": null
    },
    {
      "place_name": "Woodlands Drive 16",
      "postal_code": "730577",
      "country_code": "SG",
      "latitude": 1.431,
      "longitude": 103.7965,
      "admin_name1": null
    },
    {
      "place_name": "Woodlands Ring Road",
      "postal_code": "730636",
      "country_code": "SG",
      "latitude": 1.4369,
      "longitude": 103.8027,
      "admin_name1": null
    },
    {
      "place_name": "Woodlands Drive 71",
      "postal_code": "730676",
      "country_code": "SG",
      "latitude": 1.4398,
      "longitude": 103.8007,
      "admin_name1": null
    },
    {
      "place_name": "Woodlands Circle",
      "postal_code": "730740",
      "country_code": "SG",
      "latitude": 1.4445,
      "longitude": 103.7963,
      "admin_name1": null
    },
    {
      "place_name": "Woodlands Street 82",
      "postal_code": "730823",
      "country_code": "SG",
      "latitude": 1.4409,
      "longitude": 103.7895,
      "admin_name1": null
    },
    {
      "place_name": "Woodlands Drive 50",
      "postal_code": "730892",
      "country_code": "SG",
      "latitude": 1.4373,
      "longitude": 103.7903,
      "admin_name1": null
    },
    {
      "place_name": "Woodlands Avenue 6",
      "postal_code": "731678",
      "country_code": "SG",
      "latitude": 1.4404,
      "longitude": 103.8016,
      "admin_name1": null
    },
    {
      "place_name": "Woodlands Avenue 4",
      "postal_code": "731846",
      "country_code": "SG",
      "latitude": 1.4429,
      "longitude": 103.7937,
      "admin_name1": null
    },
    {
      "place_name": "Woodlands Drive 73",
      "postal_code": "734691",
      "country_code": "SG",
      "latitude": 1.4395,
      "longitude": 103.8057,
      "admin_name1": null
    },
    {
      "place_name": "Woodlands Sector 2",
      "postal_code": "737680",
      "country_code": "SG",
      "latitude": 1.4612,
      "longitude": 103.8091,
      "admin_name1": null
    },
    {
      "place_name": "Woodlands Square",
      "postal_code": "737737",
      "country_code": "SG",
      "latitude": 1.4351,
      "longitude": 103.786,
      "admin_name1": null
    },
    {
      "place_name": "Woodlands Industrial Park D Street 2",
      "postal_code": "737778",
      "country_code": "SG",
      "latitude": 1.4292,
      "longitude": 103.7643,
      "admin_name1": null
    },
    {
      "place_name": "Rosewood Drive",
      "postal_code": "737790",
      "country_code": "SG",
      "latitude": 1.428,
      "longitude": 103.7858,
      "admin_name1": null
    },
    {
      "place_name": "Woodgrove Avenue",
      "postal_code": "737836",
      "country_code": "SG",
      "latitude": 1.4304,
      "longitude": 103.7834,
      "admin_name1": null
    },
    {
      "place_name": "Woodlands Height",
      "postal_code": "737858",
      "country_code": "SG",
      "latitude": 1.4292,
      "longitude": 103.7984,
      "admin_name1": null
    },
    {
      "place_name": "Woodlands Avenue 7",
      "postal_code": "737911",
      "country_code": "SG",
      "latitude": 1.4458,
      "longitude": 103.8099,
      "admin_name1": null
    },
    {
      "place_name": "Rasok Drive",
      "postal_code": "737950",
      "country_code": "SG",
      "latitude": 1.4166,
      "longitude": 103.7553,
      "admin_name1": null
    },
    {
      "place_name": "Dinding Place",
      "postal_code": "738044",
      "country_code": "SG",
      "latitude": 1.4167,
      "longitude": 103.7572,
      "admin_name1": null
    },
    {
      "place_name": "Woodlands Crescent",
      "postal_code": "738081",
      "country_code": "SG",
      "latitude": 1.4449,
      "longitude": 103.806,
      "admin_name1": null
    },
    {
      "place_name": "Woodgrove View",
      "postal_code": "738111",
      "country_code": "SG",
      "latitude": 1.4281,
      "longitude": 103.7764,
      "admin_name1": null
    },
    {
      "place_name": "Woodgrove Walk",
      "postal_code": "738151",
      "country_code": "SG",
      "latitude": 1.4276,
      "longitude": 103.777,
      "admin_name1": null
    },
    {
      "place_name": "Oakwood Grove",
      "postal_code": "738234",
      "country_code": "SG",
      "latitude": 1.4268,
      "longitude": 103.7795,
      "admin_name1": null
    },
    {
      "place_name": "Pinewood Grove",
      "postal_code": "738270",
      "country_code": "SG",
      "latitude": 1.4284,
      "longitude": 103.7797,
      "admin_name1": null
    },
    {
      "place_name": "Beechwood Grove",
      "postal_code": "738303",
      "country_code": "SG",
      "latitude": 1.4272,
      "longitude": 103.7782,
      "admin_name1": null
    },
    {
      "place_name": "Ashwood Grove",
      "postal_code": "738347",
      "country_code": "SG",
      "latitude": 1.4288,
      "longitude": 103.7773,
      "admin_name1": null
    },
    {
      "place_name": "Woodlands Sector 1",
      "postal_code": "738356",
      "country_code": "SG",
      "latitude": 1.4532,
      "longitude": 103.8046,
      "admin_name1": null
    },
    {
      "place_name": "Cedarwood Grove",
      "postal_code": "738373",
      "country_code": "SG",
      "latitude": 1.4287,
      "longitude": 103.7792,
      "admin_name1": null
    },
    {
      "place_name": "Woodlands Terrace",
      "postal_code": "738442",
      "country_code": "SG",
      "latitude": 1.453,
      "longitude": 103.8087,
      "admin_name1": null
    },
    {
      "place_name": "Marsiling Road",
      "postal_code": "739109",
      "country_code": "SG",
      "latitude": 1.4383,
      "longitude": 103.7754,
      "admin_name1": null
    },
    {
      "place_name": "Marsiling Industrial Estate Road 3",
      "postal_code": "739256",
      "country_code": "SG",
      "latitude": 1.4407,
      "longitude": 103.7836,
      "admin_name1": null
    },
    {
      "place_name": "Kranji Way",
      "postal_code": "739444",
      "country_code": "SG",
      "latitude": 1.4371,
      "longitude": 103.7437,
      "admin_name1": null
    },
    {
      "place_name": "Jalan Rasok",
      "postal_code": "739626",
      "country_code": "SG",
      "latitude": 1.4171,
      "longitude": 103.7581,
      "admin_name1": null
    },
    {
      "place_name": "Jalan Gelegar",
      "postal_code": "739772",
      "country_code": "SG",
      "latitude": 1.416,
      "longitude": 103.7574,
      "admin_name1": null
    },
    {
      "place_name": "Jalan Bumbong",
      "postal_code": "739873",
      "country_code": "SG",
      "latitude": 1.4149,
      "longitude": 103.7591,
      "admin_name1": null
    },
    {
      "place_name": "Canberra Street",
      "postal_code": "750121",
      "country_code": "SG",
      "latitude": 1.4475,
      "longitude": 103.8339,
      "admin_name1": null
    },
    {
      "place_name": "Sembawang Drive",
      "postal_code": "750407",
      "country_code": "SG",
      "latitude": 1.4533,
      "longitude": 103.8168,
      "admin_name1": null
    },
    {
      "place_name": "Wellington Circle",
      "postal_code": "750513",
      "country_code": "SG",
      "latitude": 1.4542,
      "longitude": 103.8201,
      "admin_name1": null
    },
    {
      "place_name": "Canberra Crescent",
      "postal_code": "751117",
      "country_code": "SG",
      "latitude": 1.445,
      "longitude": 103.8305,
      "admin_name1": null
    },
    {
      "place_name": "Admiralty Drive",
      "postal_code": "751468",
      "country_code": "SG",
      "latitude": 1.4505,
      "longitude": 103.8137,
      "admin_name1": null
    },
    {
      "place_name": "Clover Avenue",
      "postal_code": "579300",
      "country_code": "SG",
      "latitude": 1.3497,
      "longitude": 103.8427,
      "admin_name1": null
    },
    {
      "place_name": "Casuarina Road",
      "postal_code": "579398",
      "country_code": "SG",
      "latitude": 1.3733,
      "longitude": 103.828,
      "admin_name1": null
    },
    {
      "place_name": "Carnation Drive",
      "postal_code": "579545",
      "country_code": "SG",
      "latitude": 1.3558,
      "longitude": 103.8288,
      "admin_name1": null
    },
    {
      "place_name": "Capricorn Drive",
      "postal_code": "579560",
      "country_code": "SG",
      "latitude": 1.3582,
      "longitude": 103.8256,
      "admin_name1": null
    },
    {
      "place_name": "Bright Hill Drive",
      "postal_code": "579586",
      "country_code": "SG",
      "latitude": 1.3567,
      "longitude": 103.8316,
      "admin_name1": null
    },
    {
      "place_name": "Braddell Hill",
      "postal_code": "579735",
      "country_code": "SG",
      "latitude": 1.3411,
      "longitude": 103.8423,
      "admin_name1": null
    },
    {
      "place_name": "Bishan Street 23",
      "postal_code": "579757",
      "country_code": "SG",
      "latitude": 1.3578,
      "longitude": 103.8477,
      "admin_name1": null
    },
    {
      "place_name": "Bishan Street 22",
      "postal_code": "579767",
      "country_code": "SG",
      "latitude": 1.3546,
      "longitude": 103.8445,
      "admin_name1": null
    },
    {
      "place_name": "Bishan Street 14",
      "postal_code": "579785",
      "country_code": "SG",
      "latitude": 1.3535,
      "longitude": 103.8508,
      "admin_name1": null
    },
    {
      "place_name": "Bishan Street 11",
      "postal_code": "579819",
      "country_code": "SG",
      "latitude": 1.3475,
      "longitude": 103.852,
      "admin_name1": null
    },
    {
      "place_name": "Bishan Road",
      "postal_code": "579828",
      "country_code": "SG",
      "latitude": 1.3562,
      "longitude": 103.8533,
      "admin_name1": null
    },
    {
      "place_name": "Binchang Walk",
      "postal_code": "579860",
      "country_code": "SG",
      "latitude": 1.351,
      "longitude": 103.8467,
      "admin_name1": null
    },
    {
      "place_name": "Binchang Rise",
      "postal_code": "579873",
      "country_code": "SG",
      "latitude": 1.3493,
      "longitude": 103.844,
      "admin_name1": null
    },
    {
      "place_name": "Bukit Way",
      "postal_code": "587766",
      "country_code": "SG",
      "latitude": 1.3463,
      "longitude": 103.7772,
      "admin_name1": null
    },
    {
      "place_name": "Jalan Kampong Chantek",
      "postal_code": "587872",
      "country_code": "SG",
      "latitude": 1.3439,
      "longitude": 103.788,
      "admin_name1": null
    },
    {
      "place_name": "Hindhede Walk",
      "postal_code": "587973",
      "country_code": "SG",
      "latitude": 1.3478,
      "longitude": 103.7729,
      "admin_name1": null
    },
    {
      "place_name": "Yarwood Avenue",
      "postal_code": "587981",
      "country_code": "SG",
      "latitude": 1.3378,
      "longitude": 103.7837,
      "admin_name1": null
    },
    {
      "place_name": "Stone Avenue",
      "postal_code": "588238",
      "country_code": "SG",
      "latitude": 1.336,
      "longitude": 103.7861,
      "admin_name1": null
    },
    {
      "place_name": "Sian Tuan Avenue",
      "postal_code": "588267",
      "country_code": "SG",
      "latitude": 1.3359,
      "longitude": 103.7862,
      "admin_name1": null
    },
    {
      "place_name": "Jalan Keria",
      "postal_code": "588543",
      "country_code": "SG",
      "latitude": 1.3407,
      "longitude": 103.7831,
      "admin_name1": null
    },
    {
      "place_name": "Jalan Jambu Batu",
      "postal_code": "588729",
      "country_code": "SG",
      "latitude": 1.3361,
      "longitude": 103.7877,
      "admin_name1": null
    },
    {
      "place_name": "Jalan Jambu Ayer",
      "postal_code": "588772",
      "country_code": "SG",
      "latitude": 1.3351,
      "longitude": 103.7884,
      "admin_name1": null
    },
    {
      "place_name": "Jalan Bingka",
      "postal_code": "588895",
      "country_code": "SG",
      "latitude": 1.3403,
      "longitude": 103.7798,
      "admin_name1": null
    },
    {
      "place_name": "Hua Guan Crescent",
      "postal_code": "589032",
      "country_code": "SG",
      "latitude": 1.3364,
      "longitude": 103.7849,
      "admin_name1": null
    },
    {
      "place_name": "Hua Guan Avenue",
      "postal_code": "589091",
      "country_code": "SG",
      "latitude": 1.3364,
      "longitude": 103.7852,
      "admin_name1": null
    },
    {
      "place_name": "Greenbank Park",
      "postal_code": "589412",
      "country_code": "SG",
      "latitude": 1.349,
      "longitude": 103.7892,
      "admin_name1": null
    },
    {
      "place_name": "Bukit Timah Road",
      "postal_code": "589640",
      "country_code": "SG",
      "latitude": 1.3332,
      "longitude": 103.7877,
      "admin_name1": null
    },
    {
      "place_name": "Binjai Walk",
      "postal_code": "589743",
      "country_code": "SG",
      "latitude": 1.339,
      "longitude": 103.7872,
      "admin_name1": null
    },
    {
      "place_name": "Binjai Rise",
      "postal_code": "589780",
      "country_code": "SG",
      "latitude": 1.3433,
      "longitude": 103.7872,
      "admin_name1": null
    },
    {
      "place_name": "Binjai Park",
      "postal_code": "589854",
      "country_code": "SG",
      "latitude": 1.3384,
      "longitude": 103.7883,
      "admin_name1": null
    },
    {
      "place_name": "Binjai Hill",
      "postal_code": "589918",
      "country_code": "SG",
      "latitude": 1.3406,
      "longitude": 103.7871,
      "admin_name1": null
    },
    {
      "place_name": "Pine Grove",
      "postal_code": "595001",
      "country_code": "SG",
      "latitude": 1.3175,
      "longitude": 103.7759,
      "admin_name1": null
    },
    {
      "place_name": "Yuk Tong Avenue",
      "postal_code": "596203",
      "country_code": "SG",
      "latitude": 1.3451,
      "longitude": 103.7728,
      "admin_name1": null
    },
    {
      "place_name": "Toh Tuck Link",
      "postal_code": "596226",
      "country_code": "SG",
      "latitude": 1.3317,
      "longitude": 103.7581,
      "admin_name1": null
    },
    {
      "place_name": "Kismis Green",
      "postal_code": "596279",
      "country_code": "SG",
      "latitude": 1.3351,
      "longitude": 103.7705,
      "admin_name1": null
    },
    {
      "place_name": "Toh Yi Road",
      "postal_code": "596498",
      "country_code": "SG",
      "latitude": 1.3374,
      "longitude": 103.7709,
      "admin_name1": null
    },
    {
      "place_name": "Toh Yi Drive",
      "postal_code": "596537",
      "country_code": "SG",
      "latitude": 1.3386,
      "longitude": 103.771,
      "admin_name1": null
    },
    {
      "place_name": "Toh Tuck Walk",
      "postal_code": "596586",
      "country_code": "SG",
      "latitude": 1.3371,
      "longitude": 103.7647,
      "admin_name1": null
    },
    {
      "place_name": "Toh Tuck Road",
      "postal_code": "596718",
      "country_code": "SG",
      "latitude": 1.3401,
      "longitude": 103.7686,
      "admin_name1": null
    },
    {
      "place_name": "Toh Tuck Place",
      "postal_code": "596819",
      "country_code": "SG",
      "latitude": 1.3384,
      "longitude": 103.7658,
      "admin_name1": null
    },
    {
      "place_name": "Toh Tuck Drive",
      "postal_code": "596883",
      "country_code": "SG",
      "latitude": 1.3411,
      "longitude": 103.77,
      "admin_name1": null
    },
    {
      "place_name": "Toh Tuck Crescent",
      "postal_code": "596913",
      "country_code": "SG",
      "latitude": 1.3377,
      "longitude": 103.7646,
      "admin_name1": null
    },
    {
      "place_name": "Toh Tuck Close",
      "postal_code": "596970",
      "country_code": "SG",
      "latitude": 1.3385,
      "longitude": 103.7662,
      "admin_name1": null
    },
    {
      "place_name": "Tham Soong Avenue",
      "postal_code": "597020",
      "country_code": "SG",
      "latitude": 1.3421,
      "longitude": 103.7742,
      "admin_name1": null
    },
    {
      "place_name": "Sunset Way",
      "postal_code": "597071",
      "country_code": "SG",
      "latitude": 1.3234,
      "longitude": 103.7674,
      "admin_name1": null
    },
    {
      "place_name": "Sunset View",
      "postal_code": "597203",
      "country_code": "SG",
      "latitude": 1.3261,
      "longitude": 103.7686,
      "admin_name1": null
    },
    {
      "place_name": "Sunset Terrace",
      "postal_code": "597268",
      "country_code": "SG",
      "latitude": 1.3244,
      "longitude": 103.7671,
      "admin_name1": null
    },
    {
      "place_name": "Sunset Square",
      "postal_code": "597316",
      "country_code": "SG",
      "latitude": 1.3271,
      "longitude": 103.7671,
      "admin_name1": null
    },
    {
      "place_name": "Sunset Heights",
      "postal_code": "597416",
      "country_code": "SG",
      "latitude": 1.3284,
      "longitude": 103.7687,
      "admin_name1": null
    },
    {
      "place_name": "Sunset Drive",
      "postal_code": "597469",
      "country_code": "SG",
      "latitude": 1.3251,
      "longitude": 103.7673,
      "admin_name1": null
    },
    {
      "place_name": "Lorong Pisang Udang",
      "postal_code": "597705",
      "country_code": "SG",
      "latitude": 1.3433,
      "longitude": 103.7719,
      "admin_name1": null
    },
    {
      "place_name": "Lorong Pisang Raja",
      "postal_code": "597735",
      "country_code": "SG",
      "latitude": 1.3428,
      "longitude": 103.7735,
      "admin_name1": null
    },
    {
      "place_name": "Lorong Pisang Hijau",
      "postal_code": "597795",
      "country_code": "SG",
      "latitude": 1.3441,
      "longitude": 103.7726,
      "admin_name1": null
    },
    {
      "place_name": "Lorong Pisang Emas",
      "postal_code": "597818",
      "country_code": "SG",
      "latitude": 1.3423,
      "longitude": 103.7737,
      "admin_name1": null
    },
    {
      "place_name": "Lorong Pisang Batu",
      "postal_code": "597921",
      "country_code": "SG",
      "latitude": 1.3421,
      "longitude": 103.774,
      "admin_name1": null
    },
    {
      "place_name": "Lorong Pisang Asam",
      "postal_code": "597962",
      "country_code": "SG",
      "latitude": 1.3434,
      "longitude": 103.7732,
      "admin_name1": null
    },
    {
      "place_name": "Lorong Kismis",
      "postal_code": "598007",
      "country_code": "SG",
      "latitude": 1.3384,
      "longitude": 103.7707,
      "admin_name1": null
    },
    {
      "place_name": "Lorong Kilat",
      "postal_code": "598129",
      "country_code": "SG",
      "latitude": 1.3412,
      "longitude": 103.773,
      "admin_name1": null
    },
    {
      "place_name": "Kismis Avenue",
      "postal_code": "598246",
      "country_code": "SG",
      "latitude": 1.3367,
      "longitude": 103.7737,
      "admin_name1": null
    },
    {
      "place_name": "King Albert Park",
      "postal_code": "598329",
      "country_code": "SG",
      "latitude": 1.3324,
      "longitude": 103.7802,
      "admin_name1": null
    },
    {
      "place_name": "Jalan Layang Layang",
      "postal_code": "598512",
      "country_code": "SG",
      "latitude": 1.3448,
      "longitude": 103.767,
      "admin_name1": null
    },
    {
      "place_name": "Jalan Kakatua",
      "postal_code": "598533",
      "country_code": "SG",
      "latitude": 1.3439,
      "longitude": 103.7669,
      "admin_name1": null
    },
    {
      "place_name": "Jalan Jurong Kechil",
      "postal_code": "598578",
      "country_code": "SG",
      "latitude": 1.3406,
      "longitude": 103.7743,
      "admin_name1": null
    },
    {
      "place_name": "Hume Avenue",
      "postal_code": "598726",
      "country_code": "SG",
      "latitude": 1.3537,
      "longitude": 103.7679,
      "admin_name1": null
    },
    {
      "place_name": "Highgate Crescent",
      "postal_code": "598827",
      "country_code": "SG",
      "latitude": 1.3407,
      "longitude": 103.7659,
      "admin_name1": null
    },
    {
      "place_name": "Greenridge Crescent",
      "postal_code": "598936",
      "country_code": "SG",
      "latitude": 1.3357,
      "longitude": 103.7657,
      "admin_name1": null
    },
    {
      "place_name": "Eng Kong Terrace",
      "postal_code": "598984",
      "country_code": "SG",
      "latitude": 1.3367,
      "longitude": 103.7683,
      "admin_name1": null
    },
    {
      "place_name": "Eng Kong Place",
      "postal_code": "599099",
      "country_code": "SG",
      "latitude": 1.3346,
      "longitude": 103.7678,
      "admin_name1": null
    },
    {
      "place_name": "Eng Kong Garden",
      "postal_code": "599239",
      "country_code": "SG",
      "latitude": 1.3351,
      "longitude": 103.7694,
      "admin_name1": null
    },
    {
      "place_name": "Eng Kong Drive",
      "postal_code": "599331",
      "country_code": "SG",
      "latitude": 1.3333,
      "longitude": 103.7687,
      "admin_name1": null
    },
    {
      "place_name": "Clementi Crescent",
      "postal_code": "599514",
      "country_code": "SG",
      "latitude": 1.3241,
      "longitude": 103.7737,
      "admin_name1": null
    },
    {
      "place_name": "Chun Tin Road",
      "postal_code": "599621",
      "country_code": "SG",
      "latitude": 1.3417,
      "longitude": 103.7729,
      "admin_name1": null
    },
    {
      "place_name": "Cheng Soon Garden",
      "postal_code": "599789",
      "country_code": "SG",
      "latitude": 1.3346,
      "longitude": 103.7712,
      "admin_name1": null
    },
    {
      "place_name": "Cheng Soon Crescent",
      "postal_code": "599896",
      "country_code": "SG",
      "latitude": 1.3362,
      "longitude": 103.7728,
      "admin_name1": null
    },
    {
      "place_name": "Bukit Timah Railway Station",
      "postal_code": "599938",
      "country_code": "SG",
      "latitude": 1.3343,
      "longitude": 103.7811,
      "admin_name1": null
    },
    {
      "place_name": "Teban Gardens Road",
      "postal_code": "600054",
      "country_code": "SG",
      "latitude": 1.3216,
      "longitude": 103.7369,
      "admin_name1": null
    },
    {
      "place_name": "Jurong East Street 21",
      "postal_code": "600217",
      "country_code": "SG",
      "latitude": 1.34,
      "longitude": 103.738,
      "admin_name1": null
    },
    {
      "place_name": "Jurong East Street 24",
      "postal_code": "600246",
      "country_code": "SG",
      "latitude": 1.3418,
      "longitude": 103.7401,
      "admin_name1": null
    },
    {
      "place_name": "Toh Guan Road",
      "postal_code": "600278",
      "country_code": "SG",
      "latitude": 1.3409,
      "longitude": 103.7464,
      "admin_name1": null
    },
    {
      "place_name": "Jurong East Street 32",
      "postal_code": "600307",
      "country_code": "SG",
      "latitude": 1.3465,
      "longitude": 103.7348,
      "admin_name1": null
    },
    {
      "place_name": "Penjuru Place",
      "postal_code": "608564",
      "country_code": "SG",
      "latitude": 1.3163,
      "longitude": 103.731,
      "admin_name1": null
    },
    {
      "place_name": "Toh Guan Road East",
      "postal_code": "608837",
      "country_code": "SG",
      "latitude": 1.3358,
      "longitude": 103.7483,
      "admin_name1": null
    },
    {
      "place_name": "Tanjong Penjuru",
      "postal_code": "609019",
      "country_code": "SG",
      "latitude": 1.305,
      "longitude": 103.7396,
      "admin_name1": null
    },
    {
      "place_name": "Penjuru Close",
      "postal_code": "609131",
      "country_code": "SG",
      "latitude": 1.313,
      "longitude": 103.734,
      "admin_name1": null
    },
    {
      "place_name": "Penjuru Lane",
      "postal_code": "609191",
      "country_code": "SG",
      "latitude": 1.308,
      "longitude": 103.7355,
      "admin_name1": null
    },
    {
      "place_name": "Pandan Road",
      "postal_code": "609267",
      "country_code": "SG",
      "latitude": 1.301,
      "longitude": 103.7523,
      "admin_name1": null
    },
    {
      "place_name": "Tah Ching Road",
      "postal_code": "610330",
      "country_code": "SG",
      "latitude": 1.3377,
      "longitude": 103.7242,
      "admin_name1": null
    },
    {
      "place_name": "Kang Ching Road",
      "postal_code": "610346",
      "country_code": "SG",
      "latitude": 1.3402,
      "longitude": 103.7209,
      "admin_name1": null
    },
    {
      "place_name": "Corporation Drive",
      "postal_code": "611183",
      "country_code": "SG",
      "latitude": 1.3329,
      "longitude": 103.7225,
      "admin_name1": null
    },
    {
      "place_name": "Tukang Innovation Drive",
      "postal_code": "618300",
      "country_code": "SG",
      "latitude": 1.3228,
      "longitude": 103.7133,
      "admin_name1": null
    },
    {
      "place_name": "Corporation Rise",
      "postal_code": "618321",
      "country_code": "SG",
      "latitude": 1.3392,
      "longitude": 103.7181,
      "admin_name1": null
    },
    {
      "place_name": "Pulau Damar Laut",
      "postal_code": "618403",
      "country_code": "SG",
      "latitude": 1.3007,
      "longitude": 103.7194,
      "admin_name1": null
    },
    {
      "place_name": "Corporation Walk",
      "postal_code": "618420",
      "country_code": "SG",
      "latitude": 1.34,
      "longitude": 103.718,
      "admin_name1": null
    },
    {
      "place_name": "Yung Ho Road",
      "postal_code": "618593",
      "country_code": "SG",
      "latitude": 1.327,
      "longitude": 103.7247,
      "admin_name1": null
    },
    {
      "place_name": "Yung An Road",
      "postal_code": "618616",
      "country_code": "SG",
      "latitude": 1.3358,
      "longitude": 103.7217,
      "admin_name1": null
    },
    {
      "place_name": "Third Chin Bee Road",
      "postal_code": "618689",
      "country_code": "SG",
      "latitude": 1.3326,
      "longitude": 103.7156,
      "admin_name1": null
    },
    {
      "place_name": "Second Chin Bee Road",
      "postal_code": "618778",
      "country_code": "SG",
      "latitude": 1.3325,
      "longitude": 103.7136,
      "admin_name1": null
    },
    {
      "place_name": "Quality Road",
      "postal_code": "618815",
      "country_code": "SG",
      "latitude": 1.3343,
      "longitude": 103.7107,
      "admin_name1": null
    },
    {
      "place_name": "Link Road",
      "postal_code": "619024",
      "country_code": "SG",
      "latitude": 1.3284,
      "longitude": 103.7127,
      "admin_name1": null
    },
    {
      "place_name": "Jurong Port Road",
      "postal_code": "619102",
      "country_code": "SG",
      "latitude": 1.3148,
      "longitude": 103.721,
      "admin_name1": null
    },
    {
      "place_name": "Jurong Pier Road",
      "postal_code": "619163",
      "country_code": "SG",
      "latitude": 1.3114,
      "longitude": 103.7094,
      "admin_name1": null
    },
    {
      "place_name": "Jalan Tukang",
      "postal_code": "619259",
      "country_code": "SG",
      "latitude": 1.3268,
      "longitude": 103.7125,
      "admin_name1": null
    },
    {
      "place_name": "Jalan Terusan",
      "postal_code": "619305",
      "country_code": "SG",
      "latitude": 1.319,
      "longitude": 103.7277,
      "admin_name1": null
    },
    {
      "place_name": "Jalan Buroh",
      "postal_code": "619489",
      "country_code": "SG",
      "latitude": 1.3126,
      "longitude": 103.7145,
      "admin_name1": null
    },
    {
      "place_name": "Jalan Besut",
      "postal_code": "619563",
      "country_code": "SG",
      "latitude": 1.3173,
      "longitude": 103.7264,
      "admin_name1": null
    },
    {
      "place_name": "International Road",
      "postal_code": "619619",
      "country_code": "SG",
      "latitude": 1.3306,
      "longitude": 103.7192,
      "admin_name1": null
    },
    {
      "place_name": "Fourth Chin Bee Road",
      "postal_code": "619701",
      "country_code": "SG",
      "latitude": 1.3332,
      "longitude": 103.7171,
      "admin_name1": null
    },
    {
      "place_name": "Chin Bee Road",
      "postal_code": "619820",
      "country_code": "SG",
      "latitude": 1.3279,
      "longitude": 103.7137,
      "admin_name1": null
    },
    {
      "place_name": "Chia Ping Road",
      "postal_code": "619970",
      "country_code": "SG",
      "latitude": 1.3292,
      "longitude": 103.7172,
      "admin_name1": null
    },
    {
      "place_name": "Buroh Street",
      "postal_code": "627532",
      "country_code": "SG",
      "latitude": 1.3119,
      "longitude": 103.7017,
      "admin_name1": null
    },
    {
      "place_name": "Banyan Road",
      "postal_code": "627643",
      "country_code": "SG",
      "latitude": 1.2485,
      "longitude": 103.6777,
      "admin_name1": null
    },
    {
      "place_name": "Sakra Road",
      "postal_code": "627646",
      "country_code": "SG",
      "latitude": 1.2561,
      "longitude": 103.6977,
      "admin_name1": null
    },
    {
      "place_name": "Enterprise Road",
      "postal_code": "627690",
      "country_code": "SG",
      "latitude": 1.3342,
      "longitude": 103.7032,
      "admin_name1": null
    },
    {
      "place_name": "Pioneer Place",
      "postal_code": "627705",
      "country_code": "SG",
      "latitude": 1.3065,
      "longitude": 103.6731,
      "admin_name1": null
    },
    {
      "place_name": "Benoi Road",
      "postal_code": "627790",
      "country_code": "SG",
      "latitude": 1.3087,
      "longitude": 103.6744,
      "admin_name1": null
    },
    {
      "place_name": "Shipyard Crescent",
      "postal_code": "627809",
      "country_code": "SG",
      "latitude": 1.3022,
      "longitude": 103.6862,
      "admin_name1": null
    },
    {
      "place_name": "Pesek Road",
      "postal_code": "627819",
      "country_code": "SG",
      "latitude": 1.2905,
      "longitude": 103.6954,
      "admin_name1": null
    },
    {
      "place_name": "Tembusu Crescent",
      "postal_code": "627820",
      "country_code": "SG",
      "latitude": 1.2835,
      "longitude": 103.6746,
      "admin_name1": null
    },
    {
      "place_name": "Jurong Island Highway",
      "postal_code": "627823",
      "country_code": "SG",
      "latitude": 1.2894,
      "longitude": 103.7245,
      "admin_name1": null
    },
    {
      "place_name": "Ayer Merbau Road",
      "postal_code": "627858",
      "country_code": "SG",
      "latitude": 1.2737,
      "longitude": 103.7158,
      "admin_name1": null
    },
    {
      "place_name": "Seraya Avenue",
      "postal_code": "627884",
      "country_code": "SG",
      "latitude": 1.2753,
      "longitude": 103.7222,
      "admin_name1": null
    },
    {
      "place_name": "Wan Lee Road",
      "postal_code": "627935",
      "country_code": "SG",
      "latitude": 1.3304,
      "longitude": 103.7051,
      "admin_name1": null
    },
    {
      "place_name": "Tractor Road",
      "postal_code": "627970",
      "country_code": "SG",
      "latitude": 1.3249,
      "longitude": 103.7051,
      "admin_name1": null
    },
    {
      "place_name": "Third Lok Yang Road",
      "postal_code": "628004",
      "country_code": "SG",
      "latitude": 1.3265,
      "longitude": 103.6894,
      "admin_name1": null
    },
    {
      "place_name": "Second Lok Yang Road",
      "postal_code": "628172",
      "country_code": "SG",
      "latitude": 1.3258,
      "longitude": 103.692,
      "admin_name1": null
    },
    {
      "place_name": "Pioneer Sector 2",
      "postal_code": "628366",
      "country_code": "SG",
      "latitude": 1.3022,
      "longitude": 103.6654,
      "admin_name1": null
    },
    {
      "place_name": "Pioneer Sector 1",
      "postal_code": "628440",
      "country_code": "SG",
      "latitude": 1.2997,
      "longitude": 103.6598,
      "admin_name1": null
    },
    {
      "place_name": "Pioneer Road North",
      "postal_code": "628474",
      "country_code": "SG",
      "latitude": 1.3287,
      "longitude": 103.6958,
      "admin_name1": null
    },
    {
      "place_name": "Pioneer Road",
      "postal_code": "628505",
      "country_code": "SG",
      "latitude": 1.3113,
      "longitude": 103.6579,
      "admin_name1": null
    },
    {
      "place_name": "Neythal Road",
      "postal_code": "628580",
      "country_code": "SG",
      "latitude": 1.3242,
      "longitude": 103.7005,
      "admin_name1": null
    },
    {
      "place_name": "Lok Yang Way",
      "postal_code": "628630",
      "country_code": "SG",
      "latitude": 1.3234,
      "longitude": 103.6906,
      "admin_name1": null
    },
    {
      "place_name": "Kwong Min Road",
      "postal_code": "628704",
      "country_code": "SG",
      "latitude": 1.3296,
      "longitude": 103.7016,
      "admin_name1": null
    },
    {
      "place_name": "Kian Teck Road",
      "postal_code": "628777",
      "country_code": "SG",
      "latitude": 1.3296,
      "longitude": 103.6928,
      "admin_name1": null
    },
    {
      "place_name": "Kian Teck Drive",
      "postal_code": "628841",
      "country_code": "SG",
      "latitude": 1.3311,
      "longitude": 103.6941,
      "admin_name1": null
    },
    {
      "place_name": "Joo Koon Crescent",
      "postal_code": "629013",
      "country_code": "SG",
      "latitude": 1.3287,
      "longitude": 103.6724,
      "admin_name1": null
    },
    {
      "place_name": "Joo Koon Circle",
      "postal_code": "629070",
      "country_code": "SG",
      "latitude": 1.3278,
      "longitude": 103.6709,
      "admin_name1": null
    },
    {
      "place_name": "Jalan Ahmad Ibrahim",
      "postal_code": "629156",
      "country_code": "SG",
      "latitude": 1.3232,
      "longitude": 103.7003,
      "admin_name1": null
    },
    {
      "place_name": "Gul Way",
      "postal_code": "629196",
      "country_code": "SG",
      "latitude": 1.3133,
      "longitude": 103.6695,
      "admin_name1": null
    },
    {
      "place_name": "Gul Street 3",
      "postal_code": "629266",
      "country_code": "SG",
      "latitude": 1.3187,
      "longitude": 103.6664,
      "admin_name1": null
    },
    {
      "place_name": "Gul Street 2",
      "postal_code": "629294",
      "country_code": "SG",
      "latitude": 1.318,
      "longitude": 103.6673,
      "admin_name1": null
    },
    {
      "place_name": "Gul Road",
      "postal_code": "629339",
      "country_code": "SG",
      "latitude": 1.3075,
      "longitude": 103.666,
      "admin_name1": null
    },
    {
      "place_name": "Gul Lane",
      "postal_code": "629427",
      "country_code": "SG",
      "latitude": 1.3146,
      "longitude": 103.6603,
      "admin_name1": null
    },
    {
      "place_name": "Gul Drive",
      "postal_code": "629460",
      "country_code": "SG",
      "latitude": 1.3169,
      "longitude": 103.6741,
      "admin_name1": null
    },
    {
      "place_name": "Gul Crescent",
      "postal_code": "629517",
      "country_code": "SG",
      "latitude": 1.3117,
      "longitude": 103.6675,
      "admin_name1": null
    },
    {
      "place_name": "Gul Circle",
      "postal_code": "629564",
      "country_code": "SG",
      "latitude": 1.3136,
      "longitude": 103.6731,
      "admin_name1": null
    },
    {
      "place_name": "Gul Avenue",
      "postal_code": "629651",
      "country_code": "SG",
      "latitude": 1.3146,
      "longitude": 103.674,
      "admin_name1": null
    },
    {
      "place_name": "Fourth Lok Yang Road",
      "postal_code": "629700",
      "country_code": "SG",
      "latitude": 1.3252,
      "longitude": 103.6878,
      "admin_name1": null
    },
    {
      "place_name": "Benoi Sector",
      "postal_code": "629857",
      "country_code": "SG",
      "latitude": 1.3169,
      "longitude": 103.6878,
      "admin_name1": null
    },
    {
      "place_name": "Benoi Crescent",
      "postal_code": "629982",
      "country_code": "SG",
      "latitude": 1.3173,
      "longitude": 103.6908,
      "admin_name1": null
    },
    {
      "place_name": "Tuas Avenue 11",
      "postal_code": "636856",
      "country_code": "SG",
      "latitude": 1.3242,
      "longitude": 103.6436,
      "admin_name1": null
    },
    {
      "place_name": "Tuas South Street 6",
      "postal_code": "636911",
      "country_code": "SG",
      "latitude": 1.2781,
      "longitude": 103.6336,
      "admin_name1": null
    },
    {
      "place_name": "Tuas Bay Walk",
      "postal_code": "636981",
      "country_code": "SG",
      "latitude": 1.3123,
      "longitude": 103.633,
      "admin_name1": null
    },
    {
      "place_name": "Tuas South Boulevard",
      "postal_code": "637054",
      "country_code": "SG",
      "latitude": 1.2454,
      "longitude": 103.6142,
      "admin_name1": null
    },
    {
      "place_name": "Tuas South Street 12",
      "postal_code": "637087",
      "country_code": "SG",
      "latitude": 1.2734,
      "longitude": 103.6311,
      "admin_name1": null
    },
    {
      "place_name": "Tuas South Avenue 2",
      "postal_code": "637170",
      "country_code": "SG",
      "latitude": 1.3167,
      "longitude": 103.6334,
      "admin_name1": null
    },
    {
      "place_name": "Tuas Bay Drive",
      "postal_code": "637310",
      "country_code": "SG",
      "latitude": 1.3159,
      "longitude": 103.6301,
      "admin_name1": null
    },
    {
      "place_name": "Tuas South Avenue 1",
      "postal_code": "637326",
      "country_code": "SG",
      "latitude": 1.3161,
      "longitude": 103.6283,
      "admin_name1": null
    },
    {
      "place_name": "Tuas View Circuit",
      "postal_code": "637356",
      "country_code": "SG",
      "latitude": 1.2951,
      "longitude": 103.6327,
      "admin_name1": null
    },
    {
      "place_name": "Tuas South Avenue 8",
      "postal_code": "637421",
      "country_code": "SG",
      "latitude": 1.2961,
      "longitude": 103.6295,
      "admin_name1": null
    },
    {
      "place_name": "Tuas View Close",
      "postal_code": "637474",
      "country_code": "SG",
      "latitude": 1.2999,
      "longitude": 103.6255,
      "admin_name1": null
    },
    {
      "place_name": "Tuas South Street 5",
      "postal_code": "637644",
      "country_code": "SG",
      "latitude": 1.2946,
      "longitude": 103.6229,
      "admin_name1": null
    },
    {
      "place_name": "Tuas View Loop",
      "postal_code": "637677",
      "country_code": "SG",
      "latitude": 1.2921,
      "longitude": 103.6246,
      "admin_name1": null
    },
    {
      "place_name": "Tuas View Walk 1",
      "postal_code": "637731",
      "country_code": "SG",
      "latitude": 1.3011,
      "longitude": 103.6274,
      "admin_name1": null
    },
    {
      "place_name": "Yunnan Road",
      "postal_code": "637921",
      "country_code": "SG",
      "latitude": 1.3368,
      "longitude": 103.6913,
      "admin_name1": null
    },
    {
      "place_name": "Yunnan Drive 2",
      "postal_code": "637941",
      "country_code": "SG",
      "latitude": 1.3378,
      "longitude": 103.6918,
      "admin_name1": null
    },
    {
      "place_name": "Yunnan Crescent",
      "postal_code": "637980",
      "country_code": "SG",
      "latitude": 1.3369,
      "longitude": 103.6924,
      "admin_name1": null
    },
    {
      "place_name": "Tuas South Street 3",
      "postal_code": "638056",
      "country_code": "SG",
      "latitude": 1.3061,
      "longitude": 103.6293,
      "admin_name1": null
    },
    {
      "place_name": "Tech Park Crescent",
      "postal_code": "638069",
      "country_code": "SG",
      "latitude": 1.3122,
      "longitude": 103.6284,
      "admin_name1": null
    },
    {
      "place_name": "Yunnan Walk 3",
      "postal_code": "638173",
      "country_code": "SG",
      "latitude": 1.3385,
      "longitude": 103.6909,
      "admin_name1": null
    },
    {
      "place_name": "Yunnan Drive 1",
      "postal_code": "638252",
      "country_code": "SG",
      "latitude": 1.3384,
      "longitude": 103.6916,
      "admin_name1": null
    },
    {
      "place_name": "Upper Jurong Road",
      "postal_code": "638365",
      "country_code": "SG",
      "latitude": 1.3326,
      "longitude": 103.679,
      "admin_name1": null
    },
    {
      "place_name": "Tuas Street",
      "postal_code": "638459",
      "country_code": "SG",
      "latitude": 1.32,
      "longitude": 103.6535,
      "admin_name1": null
    },
    {
      "place_name": "Tuas Road",
      "postal_code": "638486",
      "country_code": "SG",
      "latitude": 1.3194,
      "longitude": 103.6601,
      "admin_name1": null
    },
    {
      "place_name": "Tuas Link 2",
      "postal_code": "638550",
      "country_code": "SG",
      "latitude": 1.3367,
      "longitude": 103.64,
      "admin_name1": null
    },
    {
      "place_name": "Tuas Link 1",
      "postal_code": "638597",
      "country_code": "SG",
      "latitude": 1.3358,
      "longitude": 103.6368,
      "admin_name1": null
    },
    {
      "place_name": "Tuas Crescent",
      "postal_code": "638724",
      "country_code": "SG",
      "latitude": 1.3175,
      "longitude": 103.6413,
      "admin_name1": null
    },
    {
      "place_name": "Tuas Avenue 18a",
      "postal_code": "638852",
      "country_code": "SG",
      "latitude": 1.3233,
      "longitude": 103.6384,
      "admin_name1": null
    },
    {
      "place_name": "Tuas Avenue 13",
      "postal_code": "638995",
      "country_code": "SG",
      "latitude": 1.3221,
      "longitude": 103.6389,
      "admin_name1": null
    },
    {
      "place_name": "Tuas Avenue 10",
      "postal_code": "639127",
      "country_code": "SG",
      "latitude": 1.3294,
      "longitude": 103.6449,
      "admin_name1": null
    },
    {
      "place_name": "Tuas Avenue 9",
      "postal_code": "639189",
      "country_code": "SG",
      "latitude": 1.3278,
      "longitude": 103.6444,
      "admin_name1": null
    },
    {
      "place_name": "Tuas Avenue 8",
      "postal_code": "639229",
      "country_code": "SG",
      "latitude": 1.3276,
      "longitude": 103.6487,
      "admin_name1": null
    },
    {
      "place_name": "Tuas Avenue 7",
      "postal_code": "639270",
      "country_code": "SG",
      "latitude": 1.3319,
      "longitude": 103.6447,
      "admin_name1": null
    },
    {
      "place_name": "Tuas Avenue 6",
      "postal_code": "639300",
      "country_code": "SG",
      "latitude": 1.3269,
      "longitude": 103.6506,
      "admin_name1": null
    },
    {
      "place_name": "Tuas Avenue 5",
      "postal_code": "639335",
      "country_code": "SG",
      "latitude": 1.3185,
      "longitude": 103.654,
      "admin_name1": null
    },
    {
      "place_name": "Tuas Avenue 3",
      "postal_code": "639408",
      "country_code": "SG",
      "latitude": 1.3214,
      "longitude": 103.6561,
      "admin_name1": null
    },
    {
      "place_name": "Tuas Avenue 2",
      "postal_code": "639451",
      "country_code": "SG",
      "latitude": 1.3241,
      "longitude": 103.6543,
      "admin_name1": null
    },
    {
      "place_name": "Tuas Avenue 1",
      "postal_code": "639506",
      "country_code": "SG",
      "latitude": 1.3286,
      "longitude": 103.653,
      "admin_name1": null
    },
    {
      "place_name": "Nanyang View",
      "postal_code": "639626",
      "country_code": "SG",
      "latitude": 1.3523,
      "longitude": 103.6871,
      "admin_name1": null
    },
    {
      "place_name": "Nanyang Circle",
      "postal_code": "639774",
      "country_code": "SG",
      "latitude": 1.3454,
      "longitude": 103.6865,
      "admin_name1": null
    },
    {
      "place_name": "Boon Lay Drive",
      "postal_code": "640204",
      "country_code": "SG",
      "latitude": 1.3444,
      "longitude": 103.7151,
      "admin_name1": null
    },
    {
      "place_name": "Jurong West Avenue 1",
      "postal_code": "640437",
      "country_code": "SG",
      "latitude": 1.3516,
      "longitude": 103.724,
      "admin_name1": null
    },
    {
      "place_name": "Jurong West Street 41",
      "postal_code": "640468",
      "country_code": "SG",
      "latitude": 1.3485,
      "longitude": 103.7205,
      "admin_name1": null
    },
    {
      "place_name": "Jurong West Street 52",
      "postal_code": "640516",
      "country_code": "SG",
      "latitude": 1.3455,
      "longitude": 103.7206,
      "admin_name1": null
    },
    {
      "place_name": "Jurong West Street 62",
      "postal_code": "640613",
      "country_code": "SG",
      "latitude": 1.3398,
      "longitude": 103.7007,
      "admin_name1": null
    },
    {
      "place_name": "Sunrise Lane",
      "postal_code": "806478",
      "country_code": "SG",
      "latitude": 1.3895,
      "longitude": 103.8551,
      "admin_name1": null
    },
    {
      "place_name": "Sunrise Drive",
      "postal_code": "806549",
      "country_code": "SG",
      "latitude": 1.39,
      "longitude": 103.8559,
      "admin_name1": null
    },
    {
      "place_name": "Sunrise Close",
      "postal_code": "806619",
      "country_code": "SG",
      "latitude": 1.3874,
      "longitude": 103.8568,
      "admin_name1": null
    },
    {
      "place_name": "Sunrise Avenue",
      "postal_code": "806691",
      "country_code": "SG",
      "latitude": 1.3894,
      "longitude": 103.8567,
      "admin_name1": null
    },
    {
      "place_name": "Stratton Drive",
      "postal_code": "806892",
      "country_code": "SG",
      "latitude": 1.3818,
      "longitude": 103.866,
      "admin_name1": null
    },
    {
      "place_name": "Seletar Terrace",
      "postal_code": "806954",
      "country_code": "SG",
      "latitude": 1.3815,
      "longitude": 103.8694,
      "admin_name1": null
    },
    {
      "place_name": "Seletar Hills Drive",
      "postal_code": "807027",
      "country_code": "SG",
      "latitude": 1.3835,
      "longitude": 103.8764,
      "admin_name1": null
    },
    {
      "place_name": "Seletar Crescent",
      "postal_code": "807158",
      "country_code": "SG",
      "latitude": 1.3872,
      "longitude": 103.8715,
      "admin_name1": null
    },
    {
      "place_name": "Seletar Close",
      "postal_code": "807213",
      "country_code": "SG",
      "latitude": 1.3828,
      "longitude": 103.8688,
      "admin_name1": null
    },
    {
      "place_name": "Saraca Walk",
      "postal_code": "807238",
      "country_code": "SG",
      "latitude": 1.3863,
      "longitude": 103.8606,
      "admin_name1": null
    },
    {
      "place_name": "Saraca View",
      "postal_code": "807314",
      "country_code": "SG",
      "latitude": 1.3877,
      "longitude": 103.8598,
      "admin_name1": null
    },
    {
      "place_name": "Saraca Road",
      "postal_code": "807362",
      "country_code": "SG",
      "latitude": 1.3847,
      "longitude": 103.8669,
      "admin_name1": null
    },
    {
      "place_name": "Saraca Place",
      "postal_code": "807452",
      "country_code": "SG",
      "latitude": 1.3869,
      "longitude": 103.8599,
      "admin_name1": null
    },
    {
      "place_name": "Saraca Hill",
      "postal_code": "807486",
      "country_code": "SG",
      "latitude": 1.3855,
      "longitude": 103.8652,
      "admin_name1": null
    },
    {
      "place_name": "Nim Road",
      "postal_code": "807545",
      "country_code": "SG",
      "latitude": 1.3825,
      "longitude": 103.8641,
      "admin_name1": null
    },
    {
      "place_name": "Nim Drive",
      "postal_code": "807667",
      "country_code": "SG",
      "latitude": 1.3842,
      "longitude": 103.8656,
      "admin_name1": null
    },
    {
      "place_name": "Nim Crescent",
      "postal_code": "807686",
      "country_code": "SG",
      "latitude": 1.3816,
      "longitude": 103.8673,
      "admin_name1": null
    },
    {
      "place_name": "Neram Road",
      "postal_code": "807769",
      "country_code": "SG",
      "latitude": 1.3852,
      "longitude": 103.8681,
      "admin_name1": null
    },
    {
      "place_name": "Neram Crescent",
      "postal_code": "807815",
      "country_code": "SG",
      "latitude": 1.3854,
      "longitude": 103.8672,
      "admin_name1": null
    },
    {
      "place_name": "Mimosa Walk",
      "postal_code": "807862",
      "country_code": "SG",
      "latitude": 1.3826,
      "longitude": 103.8614,
      "admin_name1": null
    },
    {
      "place_name": "Mimosa Crescent",
      "postal_code": "808077",
      "country_code": "SG",
      "latitude": 1.3843,
      "longitude": 103.8637,
      "admin_name1": null
    },
    {
      "place_name": "Lilac Drive",
      "postal_code": "808223",
      "country_code": "SG",
      "latitude": 1.3813,
      "longitude": 103.8611,
      "admin_name1": null
    },
    {
      "place_name": "Kasai Road",
      "postal_code": "808269",
      "country_code": "SG",
      "latitude": 1.3865,
      "longitude": 103.8669,
      "admin_name1": null
    },
    {
      "place_name": "Jalan Sindor",
      "postal_code": "808357",
      "country_code": "SG",
      "latitude": 1.3833,
      "longitude": 103.8724,
      "admin_name1": null
    },
    {
      "place_name": "Jalan Selaseh",
      "postal_code": "808478",
      "country_code": "SG",
      "latitude": 1.3834,
      "longitude": 103.872,
      "admin_name1": null
    },
    {
      "place_name": "Jalan Resak",
      "postal_code": "808503",
      "country_code": "SG",
      "latitude": 1.3819,
      "longitude": 103.8763,
      "admin_name1": null
    },
    {
      "place_name": "Jalan Redop",
      "postal_code": "808547",
      "country_code": "SG",
      "latitude": 1.3831,
      "longitude": 103.87,
      "admin_name1": null
    },
    {
      "place_name": "Jalan Peradun",
      "postal_code": "808647",
      "country_code": "SG",
      "latitude": 1.3832,
      "longitude": 103.8693,
      "admin_name1": null
    },
    {
      "place_name": "Jalan Pelajau",
      "postal_code": "808702",
      "country_code": "SG",
      "latitude": 1.3857,
      "longitude": 103.8712,
      "admin_name1": null
    },
    {
      "place_name": "Jalan Lekub",
      "postal_code": "808727",
      "country_code": "SG",
      "latitude": 1.3832,
      "longitude": 103.8711,
      "admin_name1": null
    },
    {
      "place_name": "Jalan Lebat Daun",
      "postal_code": "808796",
      "country_code": "SG",
      "latitude": 1.3847,
      "longitude": 103.8687,
      "admin_name1": null
    },
    {
      "place_name": "Jalan Keruing",
      "postal_code": "808927",
      "country_code": "SG",
      "latitude": 1.3849,
      "longitude": 103.8728,
      "admin_name1": null
    },
    {
      "place_name": "Jalan Kenarah",
      "postal_code": "809011",
      "country_code": "SG",
      "latitude": 1.3849,
      "longitude": 103.872,
      "admin_name1": null
    },
    {
      "place_name": "Jalan Kelulut",
      "postal_code": "809037",
      "country_code": "SG",
      "latitude": 1.3834,
      "longitude": 103.8758,
      "admin_name1": null
    },
    {
      "place_name": "Jalan Joran",
      "postal_code": "809092",
      "country_code": "SG",
      "latitude": 1.3855,
      "longitude": 103.8695,
      "admin_name1": null
    },
    {
      "place_name": "Jalan Jarak",
      "postal_code": "809185",
      "country_code": "SG",
      "latitude": 1.3825,
      "longitude": 103.8744,
      "admin_name1": null
    },
    {
      "place_name": "Jalan Chermai",
      "postal_code": "809323",
      "country_code": "SG",
      "latitude": 1.3862,
      "longitude": 103.8726,
      "admin_name1": null
    },
    {
      "place_name": "Jalan Bangau",
      "postal_code": "809367",
      "country_code": "SG",
      "latitude": 1.3839,
      "longitude": 103.8718,
      "admin_name1": null
    },
    {
      "place_name": "Jalan Antoi",
      "postal_code": "809399",
      "country_code": "SG",
      "latitude": 1.3842,
      "longitude": 103.8742,
      "admin_name1": null
    },
    {
      "place_name": "Dedap Road",
      "postal_code": "809439",
      "country_code": "SG",
      "latitude": 1.3878,
      "longitude": 103.8659,
      "admin_name1": null
    },
    {
      "place_name": "Dedap Link",
      "postal_code": "809551",
      "country_code": "SG",
      "latitude": 1.3881,
      "longitude": 103.8668,
      "admin_name1": null
    },
    {
      "place_name": "Cactus Road",
      "postal_code": "809629",
      "country_code": "SG",
      "latitude": 1.3901,
      "longitude": 103.8511,
      "admin_name1": null
    },
    {
      "place_name": "Cactus Drive",
      "postal_code": "809684",
      "country_code": "SG",
      "latitude": 1.3883,
      "longitude": 103.8522,
      "admin_name1": null
    },
    {
      "place_name": "Cactus Crescent",
      "postal_code": "809752",
      "country_code": "SG",
      "latitude": 1.3919,
      "longitude": 103.8527,
      "admin_name1": null
    },
    {
      "place_name": "Begonia Terrace",
      "postal_code": "809773",
      "country_code": "SG",
      "latitude": 1.3883,
      "longitude": 103.8612,
      "admin_name1": null
    },
    {
      "place_name": "Begonia Road",
      "postal_code": "809801",
      "country_code": "SG",
      "latitude": 1.3872,
      "longitude": 103.8627,
      "admin_name1": null
    },
    {
      "place_name": "Begonia Drive",
      "postal_code": "809848",
      "country_code": "SG",
      "latitude": 1.3879,
      "longitude": 103.8645,
      "admin_name1": null
    },
    {
      "place_name": "Begonia Crescent",
      "postal_code": "809984",
      "country_code": "SG",
      "latitude": 1.3893,
      "longitude": 103.8634,
      "admin_name1": null
    },
    {
      "place_name": "T2 Vip Drive",
      "postal_code": "818937",
      "country_code": "SG",
      "latitude": 1.3492,
      "longitude": 103.9868,
      "admin_name1": null
    },
    {
      "place_name": "Airport Cargo Road",
      "postal_code": "819481",
      "country_code": "SG",
      "latitude": 1.3714,
      "longitude": 103.9917,
      "admin_name1": null
    },
    {
      "place_name": "Airline Road",
      "postal_code": "819827",
      "country_code": "SG",
      "latitude": 1.3828,
      "longitude": 103.9994,
      "admin_name1": null
    },
    {
      "place_name": "Edgefield Plains",
      "postal_code": "820112",
      "country_code": "SG",
      "latitude": 1.3962,
      "longitude": 103.9071,
      "admin_name1": null
    },
    {
      "place_name": "Edgedale Plains",
      "postal_code": "820136",
      "country_code": "SG",
      "latitude": 1.3917,
      "longitude": 103.9098,
      "admin_name1": null
    },
    {
      "place_name": "Punggol Walk",
      "postal_code": "820212",
      "country_code": "SG",
      "latitude": 1.3997,
      "longitude": 103.8992,
      "admin_name1": null
    },
    {
      "place_name": "Punggol Field",
      "postal_code": "820258",
      "country_code": "SG",
      "latitude": 1.4042,
      "longitude": 103.8956,
      "admin_name1": null
    },
    {
      "place_name": "Sumang Walk",
      "postal_code": "820322",
      "country_code": "SG",
      "latitude": 1.4112,
      "longitude": 103.8975,
      "admin_name1": null
    },
    {
      "place_name": "Northshore Drive",
      "postal_code": "820401",
      "country_code": "SG",
      "latitude": 1.4143,
      "longitude": 103.901,
      "admin_name1": null
    },
    {
      "place_name": "Punggol Way",
      "postal_code": "820446",
      "country_code": "SG",
      "latitude": 1.4171,
      "longitude": 103.9127,
      "admin_name1": null
    },
    {
      "place_name": "Punggol Central",
      "postal_code": "820643",
      "country_code": "SG",
      "latitude": 1.3973,
      "longitude": 103.916,
      "admin_name1": null
    },
    {
      "place_name": "Punggol Drive",
      "postal_code": "822653",
      "country_code": "SG",
      "latitude": 1.3977,
      "longitude": 103.9197,
      "admin_name1": null
    },
    {
      "place_name": "Sumang Link",
      "postal_code": "823312",
      "country_code": "SG",
      "latitude": 1.4109,
      "longitude": 103.9012,
      "admin_name1": null
    },
    {
      "place_name": "Punggol Field Walk",
      "postal_code": "828649",
      "country_code": "SG",
      "latitude": 1.3901,
      "longitude": 103.9117,
      "admin_name1": null
    },
    {
      "place_name": "Edgefield Walk",
      "postal_code": "828850",
      "country_code": "SG",
      "latitude": 1.4009,
      "longitude": 103.9096,
      "admin_name1": null
    },
    {
      "place_name": "Ponggol Twenty-Fourth Avenue",
      "postal_code": "829496",
      "country_code": "SG",
      "latitude": 1.4192,
      "longitude": 103.9093,
      "admin_name1": null
    },
    {
      "place_name": "Ponggol Seventeenth Avenue",
      "postal_code": "829673",
      "country_code": "SG",
      "latitude": 1.4161,
      "longitude": 103.9055,
      "admin_name1": null
    },
    {
      "place_name": "Gambas Crescent",
      "postal_code": "757004",
      "country_code": "SG",
      "latitude": 1.4425,
      "longitude": 103.8172,
      "admin_name1": null
    },
    {
      "place_name": "Sembawang Crescent",
      "postal_code": "757059",
      "country_code": "SG",
      "latitude": 1.4436,
      "longitude": 103.8204,
      "admin_name1": null
    },
    {
      "place_name": "Penaga Place",
      "postal_code": "757158",
      "country_code": "SG",
      "latitude": 1.4597,
      "longitude": 103.8393,
      "admin_name1": null
    },
    {
      "place_name": "Inggu Road",
      "postal_code": "757197",
      "country_code": "SG",
      "latitude": 1.4604,
      "longitude": 103.84,
      "admin_name1": null
    },
    {
      "place_name": "Wak Hassan Drive",
      "postal_code": "757405",
      "country_code": "SG",
      "latitude": 1.4596,
      "longitude": 103.8382,
      "admin_name1": null
    },
    {
      "place_name": "Andrews Terrace",
      "postal_code": "757412",
      "country_code": "SG",
      "latitude": 1.4594,
      "longitude": 103.8383,
      "admin_name1": null
    },
    {
      "place_name": "Woodlands Industrial Park E2",
      "postal_code": "757463",
      "country_code": "SG",
      "latitude": 1.4486,
      "longitude": 103.794,
      "admin_name1": null
    },
    {
      "place_name": "Woodlands Industrial Park E8",
      "postal_code": "757610",
      "country_code": "SG",
      "latitude": 1.4517,
      "longitude": 103.8013,
      "admin_name1": null
    },
    {
      "place_name": "Admiralty Road West",
      "postal_code": "757619",
      "country_code": "SG",
      "latitude": 1.4642,
      "longitude": 103.8154,
      "admin_name1": null
    },
    {
      "place_name": "Sembawang Road",
      "postal_code": "757631",
      "country_code": "SG",
      "latitude": 1.4303,
      "longitude": 103.8255,
      "admin_name1": null
    },
    {
      "place_name": "Kandis Walk",
      "postal_code": "757677",
      "country_code": "SG",
      "latitude": 1.4575,
      "longitude": 103.8375,
      "admin_name1": null
    },
    {
      "place_name": "Woodlands Industrial Park E9",
      "postal_code": "757703",
      "country_code": "SG",
      "latitude": 1.4508,
      "longitude": 103.8019,
      "admin_name1": null
    },
    {
      "place_name": "Sembawang Walk",
      "postal_code": "757717",
      "country_code": "SG",
      "latitude": 1.4401,
      "longitude": 103.8241,
      "admin_name1": null
    },
    {
      "place_name": "Woodlands Industrial Park E1",
      "postal_code": "757718",
      "country_code": "SG",
      "latitude": 1.4552,
      "longitude": 103.7981,
      "admin_name1": null
    },
    {
      "place_name": "Sembawang Place",
      "postal_code": "757770",
      "country_code": "SG",
      "latitude": 1.4379,
      "longitude": 103.8246,
      "admin_name1": null
    },
    {
      "place_name": "Woodlands Industrial Park E5",
      "postal_code": "757800",
      "country_code": "SG",
      "latitude": 1.4532,
      "longitude": 103.7984,
      "admin_name1": null
    },
    {
      "place_name": "Woodlands Industrial Park E7",
      "postal_code": "757871",
      "country_code": "SG",
      "latitude": 1.4512,
      "longitude": 103.7961,
      "admin_name1": null
    },
    {
      "place_name": "Wellington Road",
      "postal_code": "757898",
      "country_code": "SG",
      "latitude": 1.4594,
      "longitude": 103.8284,
      "admin_name1": null
    },
    {
      "place_name": "Tasmania Road",
      "postal_code": "757934",
      "country_code": "SG",
      "latitude": 1.4615,
      "longitude": 103.8267,
      "admin_name1": null
    },
    {
      "place_name": "Senoko Way",
      "postal_code": "758053",
      "country_code": "SG",
      "latitude": 1.4697,
      "longitude": 103.8111,
      "admin_name1": null
    },
    {
      "place_name": "Senoko South Road",
      "postal_code": "758087",
      "country_code": "SG",
      "latitude": 1.4572,
      "longitude": 103.8038,
      "admin_name1": null
    },
    {
      "place_name": "Senoko Road",
      "postal_code": "758107",
      "country_code": "SG",
      "latitude": 1.4649,
      "longitude": 103.8014,
      "admin_name1": null
    },
    {
      "place_name": "Senoko Loop",
      "postal_code": "758157",
      "country_code": "SG",
      "latitude": 1.4587,
      "longitude": 103.799,
      "admin_name1": null
    },
    {
      "place_name": "Senoko Drive",
      "postal_code": "758214",
      "country_code": "SG",
      "latitude": 1.4617,
      "longitude": 103.8034,
      "admin_name1": null
    },
    {
      "place_name": "Senoko Crescent",
      "postal_code": "758274",
      "country_code": "SG",
      "latitude": 1.4627,
      "longitude": 103.8057,
      "admin_name1": null
    },
    {
      "place_name": "Platina Road",
      "postal_code": "758618",
      "country_code": "SG",
      "latitude": 1.4277,
      "longitude": 103.8257,
      "admin_name1": null
    },
    {
      "place_name": "Old Nelson Road",
      "postal_code": "758692",
      "country_code": "SG",
      "latitude": 1.448,
      "longitude": 103.8246,
      "admin_name1": null
    },
    {
      "place_name": "Montreal Road",
      "postal_code": "758719",
      "country_code": "SG",
      "latitude": 1.4583,
      "longitude": 103.8267,
      "admin_name1": null
    },
    {
      "place_name": "Lagos Circle",
      "postal_code": "758753",
      "country_code": "SG",
      "latitude": 1.4547,
      "longitude": 103.8298,
      "admin_name1": null
    },
    {
      "place_name": "Jalan Tampang",
      "postal_code": "758954",
      "country_code": "SG",
      "latitude": 1.442,
      "longitude": 103.8233,
      "admin_name1": null
    },
    {
      "place_name": "Jalan Sankam",
      "postal_code": "759018",
      "country_code": "SG",
      "latitude": 1.4576,
      "longitude": 103.8361,
      "admin_name1": null
    },
    {
      "place_name": "Jalan Mempurong",
      "postal_code": "759055",
      "country_code": "SG",
      "latitude": 1.4591,
      "longitude": 103.8417,
      "admin_name1": null
    },
    {
      "place_name": "Jalan Mata Ayer",
      "postal_code": "759090",
      "country_code": "SG",
      "latitude": 1.4259,
      "longitude": 103.8253,
      "admin_name1": null
    },
    {
      "place_name": "Jalan Machang",
      "postal_code": "759162",
      "country_code": "SG",
      "latitude": 1.4567,
      "longitude": 103.8356,
      "admin_name1": null
    },
    {
      "place_name": "Jalan Lengkok Sembawang",
      "postal_code": "759202",
      "country_code": "SG",
      "latitude": 1.428,
      "longitude": 103.8257,
      "admin_name1": null
    },
    {
      "place_name": "Jalan Gapis",
      "postal_code": "759394",
      "country_code": "SG",
      "latitude": 1.4581,
      "longitude": 103.8369,
      "admin_name1": null
    },
    {
      "place_name": "Goodlink Park",
      "postal_code": "759500",
      "country_code": "SG",
      "latitude": 1.4267,
      "longitude": 103.8257,
      "admin_name1": null
    },
    {
      "place_name": "Falkland Road",
      "postal_code": "759616",
      "country_code": "SG",
      "latitude": 1.46,
      "longitude": 103.8274,
      "admin_name1": null
    },
    {
      "place_name": "Canada Road",
      "postal_code": "759798",
      "country_code": "SG",
      "latitude": 1.4536,
      "longitude": 103.8261,
      "admin_name1": null
    },
    {
      "place_name": "Bermuda Road",
      "postal_code": "759820",
      "country_code": "SG",
      "latitude": 1.4578,
      "longitude": 103.8236,
      "admin_name1": null
    },
    {
      "place_name": "Yishun Street 11",
      "postal_code": "760132",
      "country_code": "SG",
      "latitude": 1.4328,
      "longitude": 103.8312,
      "admin_name1": null
    },
    {
      "place_name": "Yishun Ring Road",
      "postal_code": "760165",
      "country_code": "SG",
      "latitude": 1.4358,
      "longitude": 103.8318,
      "admin_name1": null
    },
    {
      "place_name": "Yishun Street 21",
      "postal_code": "760202",
      "country_code": "SG",
      "latitude": 1.4307,
      "longitude": 103.8373,
      "admin_name1": null
    },
    {
      "place_name": "Yishun Central",
      "postal_code": "760324",
      "country_code": "SG",
      "latitude": 1.4287,
      "longitude": 103.842,
      "admin_name1": null
    },
    {
      "place_name": "Yishun Avenue 6",
      "postal_code": "760392",
      "country_code": "SG",
      "latitude": 1.4287,
      "longitude": 103.8492,
      "admin_name1": null
    },
    {
      "place_name": "Yishun Avenue 11",
      "postal_code": "760430",
      "country_code": "SG",
      "latitude": 1.4212,
      "longitude": 103.8481,
      "admin_name1": null
    },
    {
      "place_name": "Yishun Avenue 4",
      "postal_code": "760664",
      "country_code": "SG",
      "latitude": 1.4202,
      "longitude": 103.8411,
      "admin_name1": null
    },
    {
      "place_name": "Yishun Street 71",
      "postal_code": "760721",
      "country_code": "SG",
      "latitude": 1.4261,
      "longitude": 103.829,
      "admin_name1": null
    },
    {
      "place_name": "Yishun Street 72",
      "postal_code": "760748",
      "country_code": "SG",
      "latitude": 1.4275,
      "longitude": 103.8335,
      "admin_name1": null
    },
    {
      "place_name": "Yishun Street 81",
      "postal_code": "760848",
      "country_code": "SG",
      "latitude": 1.4162,
      "longitude": 103.8354,
      "admin_name1": null
    },
    {
      "place_name": "Yishun Street 42",
      "postal_code": "761471",
      "country_code": "SG",
      "latitude": 1.4259,
      "longitude": 103.8529,
      "admin_name1": null
    },
    {
      "place_name": "Yishun Street 31",
      "postal_code": "762333",
      "country_code": "SG",
      "latitude": 1.432,
      "longitude": 103.8454,
      "admin_name1": null
    },
    {
      "place_name": "Yishun Street 51",
      "postal_code": "763502",
      "country_code": "SG",
      "latitude": 1.4173,
      "longitude": 103.8416,
      "admin_name1": null
    },
    {
      "place_name": "Canberra Drive",
      "postal_code": "767999",
      "country_code": "SG",
      "latitude": 1.4454,
      "longitude": 103.8278,
      "admin_name1": null
    },
    {
      "place_name": "Miltonia Close",
      "postal_code": "768062",
      "country_code": "SG",
      "latitude": 1.4189,
      "longitude": 103.8478,
      "admin_name1": null
    },
    {
      "place_name": "Yishun Industrial Park A",
      "postal_code": "768775",
      "country_code": "SG",
      "latitude": 1.4439,
      "longitude": 103.8375,
      "admin_name1": null
    },
    {
      "place_name": "Yishun Avenue 7",
      "postal_code": "768925",
      "country_code": "SG",
      "latitude": 1.4406,
      "longitude": 103.8361,
      "admin_name1": null
    },
    {
      "place_name": "Jalan Shaer",
      "postal_code": "769351",
      "country_code": "SG",
      "latitude": 1.4383,
      "longitude": 103.8267,
      "admin_name1": null
    },
    {
      "place_name": "Jalan Serengam",
      "postal_code": "769410",
      "country_code": "SG",
      "latitude": 1.442,
      "longitude": 103.8256,
      "admin_name1": null
    },
    {
      "place_name": "Jalan Sendudok",
      "postal_code": "769449",
      "country_code": "SG",
      "latitude": 1.4422,
      "longitude": 103.8265,
      "admin_name1": null
    },
    {
      "place_name": "Jalan Salang",
      "postal_code": "769543",
      "country_code": "SG",
      "latitude": 1.4409,
      "longitude": 103.8251,
      "admin_name1": null
    },
    {
      "place_name": "Jalan Malu-Malu",
      "postal_code": "769667",
      "country_code": "SG",
      "latitude": 1.4435,
      "longitude": 103.8261,
      "admin_name1": null
    },
    {
      "place_name": "Jalan Kemuning",
      "postal_code": "769740",
      "country_code": "SG",
      "latitude": 1.4393,
      "longitude": 103.8265,
      "admin_name1": null
    },
    {
      "place_name": "Jalan Hikayat",
      "postal_code": "769852",
      "country_code": "SG",
      "latitude": 1.4381,
      "longitude": 103.827,
      "admin_name1": null
    },
    {
      "place_name": "Thong Bee Road",
      "postal_code": "778991",
      "country_code": "SG",
      "latitude": 1.4031,
      "longitude": 103.8174,
      "admin_name1": null
    },
    {
      "place_name": "Meng Suan Road",
      "postal_code": "779311",
      "country_code": "SG",
      "latitude": 1.4031,
      "longitude": 103.8137,
      "admin_name1": null
    },
    {
      "place_name": "Springside View",
      "postal_code": "786069",
      "country_code": "SG",
      "latitude": 1.4066,
      "longitude": 103.8228,
      "admin_name1": null
    },
    {
      "place_name": "Springside Crescent",
      "postal_code": "786178",
      "country_code": "SG",
      "latitude": 1.405,
      "longitude": 103.8231,
      "admin_name1": null
    },
    {
      "place_name": "Springside Avenue",
      "postal_code": "786207",
      "country_code": "SG",
      "latitude": 1.4058,
      "longitude": 103.8222,
      "admin_name1": null
    },
    {
      "place_name": "Tagore Avenue",
      "postal_code": "786222",
      "country_code": "SG",
      "latitude": 1.3814,
      "longitude": 103.8281,
      "admin_name1": null
    },
    {
      "place_name": "Springleaf Avenue",
      "postal_code": "786328",
      "country_code": "SG",
      "latitude": 1.4003,
      "longitude": 103.8239,
      "admin_name1": null
    },
    {
      "place_name": "Springleaf Crescent",
      "postal_code": "786385",
      "country_code": "SG",
      "latitude": 1.4006,
      "longitude": 103.8248,
      "admin_name1": null
    },
    {
      "place_name": "Springside Place",
      "postal_code": "786414",
      "country_code": "SG",
      "latitude": 1.4046,
      "longitude": 103.8216,
      "admin_name1": null
    },
    {
      "place_name": "Lentor Plain",
      "postal_code": "786526",
      "country_code": "SG",
      "latitude": 1.3878,
      "longitude": 103.8387,
      "admin_name1": null
    },
    {
      "place_name": "Springside Link",
      "postal_code": "786589",
      "country_code": "SG",
      "latitude": 1.4045,
      "longitude": 103.8202,
      "admin_name1": null
    },
    {
      "place_name": "Lentor Crescent",
      "postal_code": "786715",
      "country_code": "SG",
      "latitude": 1.3896,
      "longitude": 103.8347,
      "admin_name1": null
    },
    {
      "place_name": "Lentor Street",
      "postal_code": "786784",
      "country_code": "SG",
      "latitude": 1.3905,
      "longitude": 103.8341,
      "admin_name1": null
    },
    {
      "place_name": "Countryside Road",
      "postal_code": "786886",
      "country_code": "SG",
      "latitude": 1.3874,
      "longitude": 103.8398,
      "admin_name1": null
    },
    {
      "place_name": "Springside Drive",
      "postal_code": "786969",
      "country_code": "SG",
      "latitude": 1.4039,
      "longitude": 103.8195,
      "admin_name1": null
    },
    {
      "place_name": "Yio Chu Kang Road",
      "postal_code": "787082",
      "country_code": "SG",
      "latitude": 1.3851,
      "longitude": 103.8393,
      "admin_name1": null
    },
    {
      "place_name": "Upper Thomson Road",
      "postal_code": "787120",
      "country_code": "SG",
      "latitude": 1.3994,
      "longitude": 103.818,
      "admin_name1": null
    },
    {
      "place_name": "Tung Po Avenue",
      "postal_code": "787184",
      "country_code": "SG",
      "latitude": 1.3821,
      "longitude": 103.832,
      "admin_name1": null
    },
    {
      "place_name": "Tu Fu Avenue",
      "postal_code": "787248",
      "country_code": "SG",
      "latitude": 1.3808,
      "longitude": 103.8286,
      "admin_name1": null
    },