[
  [
    {
      "place_name": "Bang Bon",
      "postal_code": "10150",
      "country_code": "TH",
      "latitude": 13.7,
      "longitude": 100.4667,
      "admin_name1": "Bangkok"
    },
    {
      "place_name": "Saphan Sung B39",
      "postal_code": "10240",
      "country_code": "TH",
      "latitude": 13.7667,
      "longitude": 100.65,
      "admin_name1": "Bangkok"
    },
    {
      "place_name": "Lam Luk Ka",
      "postal_code": "12150",
      "country_code": "TH",
      "latitude": 13.9333,
      "longitude": 100.75,
      "admin_name1": "Pathum Thani"
    },
    {
      "place_name": "Sena",
      "postal_code": "13110",
      "country_code": "TH",
      "latitude": 14.3167,
      "longitude": 100.4,
      "admin_name1": "Phra Nakhon Si Ayutthaya"
    },
    {
      "place_name": "Uthai",
      "postal_code": "13210",
      "country_code": "TH",
      "latitude": 14.3667,
      "longitude": 100.6667,
      "admin_name1": "Phra Nakhon Si Ayutthaya"
    },
    {
      "place_name": "Phrom Buri",
      "postal_code": "16120",
      "country_code": "TH",
      "latitude": 14.8333,
      "longitude": 100.45,
      "admin_name1": "Sing Buri"
    },
    {
      "place_name": "Hankha",
      "postal_code": "17130",
      "country_code": "TH",
      "latitude": 14.9833,
      "longitude": 100.0167,
      "admin_name1": "Chai Nat"
    },
    {
      "place_name": "Muang Rayong",
      "postal_code": "21000",
      "country_code": "TH",
      "latitude": 12.6667,
      "longitude": 101.2833,
      "admin_name1": "Rayong"
    },
    {
      "place_name": "Khlong Kaen",
      "postal_code": "24000",
      "country_code": "TH",
      "latitude": 13.6861,
      "longitude": 101.1944,
      "admin_name1": "Chachoengsao"
    },
    {
      "place_name": "Khok Sung",
      "postal_code": "27120",
      "country_code": "TH",
      "latitude": 13.6833,
      "longitude": 102.5,
      "admin_name1": "Sa Kaeo"
    },
    {
      "place_name": "Khong",
      "postal_code": "30260",
      "country_code": "TH",
      "latitude": 15.4333,
      "longitude": 102.3333,
      "admin_name1": "Nakhon Ratchasima"
    },
    {
      "place_name": "Na Pho",
      "postal_code": "31230",
      "country_code": "TH",
      "latitude": 15.6333,
      "longitude": 102.95,
      "admin_name1": "Buri Ram"
    },
    {
      "place_name": "Nong Hong",
      "postal_code": "31240",
      "country_code": "TH",
      "latitude": 14.8333,
      "longitude": 102.7333,
      "admin_name1": "Buri Ram"
    },
    {
      "place_name": "Silalad",
      "postal_code": "33160",
      "country_code": "TH",
      "latitude": 15.3333,
      "longitude": 104.15,
      "admin_name1": "Si Sa Ket"
    },
    {
      "place_name": "Maha Chana Chai",
      "postal_code": "35130",
      "country_code": "TH",
      "latitude": 15.5333,
      "longitude": 104.25,
      "admin_name1": "Yasothon"
    },
    {
      "place_name": "Bamnet Narong",
      "postal_code": "36160",
      "country_code": "TH",
      "latitude": 15.4992,
      "longitude": 101.6897,
      "admin_name1": "Chaiyaphum"
    },
    {
      "place_name": "Khon San",
      "postal_code": "36180",
      "country_code": "TH",
      "latitude": 16.35,
      "longitude": 101.8333,
      "admin_name1": "Chaiyaphum"
    },
    {
      "place_name": "Si Bun Ruang",
      "postal_code": "39180",
      "country_code": "TH",
      "latitude": 16.9667,
      "longitude": 102.2833,
      "admin_name1": "Nong Bua Lam Phu"
    },
    {
      "place_name": "Chonnabot",
      "postal_code": "40180",
      "country_code": "TH",
      "latitude": 16.1,
      "longitude": 102.6333,
      "admin_name1": "Khon Kaen"
    },
    {
      "place_name": "Ubolratana",
      "postal_code": "40250",
      "country_code": "TH",
      "latitude": 16.48,
      "longitude": 102.5233,
      "admin_name1": "Khon Kaen"
    },
    {
      "place_name": "Nong Saeng",
      "postal_code": "41340",
      "country_code": "TH",
      "latitude": 17.1336,
      "longitude": 102.9675,
      "admin_name1": "Udon Thani"
    },
    {
      "place_name": "Dan Sai",
      "postal_code": "42120",
      "country_code": "TH",
      "latitude": 17.2833,
      "longitude": 101.15,
      "admin_name1": "Loei"
    },
    {
      "place_name": "Phayakkhaphum Phisai",
      "postal_code": "44110",
      "country_code": "TH",
      "latitude": 15.5167,
      "longitude": 103.2,
      "admin_name1": "Maha Sarakham"
    },
    {
      "place_name": "Kud Rang",
      "postal_code": "44130",
      "country_code": "TH",
      "latitude": 16.0333,
      "longitude": 103.1167,
      "admin_name1": "Maha Sarakham"
    },
    {
      "place_name": "Phanna Nikhom",
      "postal_code": "47130",
      "country_code": "TH",
      "latitude": 17.35,
      "longitude": 103.7833,
      "admin_name1": "Sakon Nakhon"
    },
    {
      "place_name": "Renu Nakhon",
      "postal_code": "48170",
      "country_code": "TH",
      "latitude": 17.0667,
      "longitude": 104.6833,
      "admin_name1": "Nakhon Phanom"
    },
    {
      "place_name": "Mae On",
      "postal_code": "50130",
      "country_code": "TH",
      "latitude": 18.7422,
      "longitude": 99.1225,
      "admin_name1": "Chiang Mai"
    },
    {
      "place_name": "Ban Hong",
      "postal_code": "51130",
      "country_code": "TH",
      "latitude": 18.3147,
      "longitude": 98.8175,
      "admin_name1": "Lamphun"
    },
    {
      "place_name": "Chaloem Phrakiat",
      "postal_code": "55130",
      "country_code": "TH",
      "latitude": 19.4167,
      "longitude": 100.8833,
      "admin_name1": "Nan"
    },
    {
      "place_name": "Lom Sak",
      "postal_code": "67110",
      "country_code": "TH",
      "latitude": 16.7833,
      "longitude": 101.25,
      "admin_name1": "Phetchaburi"
    },
    {
      "place_name": "Khiri Ratthanikhom",
      "postal_code": "84180",
      "country_code": "TH",
      "latitude": 9.0333,
      "longitude": 98.9167,
      "admin_name1": "Surat Thani"
    },
    {
      "place_name": "Thepha",
      "postal_code": "90150",
      "country_code": "TH",
      "latitude": 6.8667,
      "longitude": 100.9667,
      "admin_name1": "Songkhla"
    },
    {
      "place_name": "Yan Tak Kao",
      "postal_code": "92140",
      "country_code": "TH",
      "latitude": 7.5267,
      "longitude": 99.5933,
      "admin_name1": "Trang"
    },
    {
      "place_name": "Thung Yan Daeng",
      "postal_code": "94140",
      "country_code": "TH",
      "latitude": 6.7794,
      "longitude": 101.3362,
      "admin_name1": "Pattani"
    },
    {
      "place_name": "Mai Kaen",
      "postal_code": "94220",
      "country_code": "TH",
      "latitude": 6.6078,
      "longitude": 101.6667,
      "admin_name1": "Pattani"
    },
    {
      "place_name": "Sai Mai",
      "postal_code": "10220",
      "country_code": "TH",
      "latitude": 13.8667,
      "longitude": 100.6,
      "admin_name1": "Bangkok"
    },
    {
      "place_name": "Pa Mok",
      "postal_code": "14130",
      "country_code": "TH",
      "latitude": 14.4833,
      "longitude": 100.45,
      "admin_name1": "Ang Thong"
    },
    {
      "place_name": "Laem Sing",
      "postal_code": "22130",
      "country_code": "TH",
      "latitude": 12.4833,
      "longitude": 102.0667,
      "admin_name1": "Chanthaburi"
    },
    {
      "place_name": "Huai Thalaeng",
      "postal_code": "30240",
      "country_code": "TH",
      "latitude": 15.0028,
      "longitude": 102.6556,
      "admin_name1": "Nakhon Ratchasima"
    },
    {
      "place_name": "Kang Sanam Nang",
      "postal_code": "30440",
      "country_code": "TH",
      "latitude": 14.7,
      "longitude": 102.45,
      "admin_name1": "Nakhon Ratchasima"
    },
    {
      "place_name": "Khun Han",
      "postal_code": "33150",
      "country_code": "TH",
      "latitude": 14.6333,
      "longitude": 104.3667,
      "admin_name1": "Si Sa Ket"
    },
    {
      "place_name": "Nong Wua So",
      "postal_code": "41220",
      "country_code": "TH",
      "latitude": 17.1336,
      "longitude": 102.9675,
      "admin_name1": "Udon Thani"
    },
    {
      "place_name": "Erawan",
      "postal_code": "41220",
      "country_code": "TH",
      "latitude": 17.1336,
      "longitude": 102.9675,
      "admin_name1": "Loei"
    },
    {
      "place_name": "Sri Somdet",
      "postal_code": "45000",
      "country_code": "TH",
      "latitude": 16.3833,
      "longitude": 103.2,
      "admin_name1": "Roi Et"
    },
    {
      "place_name": "Kong Chai",
      "postal_code": "46130",
      "country_code": "TH",
      "latitude": 16.3333,
      "longitude": 103.5833,
      "admin_name1": "Kalasin"
    },
    {
      "place_name": "Nong Kung Si",
      "postal_code": "46220",
      "country_code": "TH",
      "latitude": 16.65,
      "longitude": 103.3,
      "admin_name1": "Kalasin"
    },
    {
      "place_name": "Kham Ta Kla",
      "postal_code": "47250",
      "country_code": "TH",
      "latitude": 17.85,
      "longitude": 103.75,
      "admin_name1": "Sakon Nakhon"
    },
    {
      "place_name": "Hang Dong",
      "postal_code": "50230",
      "country_code": "TH",
      "latitude": 18.6872,
      "longitude": 98.9167,
      "admin_name1": "Chiang Mai"
    },
    {
      "place_name": "Samoeng",
      "postal_code": "50250",
      "country_code": "TH",
      "latitude": 18.8503,
      "longitude": 98.7328,
      "admin_name1": "Chiang Mai"
    },
    {
      "place_name": "Nong Muangkhai",
      "postal_code": "54170",
      "country_code": "TH",
      "latitude": 18.1353,
      "longitude": 100.0178,
      "admin_name1": "Phrae"
    },
    {
      "place_name": "Santisuk",
      "postal_code": "55000",
      "country_code": "TH",
      "latitude": 18.7833,
      "longitude": 100.7833,
      "admin_name1": "Nan"
    },
    {
      "place_name": "Pua",
      "postal_code": "55120",
      "country_code": "TH",
      "latitude": 19.1833,
      "longitude": 100.9167,
      "admin_name1": "Nan"
    },
    {
      "place_name": "Na Mun",
      "postal_code": "55180",
      "country_code": "TH",
      "latitude": 18.1833,
      "longitude": 100.6667,
      "admin_name1": "Nan"
    },
    {
      "place_name": "Sop Moei",
      "postal_code": "58110",
      "country_code": "TH",
      "latitude": 18.1578,
      "longitude": 97.9336,
      "admin_name1": "Mae Hong Son"
    },
    {
      "place_name": "Ban Rai",
      "postal_code": "61140",
      "country_code": "TH",
      "latitude": 15.3667,
      "longitude": 99.85,
      "admin_name1": "Uthai Thani"
    },
    {
      "place_name": "Pangslila Thong",
      "postal_code": "62120",
      "country_code": "TH",
      "latitude": 16.2,
      "longitude": 99.7167,
      "admin_name1": "Kamphaeng Phet"
    },
    {
      "place_name": "Wang Chaw",
      "postal_code": "63000",
      "country_code": "TH",
      "latitude": 16.8667,
      "longitude": 99.1333,
      "admin_name1": "Tak"
    },
    {
      "place_name": "Wang Thong",
      "postal_code": "65130",
      "country_code": "TH",
      "latitude": 16.8333,
      "longitude": 100.4333,
      "admin_name1": "Phitsanulok"
    },
    {
      "place_name": "Bang Rakam",
      "postal_code": "65140",
      "country_code": "TH",
      "latitude": 16.75,
      "longitude": 100.1167,
      "admin_name1": "Phitsanulok"
    },
    {
      "place_name": "Nong Ya Plong",
      "postal_code": "76160",
      "country_code": "TH",
      "latitude": 13.15,
      "longitude": 99.7,
      "admin_name1": "Phetchaburi"
    },
    {
      "place_name": "Ban Na San",
      "postal_code": "84120",
      "country_code": "TH",
      "latitude": 8.8,
      "longitude": 99.3667,
      "admin_name1": "Surat Thani"
    },
    {
      "place_name": "Phunphin",
      "postal_code": "84130",
      "country_code": "TH",
      "latitude": 9.1167,
      "longitude": 99.2,
      "admin_name1": "Surat Thani"
    },
    {
      "place_name": "Lamae",
      "postal_code": "86170",
      "country_code": "TH",
      "latitude": 9.85,
      "longitude": 99.0833,
      "admin_name1": "Chumphon"
    },
    {
      "place_name": "Pa Bon",
      "postal_code": "93170",
      "country_code": "TH",
      "latitude": 7.4944,
      "longitude": 100.0583,
      "admin_name1": "Phatthalung"
    },
    {
      "place_name": "Rangae",
      "postal_code": "96130",
      "country_code": "TH",
      "latitude": 6.2908,
      "longitude": 101.7119,
      "admin_name1": "Narathiwat"
    },
    {
      "place_name": "Wattana",
      "postal_code": "10110",
      "country_code": "TH",
      "latitude": 13.7083,
      "longitude": 100.4562,
      "admin_name1": "Bangkok"
    },
    {
      "place_name": "Lat Krabang",
      "postal_code": "10520",
      "country_code": "TH",
      "latitude": 13.7167,
      "longitude": 100.7833,
      "admin_name1": "Bangkok"
    },
    {
      "place_name": "Muang Pathum Thani",
      "postal_code": "12000",
      "country_code": "TH",
      "latitude": 14.0433,
      "longitude": 100.64,
      "admin_name1": "Pathum Thani"
    },
    {
      "place_name": "Thanyaburi",
      "postal_code": "12110",
      "country_code": "TH",
      "latitude": 14.0433,
      "longitude": 100.64,
      "admin_name1": "Pathum Thani"
    },
    {
      "place_name": "Khok Charoen",
      "postal_code": "15250",
      "country_code": "TH",
      "latitude": 15.35,
      "longitude": 100.8167,
      "admin_name1": "Lopburi"
    },
    {
      "place_name": "Chaloem Phakiat",
      "postal_code": "18000",
      "country_code": "TH",
      "latitude": 14.5521,
      "longitude": 100.9003,
      "admin_name1": "Saraburi"
    },
    {
      "place_name": "Muak Lek",
      "postal_code": "18180",
      "country_code": "TH",
      "latitude": 14.5833,
      "longitude": 101.2167,
      "admin_name1": "Saraburi"
    },
    {
      "place_name": "Si Maha Phot",
      "postal_code": "25140",
      "country_code": "TH",
      "latitude": 13.9667,
      "longitude": 101.5167,
      "admin_name1": "Prachin Buri"
    },
    {
      "place_name": "Khok Pip",
      "postal_code": "25190",
      "country_code": "TH",
      "latitude": 13.8833,
      "longitude": 101.4,
      "admin_name1": "Prachin Buri"
    },
    {
      "place_name": "Si Mahosot",
      "postal_code": "25190",
      "country_code": "TH",
      "latitude": 13.8833,
      "longitude": 101.4,
      "admin_name1": "Prachin Buri"
    },
    {
      "place_name": "Nong Bunnak",
      "postal_code": "30410",
      "country_code": "TH",
      "latitude": 14.7,
      "longitude": 102.45,
      "admin_name1": "Nakhon Ratchasima"
    },
    {
      "place_name": "Nang Rong",
      "postal_code": "31110",
      "country_code": "TH",
      "latitude": 14.6333,
      "longitude": 102.8,
      "admin_name1": "Buri Ram"
    },
    {
      "place_name": "Pu Sing",
      "postal_code": "33140",
      "country_code": "TH",
      "latitude": 15.1167,
      "longitude": 104.3333,
      "admin_name1": "Si Sa Ket"
    },
    {
      "place_name": "Huai Thap Than",
      "postal_code": "33210",
      "country_code": "TH",
      "latitude": 15.05,
      "longitude": 104.0333,
      "admin_name1": "Si Sa Ket"
    },
    {
      "place_name": "Phibun Mangsahan",
      "postal_code": "34110",
      "country_code": "TH",
      "latitude": 15.2333,
      "longitude": 105.2333,
      "admin_name1": "Ubon Ratchathani"
    },
    {
      "place_name": "Kaeng Khro",
      "postal_code": "36150",
      "country_code": "TH",
      "latitude": 16.1,
      "longitude": 102.2667,
      "admin_name1": "Chaiyaphum"
    },
    {
      "place_name": "Non Silla",
      "postal_code": "40110",
      "country_code": "TH",
      "latitude": 16.0667,
      "longitude": 102.7333,
      "admin_name1": "Khon Kaen"
    },
    {
      "place_name": "Nam Som",
      "postal_code": "41210",
      "country_code": "TH",
      "latitude": 17.1336,
      "longitude": 102.9675,
      "admin_name1": "Udon Thani"
    },
    {
      "place_name": "Wang Yang",
      "postal_code": "48130",
      "country_code": "TH",
      "latitude": 16.9667,
      "longitude": 104.5,
      "admin_name1": "Nakhon Phanom"
    },
    {
      "place_name": "Mae Ai",
      "postal_code": "50280",
      "country_code": "TH",
      "latitude": 18.5508,
      "longitude": 98.7905,
      "admin_name1": "Chiang Mai"
    },
    {
      "place_name": "Muang Phayao",
      "postal_code": "56000",
      "country_code": "TH",
      "latitude": 19.1667,
      "longitude": 99.9167,
      "admin_name1": "Phayao"
    },
    {
      "place_name": "Mae Chan",
      "postal_code": "57110",
      "country_code": "TH",
      "latitude": 20.1472,
      "longitude": 99.8539,
      "admin_name1": "Chiang Rai"
    },
    {
      "place_name": "Pa Daet",
      "postal_code": "57190",
      "country_code": "TH",
      "latitude": 19.5,
      "longitude": 100.0,
      "admin_name1": "Chiang Rai"
    },
    {
      "place_name": "Si Samrong",
      "postal_code": "64120",
      "country_code": "TH",
      "latitude": 17.1631,
      "longitude": 99.8672,
      "admin_name1": "Sukhothai"
    },
    {
      "place_name": "Si Thep",
      "postal_code": "67170",
      "country_code": "TH",
      "latitude": 15.4469,
      "longitude": 101.0725,
      "admin_name1": "Phetchaburi"
    },
    {
      "place_name": "Muang prachuap Khirikan",
      "postal_code": "77000",
      "country_code": "TH",
      "latitude": 11.7972,
      "longitude": 99.7278,
      "admin_name1": "Prachuap Khiri Khan"
    },
    {
      "place_name": "Wiphawadi",
      "postal_code": "84180",
      "country_code": "TH",
      "latitude": 9.0333,
      "longitude": 98.9167,
      "admin_name1": "Surat Thani"
    },
    {
      "place_name": "Ban Na Doem",
      "postal_code": "84240",
      "country_code": "TH",
      "latitude": 8.8833,
      "longitude": 99.3167,
      "admin_name1": "Surat Thani"
    },
    {
      "place_name": "Muang Phatthalung",
      "postal_code": "93000",
      "country_code": "TH",
      "latitude": 7.4944,
      "longitude": 100.0583,
      "admin_name1": "Phatthalung"
    },
    {
      "place_name": "Pom Prap Sattru Phai",
      "postal_code": "10100",
      "country_code": "TH",
      "latitude": 13.7333,
      "longitude": 100.5,
      "admin_name1": "Bangkok"
    },
    {
      "place_name": "Bang Bo",
      "postal_code": "10560",
      "country_code": "TH",
      "latitude": 13.5833,
      "longitude": 100.8167,
      "admin_name1": "Samut Prakan"
    },
    {
      "place_name": "Non Kham",
      "postal_code": "17130",
      "country_code": "TH",
      "latitude": 14.9833,
      "longitude": 100.0167,
      "admin_name1": "Chai Nat"
    },
    {
      "place_name": "Bang Khla",
      "postal_code": "24110",
      "country_code": "TH",
      "latitude": 13.7167,
      "longitude": 101.2167,
      "admin_name1": "Chachoengsao"
    },
    {
      "place_name": "Ta Phraya",
      "postal_code": "27180",
      "country_code": "TH",
      "latitude": 14.005,
      "longitude": 102.8072,
      "admin_name1": "Sa Kaeo"
    },
    {
      "place_name": "Prathai",
      "postal_code": "30180",
      "country_code": "TH",
      "latitude": 15.5167,
      "longitude": 102.8,
      "admin_name1": "Nakhon Ratchasima"
    },
    {
      "place_name": "Khukhan",
      "postal_code": "33140",
      "country_code": "TH",
      "latitude": 15.1167,
      "longitude": 104.3333,
      "admin_name1": "Si Sa Ket"
    },
    {
      "place_name": "Khemarat",
      "postal_code": "34170",
      "country_code": "TH",
      "latitude": 16.05,
      "longitude": 105.2167,
      "admin_name1": "Ubon Ratchathani"
    },
    {
      "place_name": "Sawang Werarong",
      "postal_code": "34190",
      "country_code": "TH",
      "latitude": 15.6417,
      "longitude": 105.225,
      "admin_name1": "Ubon Ratchathani"
    },
    {
      "place_name": "Tan Sum",
      "postal_code": "34330",
      "country_code": "TH",
      "latitude": 15.3833,
      "longitude": 105.1167,
      "admin_name1": "Ubon Ratchathani"
    },
    {
      "place_name": "Phana",
      "postal_code": "37180",
      "country_code": "TH",
      "latitude": 15.6983,
      "longitude": 104.8928,
      "admin_name1": "Amnat Charoen"
    },
    {
      "place_name": "Muang Nong Bua Lam Phu",
      "postal_code": "39000",
      "country_code": "TH",
      "latitude": 17.0409,
      "longitude": 102.3544,
      "admin_name1": "Nong Bua Lam Phu"
    },
    {
      "place_name": "Nong Rua",
      "postal_code": "40210",
      "country_code": "TH",
      "latitude": 16.5,
      "longitude": 102.4333,
      "admin_name1": "Khon Kaen"
    },
    {
      "place_name": "Seka",
      "postal_code": "43150",
      "country_code": "TH",
      "latitude": 17.9333,
      "longitude": 103.95,
      "admin_name1": "Nong Khai"
    },
    {
      "place_name": "So Phisai",
      "postal_code": "43170",
      "country_code": "TH",
      "latitude": 18.0667,
      "longitude": 103.4333,
      "admin_name1": "Nong Khai"
    },
    {
      "place_name": "Kamalasai",
      "postal_code": "46130",
      "country_code": "TH",
      "latitude": 16.3333,
      "longitude": 103.5833,
      "admin_name1": "Kalasin"
    },
    {
      "place_name": "Tao Ngoi",
      "postal_code": "47260",
      "country_code": "TH",
      "latitude": 16.9833,
      "longitude": 104.1333,
      "admin_name1": "Sakon Nakhon"
    },
    {
      "place_name": "Na Thom",
      "postal_code": "48140",
      "country_code": "TH",
      "latitude": 17.9667,
      "longitude": 104.2333,
      "admin_name1": "Nakhon Phanom"
    },
    {
      "place_name": "Fang",
      "postal_code": "50110",
      "country_code": "TH",
      "latitude": 19.9167,
      "longitude": 99.2167,
      "admin_name1": "Chiang Mai"
    },
    {
      "place_name": "Mae Lao",
      "postal_code": "57250",
      "country_code": "TH",
      "latitude": 19.8833,
      "longitude": 99.9167,
      "admin_name1": "Chiang Rai"
    },
    {
      "place_name": "Takhli",
      "postal_code": "60140",
      "country_code": "TH",
      "latitude": 15.6454,
      "longitude": 100.2218,
      "admin_name1": "Nakhon Sawan"
    },
    {
      "place_name": "Wat Bot",
      "postal_code": "65160",
      "country_code": "TH",
      "latitude": 17.0,
      "longitude": 100.3167,
      "admin_name1": "Phitsanulok"
    },
    {
      "place_name": "Damnoen Saduak",
      "postal_code": "70130",
      "country_code": "TH",
      "latitude": 13.5167,
      "longitude": 99.9333,
      "admin_name1": "Ratchaburi"
    },
    {
      "place_name": "Huai Khaiaw",
      "postal_code": "71170",
      "country_code": "TH",
      "latitude": 14.0866,
      "longitude": 99.5509,
      "admin_name1": "Kanchanaburi"
    },
    {
      "place_name": "Don Tum",
      "postal_code": "73150",
      "country_code": "TH",
      "latitude": 13.8667,
      "longitude": 100.1917,
      "admin_name1": "Nakhon Pathom"
    },
    {
      "place_name": "Bung Sam Phan",
      "postal_code": "67160",
      "country_code": "TH",
      "latitude": 15.7833,
      "longitude": 101.0333,
      "admin_name1": "Phetchaburi"
    },
    {
      "place_name": "Kang Krachan",
      "postal_code": "76170",
      "country_code": "TH",
      "latitude": 13.0694,
      "longitude": 100.0528,
      "admin_name1": "Phetchaburi"
    },
    {
      "place_name": "Tha Sala",
      "postal_code": "80160",
      "country_code": "TH",
      "latitude": 8.6667,
      "longitude": 99.9333,
      "admin_name1": "Nakhon Si Thammarat"
    },
    {
      "place_name": "Khlong Thom",
      "postal_code": "81120",
      "country_code": "TH",
      "latitude": 7.9333,
      "longitude": 99.15,
      "admin_name1": "Krabi"
    },
    {
      "place_name": "Koh Yao",
      "postal_code": "82160",
      "country_code": "TH",
      "latitude": 8.6944,
      "longitude": 98.4389,
      "admin_name1": "Phang Nga"
    },
    {
      "place_name": "Tha Chang",
      "postal_code": "84150",
      "country_code": "TH",
      "latitude": 9.1417,
      "longitude": 99.3313,
      "admin_name1": "Surat Thani"
    },
    {
      "place_name": "Lak Si",
      "postal_code": "10210",
      "country_code": "TH",
      "latitude": 14.1833,
      "longitude": 100.2833,
      "admin_name1": "Bangkok"
    },
    {
      "place_name": "Suang Luang",
      "postal_code": "10250",
      "country_code": "TH",
      "latitude": 13.8583,
      "longitude": 100.4688,
      "admin_name1": "Bangkok"
    },
    {
      "place_name": "Pra Vet",
      "postal_code": "10250",
      "country_code": "TH",
      "latitude": 13.8583,
      "longitude": 100.4688,
      "admin_name1": "Bangkok"
    },
    {
      "place_name": "Phra Khanong",
      "postal_code": "10260",
      "country_code": "TH",
      "latitude": 13.7,
      "longitude": 100.6,
      "admin_name1": "Bangkok"
    },
    {
      "place_name": "Bang Phli",
      "postal_code": "10540",
      "country_code": "TH",
      "latitude": 13.6,
      "longitude": 100.7167,
      "admin_name1": "Samut Prakan"
    },
    {
      "place_name": "Pak Hai",
      "postal_code": "13120",
      "country_code": "TH",
      "latitude": 14.3619,
      "longitude": 100.6,
      "admin_name1": "Phra Nakhon Si Ayutthaya"
    },
    {
      "place_name": "Bang Sai",
      "postal_code": "13270",
      "country_code": "TH",
      "latitude": 14.2167,
      "longitude": 100.5,
      "admin_name1": "Phra Nakhon Si Ayutthaya"
    },
    {
      "place_name": "Nong Muang",
      "postal_code": "15170",
      "country_code": "TH",
      "latitude": 15.0216,
      "longitude": 100.7911,
      "admin_name1": "Lopburi"
    },
    {
      "place_name": "Don Phut",
      "postal_code": "18210",
      "country_code": "TH",
      "latitude": 14.5833,
      "longitude": 100.6667,
      "admin_name1": "Saraburi"
    },
    {
      "place_name": "Klaeng",
      "postal_code": "21110",
      "country_code": "TH",
      "latitude": 12.7833,
      "longitude": 101.65,
      "admin_name1": "Rayong"
    },
    {
      "place_name": "Po Tak",
      "postal_code": "43130",
      "country_code": "TH",
      "latitude": 17.9564,
      "longitude": 102.5867,
      "admin_name1": "Nong Khai"
    },
    {
      "place_name": "Na Chuak",
      "postal_code": "44170",
      "country_code": "TH",
      "latitude": 15.7833,
      "longitude": 103.0333,
      "admin_name1": "Maha Sarakham"
    },
    {
      "place_name": "Yang Si Surat",
      "postal_code": "44210",
      "country_code": "TH",
      "latitude": 15.6833,
      "longitude": 103.1,
      "admin_name1": "Maha Sarakham"
    },
    {
      "place_name": "Salaphum",
      "postal_code": "45120",
      "country_code": "TH",
      "latitude": 15.8059,
      "longitude": 103.7251,
      "admin_name1": "Roi Et"
    },
    {
      "place_name": "San Sai",
      "postal_code": "50210",
      "country_code": "TH",
      "latitude": 18.8522,
      "longitude": 99.0453,
      "admin_name1": "Chiang Mai"
    },
    {
      "place_name": "Mae Wang",
      "postal_code": "50360",
      "country_code": "TH",
      "latitude": 19.9167,
      "longitude": 99.2833,
      "admin_name1": "Chiang Mai"
    },
    {
      "place_name": "Li",
      "postal_code": "51110",
      "country_code": "TH",
      "latitude": 17.8,
      "longitude": 98.95,
      "admin_name1": "Lamphun"
    },
    {
      "place_name": "Den Chai",
      "postal_code": "54140",
      "country_code": "TH",
      "latitude": 17.9794,
      "longitude": 100.0533,
      "admin_name1": "Phrae"
    },
    {
      "place_name": "Muang Nakhon Sawan",
      "postal_code": "60000",
      "country_code": "TH",
      "latitude": 15.6833,
      "longitude": 100.1167,
      "admin_name1": "Nakhon Sawan"
    },
    {
      "place_name": "Lat Yao",
      "postal_code": "60150",
      "country_code": "TH",
      "latitude": 15.7506,
      "longitude": 99.7903,
      "admin_name1": "Nakhon Sawan"
    },
    {
      "place_name": "Muang Sukhothai",
      "postal_code": "64000",
      "country_code": "TH",
      "latitude": 17.1772,
      "longitude": 99.8064,
      "admin_name1": "Sukhothai"
    },
    {
      "place_name": "Chom Bung",
      "postal_code": "70150",
      "country_code": "TH",
      "latitude": 13.6167,
      "longitude": 99.6,
      "admin_name1": "Ratchaburi"
    },
    {
      "place_name": "Tha Maka",
      "postal_code": "71120",
      "country_code": "TH",
      "latitude": 13.9,
      "longitude": 99.7667,
      "admin_name1": "Kanchanaburi"
    },
    {
      "place_name": "Bang Len",
      "postal_code": "73130",
      "country_code": "TH",
      "latitude": 14.0167,
      "longitude": 100.1667,
      "admin_name1": "Nakhon Pathom"
    },
    {
      "place_name": "Phra Phrom",
      "postal_code": "80000",
      "country_code": "TH",
      "latitude": 14.65,
      "longitude": 100.6,
      "admin_name1": "Nakhon Si Thammarat"
    },
    {
      "place_name": "Phipun",
      "postal_code": "80270",
      "country_code": "TH",
      "latitude": 8.6,
      "longitude": 99.6333,
      "admin_name1": "Nakhon Si Thammarat"
    },
    {
      "place_name": "Kapoe",
      "postal_code": "85120",
      "country_code": "TH",
      "latitude": 9.5833,
      "longitude": 98.6,
      "admin_name1": "Ranong"
    },
    {
      "place_name": "Wang Wiset",
      "postal_code": "92220",
      "country_code": "TH",
      "latitude": 7.7333,
      "longitude": 99.2833,
      "admin_name1": "Trang"
    },
    {
      "place_name": "Muang Yala",
      "postal_code": "95000",
      "country_code": "TH",
      "latitude": 6.5428,
      "longitude": 101.2836,
      "admin_name1": "Yala"
    },
    {
      "place_name": "Si Sakhon",
      "postal_code": "96210",
      "country_code": "TH",
      "latitude": 6.15,
      "longitude": 101.55,
      "admin_name1": "Narathiwat"
    },
    {
      "place_name": "Chanae",
      "postal_code": "96220",
      "country_code": "TH",
      "latitude": 6.1106,
      "longitude": 101.6897,
      "admin_name1": "Narathiwat"
    },
    {
      "place_name": "Phasi Charoen",
      "postal_code": "10160",
      "country_code": "TH",
      "latitude": 13.7167,
      "longitude": 100.4333,
      "admin_name1": "Bangkok"
    },
    {
      "place_name": "Bang Na",
      "postal_code": "10260",
      "country_code": "TH",
      "latitude": 13.6667,
      "longitude": 100.5833,
      "admin_name1": "Bangkok"
    },
    {
      "place_name": "Tha Wung",
      "postal_code": "15150",
      "country_code": "TH",
      "latitude": 14.8167,
      "longitude": 100.5167,
      "admin_name1": "Lopburi"
    },
    {
      "place_name": "Wattana Nakhon",
      "postal_code": "27160",
      "country_code": "TH",
      "latitude": 13.8442,
      "longitude": 102.6536,
      "admin_name1": "Sa Kaeo"
    },
    {
      "place_name": "Huai Ratch",
      "postal_code": "31000",
      "country_code": "TH",
      "latitude": 13.9167,
      "longitude": 102.0167,
      "admin_name1": "Buri Ram"
    },
    {
      "place_name": "Pak Kam",
      "postal_code": "31220",
      "country_code": "TH",
      "latitude": 14.9625,
      "longitude": 102.5917,
      "admin_name1": "Buri Ram"
    },
    {
      "place_name": "Khong Chiam",
      "postal_code": "34220",
      "country_code": "TH",
      "latitude": 14.2,
      "longitude": 103.6583,
      "admin_name1": "Ubon Ratchathani"
    },
    {
      "place_name": "Nam Khun",
      "postal_code": "34260",
      "country_code": "TH",
      "latitude": 12.9167,
      "longitude": 102.0333,
      "admin_name1": "Ubon Ratchathani"
    },
    {
      "place_name": "Nong Sang",
      "postal_code": "39140",
      "country_code": "TH",
      "latitude": 16.8667,
      "longitude": 102.5667,
      "admin_name1": "Nong Bua Lam Phu"
    },
    {
      "place_name": "Phon",
      "postal_code": "40120",
      "country_code": "TH",
      "latitude": 15.8167,
      "longitude": 102.6,
      "admin_name1": "Khon Kaen"
    },
    {
      "place_name": "Nong Song Hong",
      "postal_code": "40190",
      "country_code": "TH",
      "latitude": 15.7333,
      "longitude": 102.8,
      "admin_name1": "Khon Kaen"
    },
    {
      "place_name": "Akat Amnuai",
      "postal_code": "47170",
      "country_code": "TH",
      "latitude": 17.434,
      "longitude": 103.6615,
      "admin_name1": "Sakon Nakhon"
    },
    {
      "place_name": "Mae Rim",
      "postal_code": "50180",
      "country_code": "TH",
      "latitude": 18.9122,
      "longitude": 98.9397,
      "admin_name1": "Chiang Mai"
    },
    {
      "place_name": "Mae Mo",
      "postal_code": "52220",
      "country_code": "TH",
      "latitude": 18.2611,
      "longitude": 99.7042,
      "admin_name1": "Lampang"
    },
    {
      "place_name": "Muang Uttaradit",
      "postal_code": "53000",
      "country_code": "TH",
      "latitude": 17.7168,
      "longitude": 100.5445,
      "admin_name1": "Uttaradit"
    },
    {
      "place_name": "Muang Phrae",
      "postal_code": "54000",
      "country_code": "TH",
      "latitude": 18.15,
      "longitude": 100.1333,
      "admin_name1": "Phrae"
    },
    {
      "place_name": "Chum Tabong",
      "postal_code": "60150",
      "country_code": "TH",
      "latitude": 15.7506,
      "longitude": 99.7903,
      "admin_name1": "Nakhon Sawan"
    },
    {
      "place_name": "Muang Uthai Thani",
      "postal_code": "61000",
      "country_code": "TH",
      "latitude": 15.3667,
      "longitude": 100.05,
      "admin_name1": "Uthai Thani"
    },
    {
      "place_name": "Lan Krabue",
      "postal_code": "62170",
      "country_code": "TH",
      "latitude": 16.31,
      "longitude": 99.68,
      "admin_name1": "Kamphaeng Phet"
    },
    {
      "place_name": "Pho Prathap Chang",
      "postal_code": "66190",
      "country_code": "TH",
      "latitude": 16.3,
      "longitude": 100.3167,
      "admin_name1": "Phichit"
    },
    {
      "place_name": "U-Thong",
      "postal_code": "72160",
      "country_code": "TH",
      "latitude": 14.576,
      "longitude": 100.0286,
      "admin_name1": "Suphanburi"
    },
    {
      "place_name": "Muang Samut Songkhram",
      "postal_code": "75000",
      "country_code": "TH",
      "latitude": 13.4,
      "longitude": 100.0,
      "admin_name1": "Samut Songkhram"
    },
    {
      "place_name": "Chang Khlang",
      "postal_code": "80250",
      "country_code": "TH",
      "latitude": 8.54,
      "longitude": 99.65,
      "admin_name1": "Nakhon Si Thammarat"
    },
    {
      "place_name": "Muang Surat Thani",
      "postal_code": "84000",
      "country_code": "TH",
      "latitude": 9.1308,
      "longitude": 99.3628,
      "admin_name1": "Surat Thani"
    },
    {
      "place_name": "Sa Dao",
      "postal_code": "90120",
      "country_code": "TH",
      "latitude": 7.0694,
      "longitude": 100.6,
      "admin_name1": "Songkhla"
    },
    {
      "place_name": "Kantang",
      "postal_code": "92110",
      "country_code": "TH",
      "latitude": 7.4167,
      "longitude": 99.5167,
      "admin_name1": "Trang"
    },
    {
      "place_name": "Sikao",
      "postal_code": "92150",
      "country_code": "TH",
      "latitude": 7.5667,
      "longitude": 99.35,
      "admin_name1": "Trang"
    },
    {
      "place_name": "Nong Chik",
      "postal_code": "94170",
      "country_code": "TH",
      "latitude": 6.8453,
      "longitude": 101.1881,
      "admin_name1": "Pattani"
    },
    {
      "place_name": "Bung Kum",
      "postal_code": "10240",
      "country_code": "TH",
      "latitude": 13.7667,
      "longitude": 100.65,
      "admin_name1": "Bangkok"
    },
    {
      "place_name": "Tha Mai",
      "postal_code": "22120",
      "country_code": "TH",
      "latitude": 12.6167,
      "longitude": 102.0167,
      "admin_name1": "Chanthaburi"
    },
    {
      "place_name": "Na Di",
      "postal_code": "25220",
      "country_code": "TH",
      "latitude": 14.1333,
      "longitude": 101.7333,
      "admin_name1": "Prachin Buri"
    },
    {
      "place_name": "Kut Khaopun",
      "postal_code": "34270",
      "country_code": "TH",
      "latitude": 14.2,
      "longitude": 103.6583,
      "admin_name1": "Ubon Ratchathani"
    },
    {
      "place_name": "Loeng Nok Tha",
      "postal_code": "35120",
      "country_code": "TH",
      "latitude": 15.6633,
      "longitude": 104.3067,
      "admin_name1": "Yasothon"
    },
    {
      "place_name": "Kud Chum",
      "postal_code": "35140",
      "country_code": "TH",
      "latitude": 15.6633,
      "longitude": 104.3067,
      "admin_name1": "Yasothon"
    },
    {
      "place_name": "Hua Taphan",
      "postal_code": "37240",
      "country_code": "TH",
      "latitude": 15.7167,
      "longitude": 104.4667,
      "admin_name1": "Amnat Charoen"
    },
    {
      "place_name": "Nawang",
      "postal_code": "39170",
      "country_code": "TH",
      "latitude": 17.2894,
      "longitude": 102.2133,
      "admin_name1": "Nong Bua Lam Phu"
    },
    {
      "place_name": "Kranuan",
      "postal_code": "40170",
      "country_code": "TH",
      "latitude": 16.7,
      "longitude": 103.0833,
      "admin_name1": "Khon Kaen"
    },
    {
      "place_name": "Thung Fon",
      "postal_code": "41310",
      "country_code": "TH",
      "latitude": 17.1336,
      "longitude": 102.9675,
      "admin_name1": "Udon Thani"
    },
    {
      "place_name": "Bung Kan",
      "postal_code": "43140",
      "country_code": "TH",
      "latitude": 18.3833,
      "longitude": 103.6167,
      "admin_name1": "Nong Khai"
    },
    {
      "place_name": "Nikhom Kham Soi",
      "postal_code": "49130",
      "country_code": "TH",
      "latitude": 16.3667,
      "longitude": 104.5667,
      "admin_name1": "Mukdahan"
    },
    {
      "place_name": "Don Luang",
      "postal_code": "49140",
      "country_code": "TH",
      "latitude": 16.4792,
      "longitude": 104.6583,
      "admin_name1": "Mukdahan"
    },
    {
      "place_name": "San Kamphaeng",
      "postal_code": "50130",
      "country_code": "TH",
      "latitude": 18.7422,
      "longitude": 99.1225,
      "admin_name1": "Chiang Mai"
    },
    {
      "place_name": "Hot",
      "postal_code": "50240",
      "country_code": "TH",
      "latitude": 18.19,
      "longitude": 98.6089,
      "admin_name1": "Chiang Mai"
    },
    {
      "place_name": "Nam Pat",
      "postal_code": "53110",
      "country_code": "TH",
      "latitude": 17.7333,
      "longitude": 100.5667,
      "admin_name1": "Uttaradit"
    },
    {
      "place_name": "Muang Nan",
      "postal_code": "55000",
      "country_code": "TH",
      "latitude": 18.7833,
      "longitude": 100.7833,
      "admin_name1": "Nan"
    },
    {
      "place_name": "Mae Suai",
      "postal_code": "57180",
      "country_code": "TH",
      "latitude": 19.65,
      "longitude": 99.55,
      "admin_name1": "Chiang Rai"
    },
    {
      "place_name": "Sai Ngam",
      "postal_code": "62150",
      "country_code": "TH",
      "latitude": 16.5,
      "longitude": 99.9167,
      "admin_name1": "Kamphaeng Phet"
    },
    {
      "place_name": "Sam Ngam",
      "postal_code": "66140",
      "country_code": "TH",
      "latitude": 16.5167,
      "longitude": 100.2167,
      "admin_name1": "Phichit"
    },
    {
      "place_name": "Sam Chuk",
      "postal_code": "72130",
      "country_code": "TH",
      "latitude": 14.75,
      "longitude": 100.1,
      "admin_name1": "Suphanburi"
    },
    {
      "place_name": "Khao Yoi",
      "postal_code": "76140",
      "country_code": "TH",
      "latitude": 13.2333,
      "longitude": 99.8333,
      "admin_name1": "Phetchaburi"
    },
    {
      "place_name": "Huai Yot",
      "postal_code": "92130",
      "country_code": "TH",
      "latitude": 7.75,
      "longitude": 99.6167,
      "admin_name1": "Trang"
    },
    {
      "place_name": "Panare",
      "postal_code": "94130",
      "country_code": "TH",
      "latitude": 6.86,
      "longitude": 101.4903,
      "admin_name1": "Pattani"
    },
    {
      "place_name": "Sukhirin",
      "postal_code": "96190",
      "country_code": "TH",
      "latitude": 5.9333,
      "longitude": 101.7833,
      "admin_name1": "Narathiwat"
    },
    {
      "place_name": "Bang Saotong",
      "postal_code": "10540",
      "country_code": "TH",
      "latitude": 13.6,
      "longitude": 100.7167,
      "admin_name1": "Samut Prakan"
    },
    {
      "place_name": "Khlong Luang",
      "postal_code": "12120",
      "country_code": "TH",
      "latitude": 14.0667,
      "longitude": 100.65,
      "admin_name1": "Pathum Thani"
    },
    {
      "place_name": "Ban Mi",
      "postal_code": "15110",
      "country_code": "TH",
      "latitude": 15.0436,
      "longitude": 100.5661,
      "admin_name1": "Lopburi"
    },
    {
      "place_name": "Nong Khae",
      "postal_code": "18140",
      "country_code": "TH",
      "latitude": 14.3333,
      "longitude": 100.8667,
      "admin_name1": "Saraburi"
    },
    {
      "place_name": "Ban Kruat",
      "postal_code": "31180",
      "country_code": "TH",
      "latitude": 15.0128,
      "longitude": 103.0967,
      "admin_name1": "Buri Ram"
    },
    {
      "place_name": "Kho Wang",
      "postal_code": "35160",
      "country_code": "TH",
      "latitude": 15.35,
      "longitude": 104.3667,
      "admin_name1": "Yasothon"
    },
    {
      "place_name": "Non Sang",
      "postal_code": "39140",
      "country_code": "TH",
      "latitude": 16.8667,
      "longitude": 102.5667,
      "admin_name1": "Nong Bua Lam Phu"
    },
    {
      "place_name": "Suwannakhuha",
      "postal_code": "39270",
      "country_code": "TH",
      "latitude": 17.0409,
      "longitude": 102.3544,
      "admin_name1": "Nong Bua Lam Phu"
    },
    {
      "place_name": "Fao Rai",
      "postal_code": "43120",
      "country_code": "TH",
      "latitude": 18.0167,
      "longitude": 103.2833,
      "admin_name1": "Nong Khai"
    },
    {
      "place_name": "Tha Khantho",
      "postal_code": "46190",
      "country_code": "TH",
      "latitude": 16.95,
      "longitude": 103.2333,
      "admin_name1": "Kalasin"
    },
    {
      "place_name": "Tha Uthen",
      "postal_code": "48120",
      "country_code": "TH",
      "latitude": 17.5667,
      "longitude": 104.6,
      "admin_name1": "Nakhon Phanom"
    },
    {
      "place_name": "Ban Thi",
      "postal_code": "51180",
      "country_code": "TH",
      "latitude": 18.2201,
      "longitude": 98.9751,
      "admin_name1": "Lamphun"
    },
    {
      "place_name": "Tha Wang Pha",
      "postal_code": "55140",
      "country_code": "TH",
      "latitude": 19.1,
      "longitude": 100.8167,
      "admin_name1": "Nan"
    },
    {
      "place_name": "Chiang Klang",
      "postal_code": "55160",
      "country_code": "TH",
      "latitude": 19.3,
      "longitude": 100.8667,
      "admin_name1": "Nan"
    },
    {
      "place_name": "Ban Luang",
      "postal_code": "55190",
      "country_code": "TH",
      "latitude": 18.8333,
      "longitude": 100.45,
      "admin_name1": "Nan"
    },
    {
      "place_name": "Chun",
      "postal_code": "56150",
      "country_code": "TH",
      "latitude": 19.3,
      "longitude": 100.1667,
      "admin_name1": "Phayao"
    },
    {
      "place_name": "Sawankhalok",
      "postal_code": "64110",
      "country_code": "TH",
      "latitude": 17.3086,
      "longitude": 99.8342,
      "admin_name1": "Sukhothai"
    },
    {
      "place_name": "Khao Kho",
      "postal_code": "67270",
      "country_code": "TH",
      "latitude": 16.6667,
      "longitude": 100.9667,
      "admin_name1": "Phetchaburi"
    },
    {
      "place_name": "Na Bon",
      "postal_code": "80220",
      "country_code": "TH",
      "latitude": 8.25,
      "longitude": 99.5833,
      "admin_name1": "Nakhon Si Thammarat"
    },
    {
      "place_name": "Tha Chana",
      "postal_code": "84170",
      "country_code": "TH",
      "latitude": 9.5667,
      "longitude": 99.15,
      "admin_name1": "Surat Thani"
    },
    {
      "place_name": "Rachada",
      "postal_code": "92160",
      "country_code": "TH",
      "latitude": 7.5267,
      "longitude": 99.5933,
      "admin_name1": "Trang"
    },
    {
      "place_name": "Pa Payam",
      "postal_code": "93110",
      "country_code": "TH",
      "latitude": 7.7333,
      "longitude": 100.0167,
      "admin_name1": "Phatthalung"
    },
    {
      "place_name": "Sai Buri",
      "postal_code": "94110",
      "country_code": "TH",
      "latitude": 6.7031,
      "longitude": 101.6203,
      "admin_name1": "Pattani"
    },
    {
      "place_name": "Kpho",
      "postal_code": "94230",
      "country_code": "TH",
      "latitude": 6.6078,
      "longitude": 101.6667,
      "admin_name1": "Pattani"
    },
    {
      "place_name": "Kung Pinung",
      "postal_code": "95000",
      "country_code": "TH",
      "latitude": 6.5428,
      "longitude": 101.2836,
      "admin_name1": "Yala"
    },
    {
      "place_name": "Lat Phrao",
      "postal_code": "10230",
      "country_code": "TH",
      "latitude": 14.3333,
      "longitude": 99.9167,
      "admin_name1": "Bangkok"
    },
    {
      "place_name": "Ding Daeng",
      "postal_code": "10400",
      "country_code": "TH",
      "latitude": 13.7625,
      "longitude": 100.531,
      "admin_name1": "Bangkok"
    },
    {
      "place_name": "Bang Bua Thong",
      "postal_code": "11110",
      "country_code": "TH",
      "latitude": 13.9167,
      "longitude": 100.4333,
      "admin_name1": "Nonthaburi"
    },
    {
      "place_name": "Chaiyo",
      "postal_code": "14140",
      "country_code": "TH",
      "latitude": 14.65,
      "longitude": 100.4667,
      "admin_name1": "Ang Thong"
    },
    {
      "place_name": "Chai Badan",
      "postal_code": "15130",
      "country_code": "TH",
      "latitude": 15.2,
      "longitude": 101.1333,
      "admin_name1": "Lopburi"
    },
    {
      "place_name": "Wang Muang",
      "postal_code": "18220",
      "country_code": "TH",
      "latitude": 14.7167,
      "longitude": 101.0833,
      "admin_name1": "Saraburi"
    },
    {
      "place_name": "Phanat Nikhom",
      "postal_code": "20140",
      "country_code": "TH",
      "latitude": 13.45,
      "longitude": 101.1833,
      "admin_name1": "Chon Buri"
    },
    {
      "place_name": "Wang Sombun",
      "postal_code": "27250",
      "country_code": "TH",
      "latitude": 13.8442,
      "longitude": 102.6536,
      "admin_name1": "Sa Kaeo"
    },
    {
      "place_name": "Muang Nakhon Ratchasima",
      "postal_code": "30000",
      "country_code": "TH",
      "latitude": 15.0555,
      "longitude": 102.2148,
      "admin_name1": "Nakhon Ratchasima"
    },
    {
      "place_name": "Chok Chai",
      "postal_code": "30190",
      "country_code": "TH",
      "latitude": 14.7333,
      "longitude": 102.1667,
      "admin_name1": "Nakhon Ratchasima"
    },
    {
      "place_name": "Phutthaisong",
      "postal_code": "31120",
      "country_code": "TH",
      "latitude": 15.4167,
      "longitude": 102.9,
      "admin_name1": "Buri Ram"
    },
    {
      "place_name": "Trakan Puetphon",
      "postal_code": "34130",
      "country_code": "TH",
      "latitude": 15.6417,
      "longitude": 105.225,
      "admin_name1": "Ubon Ratchathani"
    },
    {
      "place_name": "Chaturat",
      "postal_code": "36130",
      "country_code": "TH",
      "latitude": 15.5647,
      "longitude": 101.8414,
      "admin_name1": "Chaiyaphum"
    },
    {
      "place_name": "Sum Sung",
      "postal_code": "40170",
      "country_code": "TH",
      "latitude": 16.7,
      "longitude": 103.0833,
      "admin_name1": "Khon Kaen"
    },
    {
      "place_name": "Khao Suan Kwang",
      "postal_code": "40280",
      "country_code": "TH",
      "latitude": 16.85,
      "longitude": 102.8833,
      "admin_name1": "Khon Kaen"
    },
    {
      "place_name": "Sang Khom",
      "postal_code": "41260",
      "country_code": "TH",
      "latitude": 17.1336,
      "longitude": 102.9675,
      "admin_name1": "Udon Thani"
    },
    {
      "place_name": "Bung Kla",
      "postal_code": "43140",
      "country_code": "TH",
      "latitude": 18.3833,
      "longitude": 103.6167,
      "admin_name1": "Nong Khai"
    },
    {
      "place_name": "Suwannaphum",
      "postal_code": "45130",
      "country_code": "TH",
      "latitude": 15.6047,
      "longitude": 103.8075,
      "admin_name1": "Roi Et"
    },
    {
      "place_name": "Muang Sakon Nakhon",
      "postal_code": "47000",
      "country_code": "TH",
      "latitude": 17.4046,
      "longitude": 103.7674,
      "admin_name1": "Sakon Nakhon"
    },
    {
      "place_name": "Na Wa",
      "postal_code": "48180",
      "country_code": "TH",
      "latitude": 17.4833,
      "longitude": 104.1,
      "admin_name1": "Nakhon Phanom"
    },
    {
      "place_name": "Doi Tao",
      "postal_code": "50260",
      "country_code": "TH",
      "latitude": 17.9,
      "longitude": 98.7333,
      "admin_name1": "Chiang Mai"
    },
    {
      "place_name": "Song",
      "postal_code": "54120",
      "country_code": "TH",
      "latitude": 18.4667,
      "longitude": 100.1833,
      "admin_name1": "Phrae"
    },
    {
      "place_name": "Thap Than",
      "postal_code": "61120",
      "country_code": "TH",
      "latitude": 15.4594,
      "longitude": 99.8925,
      "admin_name1": "Uthai Thani"
    },
    {
      "place_name": "Phrom Phiram",
      "postal_code": "65150",
      "country_code": "TH",
      "latitude": 17.0331,
      "longitude": 100.2019,
      "admin_name1": "Phitsanulok"
    },
    {
      "place_name": "Bang Mun Nak",
      "postal_code": "66120",
      "country_code": "TH",
      "latitude": 16.0333,
      "longitude": 100.3833,
      "admin_name1": "Phichit"
    },
    {
      "place_name": "Nong Prue",
      "postal_code": "71220",
      "country_code": "TH",
      "latitude": 14.4806,
      "longitude": 99.2194,
      "admin_name1": "Kanchanaburi"
    },
    {
      "place_name": "Muang Suphan Buri",
      "postal_code": "72000",
      "country_code": "TH",
      "latitude": 14.576,
      "longitude": 100.0286,
      "admin_name1": "Suphanburi"
    },
    {
      "place_name": "Phutha Monthon",
      "postal_code": "73170",
      "country_code": "TH",
      "latitude": 13.8667,
      "longitude": 100.1917,
      "admin_name1": "Nakhon Pathom"
    },
    {
      "place_name": "Bang Khonthi",
      "postal_code": "75120",
      "country_code": "TH",
      "latitude": 13.4667,
      "longitude": 99.9333,
      "admin_name1": "Samut Songkhram"
    },
    {
      "place_name": "Takua Pa",
      "postal_code": "82110",
      "country_code": "TH",
      "latitude": 8.8333,
      "longitude": 98.3667,
      "admin_name1": "Phang Nga"
    },
    {
      "place_name": "Muang Chumphon",
      "postal_code": "86000",
      "country_code": "TH",
      "latitude": 10.1905,
      "longitude": 99.0905,
      "admin_name1": "Chumphon"
    },
    {
      "place_name": "Pathiu",
      "postal_code": "86160",
      "country_code": "TH",
      "latitude": 10.7,
      "longitude": 99.3167,
      "admin_name1": "Chumphon"
    },
    {
      "place_name": "Phato",
      "postal_code": "86180",
      "country_code": "TH",
      "latitude": 9.8,
      "longitude": 98.8,
      "admin_name1": "Chumphon"
    },
    {
      "place_name": "Langu",
      "postal_code": "91110",
      "country_code": "TH",
      "latitude": 6.8833,
      "longitude": 99.7833,
      "admin_name1": "Satun"
    },
    {
      "place_name": "Khok Pho",
      "postal_code": "94120",
      "country_code": "TH",
      "latitude": 6.7314,
      "longitude": 101.1053,
      "admin_name1": "Pattani"
    },
    {
      "place_name": "Thawi Wattana",
      "postal_code": "10170",
      "country_code": "TH",
      "latitude": 13.7667,
      "longitude": 100.45,
      "admin_name1": "Bangkok"
    },
    {
      "place_name": "Wang Noi",
      "postal_code": "13170",
      "country_code": "TH",
      "latitude": 14.2167,
      "longitude": 100.7333,
      "admin_name1": "Phra Nakhon Si Ayutthaya"
    },
    {
      "place_name": "Lat Bua Luang",
      "postal_code": "13230",
      "country_code": "TH",
      "latitude": 14.1667,
      "longitude": 100.3167,
      "admin_name1": "Phra Nakhon Si Ayutthaya"
    },
    {
      "place_name": "Tha Luang",
      "postal_code": "15130",
      "country_code": "TH",
      "latitude": 14.9833,
      "longitude": 101.0167,
      "admin_name1": "Lopburi"
    },
    {
      "place_name": "Sanphaya",
      "postal_code": "17150",
      "country_code": "TH",
      "latitude": 15.1333,
      "longitude": 100.25,
      "admin_name1": "Chai Nat"
    },
    {
      "place_name": "Muang Chonburi",
      "postal_code": "20000",
      "country_code": "TH",
      "latitude": 13.1604,
      "longitude": 101.1083,
      "admin_name1": "Chon Buri"
    },
    {
      "place_name": "Bang Lamung",
      "postal_code": "20150",
      "country_code": "TH",
      "latitude": 13.05,
      "longitude": 100.9333,
      "admin_name1": "Chon Buri"
    },
    {
      "place_name": "Bo Rai",
      "postal_code": "23140",
      "country_code": "TH",
      "latitude": 12.5692,
      "longitude": 102.5272,
      "admin_name1": "Trat"
    },
    {
      "place_name": "Phanom Sarakham",
      "postal_code": "24120",
      "country_code": "TH",
      "latitude": 13.75,
      "longitude": 101.35,
      "admin_name1": "Chachoengsao"
    },
    {
      "place_name": "Muang Nakhon Nayok",
      "postal_code": "26000",
      "country_code": "TH",
      "latitude": 14.2031,
      "longitude": 101.2147,
      "admin_name1": "Nakhon Nayok"
    },
    {
      "place_name": "Lahan Sai",
      "postal_code": "31170",
      "country_code": "TH",
      "latitude": 14.4167,
      "longitude": 102.8667,
      "admin_name1": "Buri Ram"
    },
    {
      "place_name": "Bung Bun",
      "postal_code": "33220",
      "country_code": "TH",
      "latitude": 15.3214,
      "longitude": 104.0572,
      "admin_name1": "Si Sa Ket"
    },
    {
      "place_name": "Khuang Nai",
      "postal_code": "34150",
      "country_code": "TH",
      "latitude": 15.6417,
      "longitude": 105.225,
      "admin_name1": "Ubon Ratchathani"
    },
    {
      "place_name": "Kham Khuan Kaeo",
      "postal_code": "35110",
      "country_code": "TH",
      "latitude": 15.65,
      "longitude": 104.3167,
      "admin_name1": "Yasothon"
    },
    {
      "place_name": "Noen Sa Nga",
      "postal_code": "36130",
      "country_code": "TH",
      "latitude": 15.5647,
      "longitude": 101.8414,
      "admin_name1": "Chaiyaphum"
    },
    {
      "place_name": "Ban Thaen",
      "postal_code": "36190",
      "country_code": "TH",
      "latitude": 16.4,
      "longitude": 102.3333,
      "admin_name1": "Chaiyaphum"
    },
    {
      "place_name": "Chanunman",
      "postal_code": "37210",
      "country_code": "TH",
      "latitude": 15.7167,
      "longitude": 104.4667,
      "admin_name1": "Amnat Charoen"
    },
    {
      "place_name": "Nam Phong",
      "postal_code": "40140",
      "country_code": "TH",
      "latitude": 16.7,
      "longitude": 102.8667,
      "admin_name1": "Khon Kaen"
    },
    {
      "place_name": "Si That",
      "postal_code": "41230",
      "country_code": "TH",
      "latitude": 17.1336,
      "longitude": 102.9675,
      "admin_name1": "Udon Thani"
    },
    {
      "place_name": "Chang Han",
      "postal_code": "45000",
      "country_code": "TH",
      "latitude": 16.7167,
      "longitude": 102.7333,
      "admin_name1": "Roi Et"
    },
    {
      "place_name": "Sahatsakhan",
      "postal_code": "46140",
      "country_code": "TH",
      "latitude": 16.7833,
      "longitude": 103.5833,
      "admin_name1": "Kalasin"
    },
    {
      "place_name": "Kham Muang",
      "postal_code": "46180",
      "country_code": "TH",
      "latitude": 16.9167,
      "longitude": 103.6333,
      "admin_name1": "Kalasin"
    },
    {
      "place_name": "Na Mon",
      "postal_code": "46230",
      "country_code": "TH",
      "latitude": 16.5667,
      "longitude": 103.8,
      "admin_name1": "Kalasin"
    },
    {
      "place_name": "Saraphi",
      "postal_code": "50140",
      "country_code": "TH",
      "latitude": 18.7142,
      "longitude": 99.0353,
      "admin_name1": "Chiang Mai"
    },
    {
      "place_name": "Chom Thong",
      "postal_code": "50160",
      "country_code": "TH",
      "latitude": 18.4269,
      "longitude": 98.6781,
      "admin_name1": "Chiang Mai"
    },
    {
      "place_name": "Ngao",
      "postal_code": "52110",
      "country_code": "TH",
      "latitude": 18.7575,
      "longitude": 99.9783,
      "admin_name1": "Lampang"
    },
    {
      "place_name": "Wiang Chai",
      "postal_code": "57210",
      "country_code": "TH",
      "latitude": 19.8833,
      "longitude": 99.9167,
      "admin_name1": "Chiang Rai"
    },
    {
      "place_name": "Ban Dan Lan Hoi",
      "postal_code": "64140",
      "country_code": "TH",
      "latitude": 17.0153,
      "longitude": 99.7078,
      "admin_name1": "Sukhothai"
    },
    {
      "place_name": "Suan Phung",
      "postal_code": "70180",
      "country_code": "TH",
      "latitude": 13.5167,
      "longitude": 99.35,
      "admin_name1": "Ratchaburi"
    },
    {
      "place_name": "Thong Phaphum",
      "postal_code": "71180",
      "country_code": "TH",
      "latitude": 14.0866,
      "longitude": 99.5509,
      "admin_name1": "Kanchanaburi"
    },
    {
      "place_name": "Doembang Nangbuat",
      "postal_code": "72120",
      "country_code": "TH",
      "latitude": 14.576,
      "longitude": 100.0286,
      "admin_name1": "Suphanburi"
    },
    {
      "place_name": "Sichon",
      "postal_code": "80120",
      "country_code": "TH",
      "latitude": 9.0,
      "longitude": 99.9,
      "admin_name1": "Nakhon Si Thammarat"
    },
    {
      "place_name": "Nua Khlong",
      "postal_code": "81130",
      "country_code": "TH",
      "latitude": 8.0667,
      "longitude": 99.0,
      "admin_name1": "Krabi"
    },
    {
      "place_name": "Chai Buri",
      "postal_code": "84210",
      "country_code": "TH",
      "latitude": 9.1133,
      "longitude": 99.4133,
      "admin_name1": "Surat Thani"
    },
    {
      "place_name": "Ban Ta Khun",
      "postal_code": "84230",
      "country_code": "TH",
      "latitude": 9.1133,
      "longitude": 99.4133,
      "admin_name1": "Surat Thani"
    },
    {
      "place_name": "Ka Bung",
      "postal_code": "95120",
      "country_code": "TH",
      "latitude": 6.4778,
      "longitude": 101.135,
      "admin_name1": "Yala"
    },
    {
      "place_name": "Bannang Sata",
      "postal_code": "95130",
      "country_code": "TH",
      "latitude": 6.2667,
      "longitude": 101.2667,
      "admin_name1": "Yala"
    },
    {
      "place_name": "Sungai Padi",
      "postal_code": "96140",
      "country_code": "TH",
      "latitude": 6.15,
      "longitude": 101.9,
      "admin_name1": "Narathiwat"
    },
    {
      "place_name": "Huai Khwang",
      "postal_code": "10320",
      "country_code": "TH",
      "latitude": 13.7833,
      "longitude": 100.5167,
      "admin_name1": "Bangkok"
    },
    {
      "place_name": "Pahtum Wan",
      "postal_code": "10330",
      "country_code": "TH",
      "latitude": 13.7833,
      "longitude": 100.5167,
      "admin_name1": "Bangkok"
    },
    {
      "place_name": "Min Buri",
      "postal_code": "10510",
      "country_code": "TH",
      "latitude": 13.8167,
      "longitude": 100.75,
      "admin_name1": "Bangkok"
    },
    {
      "place_name": "Lat Lum Kaeo",
      "postal_code": "12140",
      "country_code": "TH",
      "latitude": 14.0333,
      "longitude": 100.4167,
      "admin_name1": "Pathum Thani"
    },
    {
      "place_name": "Phra Phutthabat",
      "postal_code": "18120",
      "country_code": "TH",
      "latitude": 14.7167,
      "longitude": 100.8,
      "admin_name1": "Saraburi"
    },
    {
      "place_name": "Ban Pho",
      "postal_code": "24140",
      "country_code": "TH",
      "latitude": 13.6,
      "longitude": 101.0833,
      "admin_name1": "Chachoengsao"
    },
    {
      "place_name": "Sung Noen",
      "postal_code": "30170",
      "country_code": "TH",
      "latitude": 14.8989,
      "longitude": 101.8139,
      "admin_name1": "Nakhon Ratchasima"
    },
    {
      "place_name": "Ban Luam",
      "postal_code": "30350",
      "country_code": "TH",
      "latitude": 15.5833,
      "longitude": 102.15,
      "admin_name1": "Nakhon Ratchasima"
    },
    {
      "place_name": "Ban Phlapphla",
      "postal_code": "31250",
      "country_code": "TH",
      "latitude": 14.7167,
      "longitude": 102.15,
      "admin_name1": "Buri Ram"
    },
    {
      "place_name": "Non Dindaeng",
      "postal_code": "31260",
      "country_code": "TH",
      "latitude": 14.9625,
      "longitude": 102.5917,
      "admin_name1": "Buri Ram"
    },
    {
      "place_name": "Si Rattana",
      "postal_code": "33240",
      "country_code": "TH",
      "latitude": 14.7333,
      "longitude": 104.5833,
      "admin_name1": "Si Sa Ket"
    },
    {
      "place_name": "Muang Samsib",
      "postal_code": "34140",
      "country_code": "TH",
      "latitude": 15.6417,
      "longitude": 105.225,
      "admin_name1": "Ubon Ratchathani"
    },
    {
      "place_name": "Si Muang Mai",
      "postal_code": "34250",
      "country_code": "TH",
      "latitude": 15.4833,
      "longitude": 105.2833,
      "admin_name1": "Ubon Ratchathani"
    },
    {
      "place_name": "Phathumratvongsa",
      "postal_code": "37110",
      "country_code": "TH",
      "latitude": 15.6983,
      "longitude": 104.8928,
      "admin_name1": "Amnat Charoen"
    },
    {
      "place_name": "Ban Dung",
      "postal_code": "41190",
      "country_code": "TH",
      "latitude": 17.1336,
      "longitude": 102.9675,
      "admin_name1": "Udon Thani"
    },
    {
      "place_name": "Chaiwan",
      "postal_code": "41290",
      "country_code": "TH",
      "latitude": 17.1336,
      "longitude": 102.9675,
      "admin_name1": "Udon Thani"
    },
    {
      "place_name": "Rattana Wapi",
      "postal_code": "43120",
      "country_code": "TH",
      "latitude": 18.0167,
      "longitude": 103.1833,
      "admin_name1": "Nong Khai"
    },
    {
      "place_name": "Muang Lamphun",
      "postal_code": "51000",
      "country_code": "TH",
      "latitude": 18.5811,
      "longitude": 99.0092,
      "admin_name1": "Lamphun"
    },
    {
      "place_name": "Fak Tha",
      "postal_code": "53160",
      "country_code": "TH",
      "latitude": 17.9833,
      "longitude": 100.8833,
      "admin_name1": "Uttaradit"
    },
    {
      "place_name": "Mae Pha Luang",
      "postal_code": "57110",
      "country_code": "TH",
      "latitude": 20.2236,
      "longitude": 100.0936,
      "admin_name1": "Chiang Rai"
    },
    {
      "place_name": "Phan",
      "postal_code": "57120",
      "country_code": "TH",
      "latitude": 19.5667,
      "longitude": 99.7333,
      "admin_name1": "Chiang Rai"
    },
    {
      "place_name": "Krok Phra",
      "postal_code": "60170",
      "country_code": "TH",
      "latitude": 15.55,
      "longitude": 100.0833,
      "admin_name1": "Nakhon Sawan"
    },
    {
      "place_name": "Muang Tak",
      "postal_code": "63000",
      "country_code": "TH",
      "latitude": 16.8667,
      "longitude": 99.1333,
      "admin_name1": "Tak"
    },
    {
      "place_name": "Mae Sot",
      "postal_code": "63110",
      "country_code": "TH",
      "latitude": 16.7167,
      "longitude": 98.5667,
      "admin_name1": "Tak"
    },
    {
      "place_name": "Bang Krathum",
      "postal_code": "65110",
      "country_code": "TH",
      "latitude": 16.5667,
      "longitude": 100.3,
      "admin_name1": "Phitsanulok"
    },
    {
      "place_name": "Muang Phetchaburi",
      "postal_code": "76000",
      "country_code": "TH",
      "latitude": 13.0694,
      "longitude": 100.0528,
      "admin_name1": "Phetchaburi"
    },
    {
      "place_name": "Kui Buri",
      "postal_code": "77150",
      "country_code": "TH",
      "latitude": 12.05,
      "longitude": 99.8667,
      "admin_name1": "Prachuap Khiri Khan"
    },
    {
      "place_name": "Thung Song",
      "postal_code": "80110",
      "country_code": "TH",
      "latitude": 8.15,
      "longitude": 99.7333,
      "admin_name1": "Nakhon Si Thammarat"
    },
    {
      "place_name": "Ao Luk",
      "postal_code": "81110",
      "country_code": "TH",
      "latitude": 8.3833,
      "longitude": 98.7167,
      "admin_name1": "Krabi"
    },
    {
      "place_name": "Khao Phanom",
      "postal_code": "81140",
      "country_code": "TH",
      "latitude": 8.25,
      "longitude": 99.0333,
      "admin_name1": "Krabi"
    },
    {
      "place_name": "Ko Samui",
      "postal_code": "84140",
      "country_code": "TH",
      "latitude": 9.4333,
      "longitude": 99.9667,
      "admin_name1": "Surat Thani"
    },
    {
      "place_name": "Don Sak",
      "postal_code": "84220",
      "country_code": "TH",
      "latitude": 9.3,
      "longitude": 99.6833,
      "admin_name1": "Surat Thani"
    },
    {
      "place_name": "Singha Nakorn",
      "postal_code": "90330",
      "country_code": "TH",
      "latitude": 7.0167,
      "longitude": 100.6619,
      "admin_name1": "Songkhla"
    },
    {
      "place_name": "Thung Wa",
      "postal_code": "91120",
      "country_code": "TH",
      "latitude": 7.1,
      "longitude": 99.7667,
      "admin_name1": "Satun"
    },
    {
      "place_name": "Ban Phraek",
      "postal_code": "13240",
      "country_code": "TH",
      "latitude": 14.6333,
      "longitude": 100.5667,
      "admin_name1": "Phra Nakhon Si Ayutthaya"
    },
    {
      "place_name": "Nikhom Pattana",
      "postal_code": "21180",
      "country_code": "TH",
      "latitude": 12.8125,
      "longitude": 101.3083,
      "admin_name1": "Rayong"
    },
    {
      "place_name": "Kabin Buri",
      "postal_code": "25110",
      "country_code": "TH",
      "latitude": 13.9833,
      "longitude": 101.7167,
      "admin_name1": "Prachin Buri"
    },
    {
      "place_name": "Cheleam Phakiat",
      "postal_code": "30230",
      "country_code": "TH",
      "latitude": 15.0,
      "longitude": 102.2667,
      "admin_name1": "Nakhon Ratchasima"
    },
    {
      "place_name": "Chaloem Phrakhiat",
      "postal_code": "31110",
      "country_code": "TH",
      "latitude": 14.6083,
      "longitude": 102.6917,
      "admin_name1": "Buri Ram"
    },
    {
      "place_name": "Yang Chum Noi",
      "postal_code": "33190",
      "country_code": "TH",
      "latitude": 15.2667,
      "longitude": 104.35,
      "admin_name1": "Si Sa Ket"
    },
    {
      "place_name": "Wang Hin",
      "postal_code": "33270",
      "country_code": "TH",
      "latitude": 14.8833,
      "longitude": 104.2833,
      "admin_name1": "Si Sa Ket"
    },
    {
      "place_name": "Sub Yai",
      "postal_code": "36130",
      "country_code": "TH",
      "latitude": 15.5647,
      "longitude": 101.8414,
      "admin_name1": "Chaiyaphum"
    },
    {
      "place_name": "Puai Noi",
      "postal_code": "40340",
      "country_code": "TH",
      "latitude": 15.8833,
      "longitude": 102.9167,
      "admin_name1": "Khon Kaen"
    },
    {
      "place_name": "Phon Phisai",
      "postal_code": "43120",
      "country_code": "TH",
      "latitude": 18.0167,
      "longitude": 103.0833,
      "admin_name1": "Nong Khai"
    },
    {
      "place_name": "Muang Suang",
      "postal_code": "45220",
      "country_code": "TH",
      "latitude": 15.8167,
      "longitude": 103.7167,
      "admin_name1": "Roi Et"
    },
    {
      "place_name": "Doi Lor",
      "postal_code": "50160",
      "country_code": "TH",
      "latitude": 18.4269,
      "longitude": 98.6781,
      "admin_name1": "Chiang Mai"
    },
    {
      "place_name": "Chumsaeng",
      "postal_code": "60120",
      "country_code": "TH",
      "latitude": 15.6454,
      "longitude": 100.2218,
      "admin_name1": "Nakhon Sawan"
    },
    {
      "place_name": "Nong Chang",
      "postal_code": "61110",
      "country_code": "TH",
      "latitude": 15.3919,
      "longitude": 99.8439,
      "admin_name1": "Uthai Thani"
    },
    {
      "place_name": "Khlong Khlung",
      "postal_code": "62120",
      "country_code": "TH",
      "latitude": 16.2,
      "longitude": 99.7167,
      "admin_name1": "Kamphaeng Phet"
    },
    {
      "place_name": "Phromkhiri",
      "postal_code": "80320",
      "country_code": "TH",
      "latitude": 8.0,
      "longitude": 99.5333,
      "admin_name1": "Nakhon Si Thammarat"
    },
    {
      "place_name": "Kathu",
      "postal_code": "83120",
      "country_code": "TH",
      "latitude": 7.9167,
      "longitude": 98.35,
      "admin_name1": "Phuket"
    },
    {
      "place_name": "Wiang Sa",
      "postal_code": "84190",
      "country_code": "TH",
      "latitude": 8.6333,
      "longitude": 99.35,
      "admin_name1": "Surat Thani"
    },
    {
      "place_name": "Bang Khae",
      "postal_code": "10160",
      "country_code": "TH",
      "latitude": 13.7167,
      "longitude": 100.4167,
      "admin_name1": "Bangkok"
    },
    {
      "place_name": "Nong Chok",
      "postal_code": "10530",
      "country_code": "TH",
      "latitude": 13.85,
      "longitude": 100.8667,
      "admin_name1": "Bangkok"
    },
    {
      "place_name": "Nong Sua",
      "postal_code": "12170",
      "country_code": "TH",
      "latitude": 14.1333,
      "longitude": 100.8333,
      "admin_name1": "Pathum Thani"
    },
    {
      "place_name": "Bang Pa-In",
      "postal_code": "13160",
      "country_code": "TH",
      "latitude": 14.2333,
      "longitude": 100.5833,
      "admin_name1": "Phra Nakhon Si Ayutthaya"
    },
    {
      "place_name": "Pho Thong",
      "postal_code": "14120",
      "country_code": "TH",
      "latitude": 14.6667,
      "longitude": 100.4167,
      "admin_name1": "Ang Thong"
    },
    {
      "place_name": "Muang Saraburi",
      "postal_code": "18000",
      "country_code": "TH",
      "latitude": 14.5521,
      "longitude": 100.9003,
      "admin_name1": "Saraburi"
    },
    {
      "place_name": "Khao Kitchakut",
      "postal_code": "22210",
      "country_code": "TH",
      "latitude": 12.6528,
      "longitude": 102.1222,
      "admin_name1": "Chanthaburi"
    },
    {
      "place_name": "Khlong Yai",
      "postal_code": "23110",
      "country_code": "TH",
      "latitude": 11.7667,
      "longitude": 102.9,
      "admin_name1": "Trat"
    },
    {
      "place_name": "Pak Thong Chai",
      "postal_code": "30150",
      "country_code": "TH",
      "latitude": 14.7453,
      "longitude": 102.0283,
      "admin_name1": "Nakhon Ratchasima"
    },
    {
      "place_name": "Non Thai",
      "postal_code": "30220",
      "country_code": "TH",
      "latitude": 15.2,
      "longitude": 102.0667,
      "admin_name1": "Nakhon Ratchasima"
    },
    {
      "place_name": "Muang Yang",
      "postal_code": "30270",
      "country_code": "TH",
      "latitude": 15.3167,
      "longitude": 102.7667,
      "admin_name1": "Nakhon Ratchasima"
    },
    {
      "place_name": "Tung Khaoluang",
      "postal_code": "45170",
      "country_code": "TH",
      "latitude": 16.1167,
      "longitude": 103.8333,
      "admin_name1": "Roi Et"
    },
    {
      "place_name": "Rong Kham",
      "postal_code": "46210",
      "country_code": "TH",
      "latitude": 16.2667,
      "longitude": 103.6833,
      "admin_name1": "Kalasin"
    },
    {
      "place_name": "Don Tan",
      "postal_code": "49120",
      "country_code": "TH",
      "latitude": 16.3167,
      "longitude": 104.9333,
      "admin_name1": "Mukdahan"
    },
    {
      "place_name": "Nong Sung",
      "postal_code": "49160",
      "country_code": "TH",
      "latitude": 16.4792,
      "longitude": 104.6583,
      "admin_name1": "Mukdahan"
    },
    {
      "place_name": "Chai Prakarn",
      "postal_code": "50320",
      "country_code": "TH",
      "latitude": 18.8583,
      "longitude": 98.825,
      "admin_name1": "Chiang Mai"
    },
    {
      "place_name": "Doi Luang",
      "postal_code": "57110",
      "country_code": "TH",
      "latitude": 20.3,
      "longitude": 100.3333,
      "admin_name1": "Chiang Rai"
    },
    {
      "place_name": "Khlong Lan",
      "postal_code": "62180",
      "country_code": "TH",
      "latitude": 16.1167,
      "longitude": 99.3,
      "admin_name1": "Kamphaeng Phet"
    },
    {
      "place_name": "Umphang",
      "postal_code": "63170",
      "country_code": "TH",
      "latitude": 16.0167,
      "longitude": 98.8667,
      "admin_name1": "Tak"
    },
    {
      "place_name": "Chat Trakan",
      "postal_code": "65170",
      "country_code": "TH",
      "latitude": 17.2833,
      "longitude": 100.65,
      "admin_name1": "Phitsanulok"
    },
    {
      "place_name": "Muang Phetchabun",
      "postal_code": "67000",
      "country_code": "TH",
      "latitude": 16.4167,
      "longitude": 101.1333,
      "admin_name1": "Phetchaburi"
    },
    {
      "place_name": "Lom Kao",
      "postal_code": "67120",
      "country_code": "TH",
      "latitude": 16.8833,
      "longitude": 101.2333,
      "admin_name1": "Phetchaburi"
    },
    {
      "place_name": "Pran Buri",
      "postal_code": "77120",
      "country_code": "TH",
      "latitude": 12.3833,
      "longitude": 99.9167,
      "admin_name1": "Prachuap Khiri Khan"
    },
    {
      "place_name": "Suk Samran",
      "postal_code": "85120",
      "country_code": "TH",
      "latitude": 9.5833,
      "longitude": 98.6,
      "admin_name1": "Ranong"
    },
    {
      "place_name": "Ranot",
      "postal_code": "90140",
      "country_code": "TH",
      "latitude": 7.7667,
      "longitude": 100.3167,
      "admin_name1": "Songkhla"
    },
    {
      "place_name": "Na Thawi",
      "postal_code": "90160",
      "country_code": "TH",
      "latitude": 6.75,
      "longitude": 100.7,
      "admin_name1": "Songkhla"
    },
    {
      "place_name": "Yannawa",
      "postal_code": "10120",
      "country_code": "TH",
      "latitude": 13.7083,
      "longitude": 100.4562,
      "admin_name1": "Bangkok"
    },
    {
      "place_name": "Muang ANG THONG",
      "postal_code": "14000",
      "country_code": "TH",
      "latitude": 14.5833,
      "longitude": 100.45,
      "admin_name1": "Ang Thong"
    },
    {
      "place_name": "Wat Sing",
      "postal_code": "17120",
      "country_code": "TH",
      "latitude": 15.2667,
      "longitude": 100.05,
      "admin_name1": "Chai Nat"
    },
    {
      "place_name": "Bo Thong",
      "postal_code": "20270",
      "country_code": "TH",
      "latitude": 13.2667,
      "longitude": 101.4333,
      "admin_name1": "Chon Buri"
    },
    {
      "place_name": "Prachantakham",
      "postal_code": "25130",
      "country_code": "TH",
      "latitude": 14.0619,
      "longitude": 101.5186,
      "admin_name1": "Prachin Buri"
    },
    {
      "place_name": "Wang Nam Khyo",
      "postal_code": "30370",
      "country_code": "TH",
      "latitude": 15.0,
      "longitude": 102.3167,
      "admin_name1": "Nakhon Ratchasima"
    },
    {
      "place_name": "Muang Loei",
      "postal_code": "42000",
      "country_code": "TH",
      "latitude": 17.4833,
      "longitude": 101.7167,
      "admin_name1": "Loei"
    },
    {
      "place_name": "Si Chiang Mai",
      "postal_code": "43130",
      "country_code": "TH",
      "latitude": 17.9564,
      "longitude": 102.5867,
      "admin_name1": "Nong Khai"
    },
    {
      "place_name": "Phon Charoen",
      "postal_code": "43180",
      "country_code": "TH",
      "latitude": 18.0333,
      "longitude": 103.1667,
      "admin_name1": "Nong Khai"
    },
    {
      "place_name": "Yang Talat",
      "postal_code": "46120",
      "country_code": "TH",
      "latitude": 16.4,
      "longitude": 103.3833,
      "admin_name1": "Kalasin"
    },
    {
      "place_name": "Muang Nakhon Phanom",
      "postal_code": "48000",
      "country_code": "TH",
      "latitude": 17.4,
      "longitude": 104.7833,
      "admin_name1": "Nakhon Phanom"
    },
    {
      "place_name": "That Phanom",
      "postal_code": "48110",
      "country_code": "TH",
      "latitude": 16.95,
      "longitude": 104.7333,
      "admin_name1": "Nakhon Phanom"
    },
    {
      "place_name": "Ban Phaeng",
      "postal_code": "48140",
      "country_code": "TH",
      "latitude": 17.9667,
      "longitude": 104.2333,
      "admin_name1": "Nakhon Phanom"
    },
    {
      "place_name": "Wan Yai",
      "postal_code": "49150",
      "country_code": "TH",
      "latitude": 16.65,
      "longitude": 104.7167,
      "admin_name1": "Mukdahan"
    },
    {
      "place_name": "Chiang Dao",
      "postal_code": "50170",
      "country_code": "TH",
      "latitude": 19.3667,
      "longitude": 98.9667,
      "admin_name1": "Chiang Mai"
    },
    {
      "place_name": "Muang Pan",
      "postal_code": "52240",
      "country_code": "TH",
      "latitude": 18.75,
      "longitude": 99.5,
      "admin_name1": "Lampang"
    },
    {
      "place_name": "Tha Pla",
      "postal_code": "53150",
      "country_code": "TH",
      "latitude": 17.8,
      "longitude": 100.5333,
      "admin_name1": "Uttaradit"
    },
    {
      "place_name": "Wang Chin",
      "postal_code": "54160",
      "country_code": "TH",
      "latitude": 17.8908,
      "longitude": 99.6064,
      "admin_name1": "Phrae"
    },
    {
      "place_name": "Chiang Kham",
      "postal_code": "56110",
      "country_code": "TH",
      "latitude": 19.5239,
      "longitude": 100.2992,
      "admin_name1": "Phayao"
    },
    {
      "place_name": "Chiang Saen",
      "postal_code": "57150",
      "country_code": "TH",
      "latitude": 20.1472,
      "longitude": 99.8539,
      "admin_name1": "Chiang Rai"
    },
    {
      "place_name": "Wiang Pa Pao",
      "postal_code": "57170",
      "country_code": "TH",
      "latitude": 19.3667,
      "longitude": 99.5,
      "admin_name1": "Chiang Rai"
    },
    {
      "place_name": "Nakhon Thai",
      "postal_code": "65120",
      "country_code": "TH",
      "latitude": 17.1167,
      "longitude": 100.8333,
      "admin_name1": "Phitsanulok"
    },
    {
      "place_name": "Pho Thale",
      "postal_code": "66130",
      "country_code": "TH",
      "latitude": 16.0833,
      "longitude": 100.2667,
      "admin_name1": "Phichit"
    },
    {
      "place_name": "Nong Yasai",
      "postal_code": "72240",
      "country_code": "TH",
      "latitude": 14.576,
      "longitude": 100.0286,
      "admin_name1": "Suphanburi"
    },
    {
      "place_name": "Muang Nakhon Pathom",
      "postal_code": "73000",
      "country_code": "TH",
      "latitude": 13.8667,
      "longitude": 100.1917,
      "admin_name1": "Nakhon Pathom"
    },
    {
      "place_name": "Muang Samut Sakhon",
      "postal_code": "74000",
      "country_code": "TH",
      "latitude": 13.5333,
      "longitude": 100.2833,
      "admin_name1": "Samut Sakhon"
    },
    {
      "place_name": "Ban Lat",
      "postal_code": "76150",
      "country_code": "TH",
      "latitude": 13.05,
      "longitude": 99.9333,
      "admin_name1": "Phetchaburi"
    },
    {
      "place_name": "Chula Phon",
      "postal_code": "80130",
      "country_code": "TH",
      "latitude": 8.15,
      "longitude": 99.85,
      "admin_name1": "Nakhon Si Thammarat"
    },
    {
      "place_name": "Hua Sai",
      "postal_code": "80170",
      "country_code": "TH",
      "latitude": 8.0333,
      "longitude": 100.3,
      "admin_name1": "Nakhon Si Thammarat"
    },
    {
      "place_name": "Cha-uat",
      "postal_code": "80180",
      "country_code": "TH",
      "latitude": 7.9667,
      "longitude": 100.0,
      "admin_name1": "Nakhon Si Thammarat"
    },
    {
      "place_name": "Khura Buri",
      "postal_code": "82150",
      "country_code": "TH",
      "latitude": 9.2,
      "longitude": 98.4333,
      "admin_name1": "Phang Nga"
    },
    {
      "place_name": "Sating Phra",
      "postal_code": "90190",
      "country_code": "TH",
      "latitude": 7.0694,
      "longitude": 100.6,
      "admin_name1": "Songkhla"
    },
    {
      "place_name": "Krasae Sin",
      "postal_code": "90270",
      "country_code": "TH",
      "latitude": 6.7,
      "longitude": 101.0333,
      "admin_name1": "Songkhla"
    },
    {
      "place_name": "Khuan Doan",
      "postal_code": "91160",
      "country_code": "TH",
      "latitude": 6.9292,
      "longitude": 99.8708,
      "admin_name1": "Satun"
    },
    {
      "place_name": "Kong Ra",
      "postal_code": "93180",
      "country_code": "TH",
      "latitude": 7.4667,
      "longitude": 99.95,
      "admin_name1": "Phatthalung"
    },
    {
      "place_name": "Tak Bai",
      "postal_code": "96110",
      "country_code": "TH",
      "latitude": 6.2667,
      "longitude": 102.05,
      "admin_name1": "Narathiwat"
    },
    {
      "place_name": "Taling Chan",
      "postal_code": "10170",
      "country_code": "TH",
      "latitude": 13.7667,
      "longitude": 100.45,
      "admin_name1": "Bangkok"
    },
    {
      "place_name": "In Buri",
      "postal_code": "16110",
      "country_code": "TH",
      "latitude": 15.0,
      "longitude": 100.3333,
      "admin_name1": "Sing Buri"
    },
    {
      "place_name": "Wang Chan",
      "postal_code": "21210",
      "country_code": "TH",
      "latitude": 12.9333,
      "longitude": 101.5167,
      "admin_name1": "Rayong"
    },
    {
      "place_name": "Phimai",
      "postal_code": "30110",
      "country_code": "TH",
      "latitude": 15.2167,
      "longitude": 102.5,
      "admin_name1": "Nakhon Ratchasima"
    },
    {
      "place_name": "Pak Chong",
      "postal_code": "30130",
      "country_code": "TH",
      "latitude": 14.7042,
      "longitude": 101.4131,
      "admin_name1": "Nakhon Ratchasima"
    },
    {
      "place_name": "Theparak",
      "postal_code": "30210",
      "country_code": "TH",
      "latitude": 15.2064,
      "longitude": 101.8058,
      "admin_name1": "Nakhon Ratchasima"
    },
    {
      "place_name": "Chakkarat",
      "postal_code": "30230",
      "country_code": "TH",
      "latitude": 15.0,
      "longitude": 102.2667,
      "admin_name1": "Nakhon Ratchasima"
    },
    {
      "place_name": "Prakhon Chai",
      "postal_code": "31140",
      "country_code": "TH",
      "latitude": 14.6167,
      "longitude": 103.0833,
      "admin_name1": "Buri Ram"
    },
    {
      "place_name": "Kantharalak",
      "postal_code": "33110",
      "country_code": "TH",
      "latitude": 14.65,
      "longitude": 104.65,
      "admin_name1": "Si Sa Ket"
    },
    {
      "place_name": "Muang Ubon Ratchathani",
      "postal_code": "34000",
      "country_code": "TH",
      "latitude": 14.7861,
      "longitude": 103.9111,
      "admin_name1": "Ubon Ratchathani"
    },
    {
      "place_name": "Po Sai",
      "postal_code": "34340",
      "country_code": "TH",
      "latitude": 14.5167,
      "longitude": 102.85,
      "admin_name1": "Ubon Ratchathani"
    },
    {
      "place_name": "Nong Bua Daeng",
      "postal_code": "36210",
      "country_code": "TH",
      "latitude": 16.0833,
      "longitude": 101.8,
      "admin_name1": "Chaiyaphum"
    },
    {
      "place_name": "Mancha Khiri",
      "postal_code": "40160",
      "country_code": "TH",
      "latitude": 16.1167,
      "longitude": 102.55,
      "admin_name1": "Khon Kaen"
    },
    {
      "place_name": "Phra Yun",
      "postal_code": "40320",
      "country_code": "TH",
      "latitude": 16.3333,
      "longitude": 102.65,
      "admin_name1": "Khon Kaen"
    },
    {
      "place_name": "Ku Khaew",
      "postal_code": "41130",
      "country_code": "TH",
      "latitude": 17.1336,
      "longitude": 102.9675,
      "admin_name1": "Udon Thani"
    },
    {
      "place_name": "Chiang Khan",
      "postal_code": "42110",
      "country_code": "TH",
      "latitude": 17.8667,
      "longitude": 101.6,
      "admin_name1": "Loei"
    },
    {
      "place_name": "Phu Rua",
      "postal_code": "42160",
      "country_code": "TH",
      "latitude": 17.45,
      "longitude": 101.3667,
      "admin_name1": "Loei"
    },
    {
      "place_name": "Tha Bo",
      "postal_code": "43110",
      "country_code": "TH",
      "latitude": 17.845,
      "longitude": 102.5842,
      "admin_name1": "Nong Khai"
    },
    {
      "place_name": "Chiang Yun",
      "postal_code": "44160",
      "country_code": "TH",
      "latitude": 16.4167,
      "longitude": 103.1,
      "admin_name1": "Maha Sarakham"
    },
    {
      "place_name": "Mae Taeng",
      "postal_code": "50150",
      "country_code": "TH",
      "latitude": 19.1167,
      "longitude": 98.95,
      "admin_name1": "Chiang Mai"
    },
    {
      "place_name": "Ko Kha",
      "postal_code": "52130",
      "country_code": "TH",
      "latitude": 18.19,
      "longitude": 99.3928,
      "admin_name1": "Lampang"
    },
    {
      "place_name": "Pu Sang",
      "postal_code": "56110",
      "country_code": "TH",
      "latitude": 19.5239,
      "longitude": 100.2992,
      "admin_name1": "Phayao"
    },
    {
      "place_name": "Dok Kham Tai",
      "postal_code": "56120",
      "country_code": "TH",
      "latitude": 19.3302,
      "longitude": 100.2497,
      "admin_name1": "Phayao"
    },
    {
      "place_name": "Thoeng",
      "postal_code": "57160",
      "country_code": "TH",
      "latitude": 19.6833,
      "longitude": 100.2,
      "admin_name1": "Chiang Rai"
    },
    {
      "place_name": "Nong Khayang",
      "postal_code": "61130",
      "country_code": "TH",
      "latitude": 15.3619,
      "longitude": 99.9292,
      "admin_name1": "Uthai Thani"
    },
    {
      "place_name": "Wang Sai Phun",
      "postal_code": "66180",
      "country_code": "TH",
      "latitude": 16.2722,
      "longitude": 100.35,
      "admin_name1": "Phichit"
    },
    {
      "place_name": "Pak Tho",
      "postal_code": "70140",
      "country_code": "TH",
      "latitude": 13.3833,
      "longitude": 99.85,
      "admin_name1": "Ratchaburi"
    },
    {
      "place_name": "Song Phi Nong",
      "postal_code": "72110",
      "country_code": "TH",
      "latitude": 14.2167,
      "longitude": 100.05,
      "admin_name1": "Suphanburi"
    },
    {
      "place_name": "Si Prachan",
      "postal_code": "72140",
      "country_code": "TH",
      "latitude": 14.6167,
      "longitude": 100.15,
      "admin_name1": "Suphanburi"
    },
    {
      "place_name": "Nam Nao",
      "postal_code": "67260",
      "country_code": "TH",
      "latitude": 16.75,
      "longitude": 101.75,
      "admin_name1": "Phetchaburi"
    },
    {
      "place_name": "Chawang",
      "postal_code": "80150",
      "country_code": "TH",
      "latitude": 8.4167,
      "longitude": 99.5,
      "admin_name1": "Nakhon Si Thammarat"
    },
    {
      "place_name": "Muang Krabi",
      "postal_code": "81000",
      "country_code": "TH",
      "latitude": 8.119,
      "longitude": 99.0214,
      "admin_name1": "Krabi"
    },
    {
      "place_name": "Thalang",
      "postal_code": "83110",
      "country_code": "TH",
      "latitude": 7.9833,
      "longitude": 98.3667,
      "admin_name1": "Phuket"
    },
    {
      "place_name": "Kanchanadit",
      "postal_code": "84160",
      "country_code": "TH",
      "latitude": 9.1667,
      "longitude": 99.4667,
      "admin_name1": "Surat Thani"
    },
    {
      "place_name": "Bang Klam",
      "postal_code": "90110",
      "country_code": "TH",
      "latitude": 7.1,
      "longitude": 100.4167,
      "admin_name1": "Songkhla"
    },
    {
      "place_name": "Bang Kaeo",
      "postal_code": "93140",
      "country_code": "TH",
      "latitude": 7.4944,
      "longitude": 100.0583,
      "admin_name1": "Phatthalung"
    },
    {
      "place_name": "Than To",
      "postal_code": "95150",
      "country_code": "TH",
      "latitude": 6.2167,
      "longitude": 101.15,
      "admin_name1": "Yala"
    },
    {
      "place_name": "Rat Burana",
      "postal_code": "10140",
      "country_code": "TH",
      "latitude": 13.6833,
      "longitude": 100.5,
      "admin_name1": "Bangkok"
    },
    {
      "place_name": "Bang Kapi",
      "postal_code": "10240",
      "country_code": "TH",
      "latitude": 13.7667,
      "longitude": 100.65,
      "admin_name1": "Bangkok"
    },
    {
      "place_name": "Lum Sunthi",
      "postal_code": "15190",
      "country_code": "TH",
      "latitude": 15.0216,
      "longitude": 100.7911,
      "admin_name1": "Lopburi"
    },
    {
      "place_name": "Kaeng Khoi",
      "postal_code": "18110",
      "country_code": "TH",
      "latitude": 14.5881,
      "longitude": 101.0031,
      "admin_name1": "Saraburi"
    },
    {
      "place_name": "Ban Chang",
      "postal_code": "21130",
      "country_code": "TH",
      "latitude": 12.7167,
      "longitude": 101.0667,
      "admin_name1": "Rayong"
    },
    {
      "place_name": "Rachsan",
      "postal_code": "24120",
      "country_code": "TH",
      "latitude": 13.75,
      "longitude": 101.35,
      "admin_name1": "Chachoengsao"
    },
    {
      "place_name": "Paeng Yao",
      "postal_code": "24190",
      "country_code": "TH",
      "latitude": 13.6861,
      "longitude": 101.1944,
      "admin_name1": "Chachoengsao"
    },
    {
      "place_name": "Muang Prachinburi",
      "postal_code": "25000",
      "country_code": "TH",
      "latitude": 14.0048,
      "longitude": 101.5198,
      "admin_name1": "Prachin Buri"
    },
    {
      "place_name": "Muang Sa Kaeo",
      "postal_code": "27000",
      "country_code": "TH",
      "latitude": 13.8442,
      "longitude": 102.6536,
      "admin_name1": "Sa Kaeo"
    },
    {
      "place_name": "Bua Yai",
      "postal_code": "30120",
      "country_code": "TH",
      "latitude": 15.5833,
      "longitude": 102.4167,
      "admin_name1": "Nakhon Ratchasima"
    },
    {
      "place_name": "Sida",
      "postal_code": "30430",
      "country_code": "TH",
      "latitude": 14.7,
      "longitude": 102.45,
      "admin_name1": "Nakhon Ratchasima"
    },
    {
      "place_name": "Muang Chaiyaphum",
      "postal_code": "36000",
      "country_code": "TH",
      "latitude": 16.0085,
      "longitude": 101.9828,
      "admin_name1": "Chaiyaphum"
    },
    {
      "place_name": "Senangkhanikhorn",
      "postal_code": "37290",
      "country_code": "TH",
      "latitude": 15.7167,
      "longitude": 104.4667,
      "admin_name1": "Amnat Charoen"
    },
    {
      "place_name": "Ban Phai",
      "postal_code": "40110",
      "country_code": "TH",
      "latitude": 16.0667,
      "longitude": 102.7333,
      "admin_name1": "Khon Kaen"
    },
    {
      "place_name": "Phu Wiang",
      "postal_code": "40150",
      "country_code": "TH",
      "latitude": 16.65,
      "longitude": 102.3833,
      "admin_name1": "Khon Kaen"
    },
    {
      "place_name": "Si Chomphu",
      "postal_code": "40220",
      "country_code": "TH",
      "latitude": 16.8,
      "longitude": 102.2,
      "admin_name1": "Khon Kaen"
    },
    {
      "place_name": "Ban Phu",
      "postal_code": "41190",
      "country_code": "TH",
      "latitude": 17.1336,
      "longitude": 102.9675,
      "admin_name1": "Udon Thani"
    },
    {
      "place_name": "Na Duang",
      "postal_code": "42210",
      "country_code": "TH",
      "latitude": 17.4833,
      "longitude": 101.9833,
      "admin_name1": "Loei"
    },
    {
      "place_name": "Na Dun",
      "postal_code": "44180",
      "country_code": "TH",
      "latitude": 15.7167,
      "longitude": 103.2333,
      "admin_name1": "Maha Sarakham"
    },
    {
      "place_name": "Muang Roi Et",
      "postal_code": "45000",
      "country_code": "TH",
      "latitude": 16.05,
      "longitude": 103.6667,
      "admin_name1": "Roi Et"
    },
    {
      "place_name": "Wanon Niwat",
      "postal_code": "47120",
      "country_code": "TH",
      "latitude": 17.6333,
      "longitude": 103.7667,
      "admin_name1": "Sakon Nakhon"
    },
    {
      "place_name": "Muang Chiang Mai",
      "postal_code": "50000",
      "country_code": "TH",
      "latitude": 18.7903,
      "longitude": 98.9817,
      "admin_name1": "Chiang Mai"
    },
    {
      "place_name": "Phichai",
      "postal_code": "53120",
      "country_code": "TH",
      "latitude": 17.2872,
      "longitude": 100.0967,
      "admin_name1": "Uttaradit"
    },
    {
      "place_name": "Ban Khok",
      "postal_code": "53180",
      "country_code": "TH",
      "latitude": 18.0189,
      "longitude": 101.0681,
      "admin_name1": "Uttaradit"
    },
    {
      "place_name": "Tong Saen Khan",
      "postal_code": "53230",
      "country_code": "TH",
      "latitude": 17.7168,
      "longitude": 100.5445,
      "admin_name1": "Uttaradit"
    },
    {
      "place_name": "Mae Sariang",
      "postal_code": "58110",
      "country_code": "TH",
      "latitude": 18.1578,
      "longitude": 97.9336,
      "admin_name1": "Mae Hong Son"
    },
    {
      "place_name": "Saithong Wattana",
      "postal_code": "62190",
      "country_code": "TH",
      "latitude": 16.31,
      "longitude": 99.68,
      "admin_name1": "Kamphaeng Phet"
    },
    {
      "place_name": "Mae Ramat",
      "postal_code": "63140",
      "country_code": "TH",
      "latitude": 16.9667,
      "longitude": 98.5167,
      "admin_name1": "Tak"
    },
    {
      "place_name": "Ban Pong",
      "postal_code": "70110",
      "country_code": "TH",
      "latitude": 13.8167,
      "longitude": 99.8833,
      "admin_name1": "Ratchaburi"
    },
    {
      "place_name": "Dan Makham Tia",
      "postal_code": "71260",
      "country_code": "TH",
      "latitude": 13.85,
      "longitude": 99.4167,
      "admin_name1": "Kanchanaburi"
    },
    {
      "place_name": "Bang Saphan",
      "postal_code": "77140",
      "country_code": "TH",
      "latitude": 11.2,
      "longitude": 99.5167,
      "admin_name1": "Prachuap Khiri Khan"
    },
    {
      "place_name": "Thung Yai",
      "postal_code": "80240",
      "country_code": "TH",
      "latitude": 8.3,
      "longitude": 99.3667,
      "admin_name1": "Nakhon Si Thammarat"
    },
    {
      "place_name": "Sawi",
      "postal_code": "86130",
      "country_code": "TH",
      "latitude": 10.2333,
      "longitude": 99.0833,
      "admin_name1": "Chumphon"
    },
    {
      "place_name": "Khlong Hoykhong",
      "postal_code": "90230",
      "country_code": "TH",
      "latitude": 6.7,
      "longitude": 101.0333,
      "admin_name1": "Songkhla"
    },
    {
      "place_name": "Had Samran",
      "postal_code": "92120",
      "country_code": "TH",
      "latitude": 7.3333,
      "longitude": 99.8,
      "admin_name1": "Trang"
    },
    {
      "place_name": "Phattana Nikhom",
      "postal_code": "15140",
      "country_code": "TH",
      "latitude": 15.0216,
      "longitude": 100.7911,
      "admin_name1": "Lopburi"
    },
    {
      "place_name": "Sao Hai",
      "postal_code": "18160",
      "country_code": "TH",
      "latitude": 14.55,
      "longitude": 100.85,
      "admin_name1": "Saraburi"
    },
    {
      "place_name": "Sattahip",
      "postal_code": "20180",
      "country_code": "TH",
      "latitude": 12.6667,
      "longitude": 100.9,
      "admin_name1": "Chon Buri"
    },
    {
      "place_name": "Phra Thomgkom",
      "postal_code": "30220",
      "country_code": "TH",
      "latitude": 15.2,
      "longitude": 102.0667,
      "admin_name1": "Nakhon Ratchasima"
    },
    {
      "place_name": "Lam Phai Mat",
      "postal_code": "31130",
      "country_code": "TH",
      "latitude": 14.9088,
      "longitude": 102.9959,
      "admin_name1": "Buri Ram"
    },
    {
      "place_name": "Khu Muang",
      "postal_code": "31190",
      "country_code": "TH",
      "latitude": 15.2833,
      "longitude": 103.0333,
      "admin_name1": "Buri Ram"
    },
    {
      "place_name": "Muang Sisaket",
      "postal_code": "33000",
      "country_code": "TH",
      "latitude": 15.1167,
      "longitude": 104.3333,
      "admin_name1": "Si Sa Ket"
    },
    {
      "place_name": "Phrai Bung",
      "postal_code": "33180",
      "country_code": "TH",
      "latitude": 14.75,
      "longitude": 104.35,
      "admin_name1": "Si Sa Ket"
    },
    {
      "place_name": "Waeng Yai",
      "postal_code": "40330",
      "country_code": "TH",
      "latitude": 15.95,
      "longitude": 102.5333,
      "admin_name1": "Khon Kaen"
    },
    {
      "place_name": "Muang Udon Thani",
      "postal_code": "41000",
      "country_code": "TH",
      "latitude": 17.1336,
      "longitude": 102.9675,
      "admin_name1": "Udon Thani"
    },
    {
      "place_name": "Muang Maha Sarakham",
      "postal_code": "44000",
      "country_code": "TH",
      "latitude": 15.955,
      "longitude": 103.1867,
      "admin_name1": "Maha Sarakham"
    },
    {
      "place_name": "Borabu",
      "postal_code": "44130",
      "country_code": "TH",
      "latitude": 16.0333,
      "longitude": 103.1167,
      "admin_name1": "Maha Sarakham"
    },
    {
      "place_name": "Waritchaphum",
      "postal_code": "47150",
      "country_code": "TH",
      "latitude": 17.2833,
      "longitude": 103.6333,
      "admin_name1": "Sakon Nakhon"
    },
    {
      "place_name": "Kusuman",
      "postal_code": "47210",
      "country_code": "TH",
      "latitude": 17.3333,
      "longitude": 104.3333,
      "admin_name1": "Sakon Nakhon"
    },
    {
      "place_name": "Wang Nua",
      "postal_code": "52140",
      "country_code": "TH",
      "latitude": 19.15,
      "longitude": 99.6167,
      "admin_name1": "Lampang"
    },
    {
      "place_name": "Sop Prap",
      "postal_code": "52170",
      "country_code": "TH",
      "latitude": 17.8761,
      "longitude": 99.3431,
      "admin_name1": "Lampang"
    },
    {
      "place_name": "Song Khaew",
      "postal_code": "55160",
      "country_code": "TH",
      "latitude": 19.3,
      "longitude": 100.8667,
      "admin_name1": "Nan"
    },
    {
      "place_name": "Mae Poen",
      "postal_code": "60150",
      "country_code": "TH",
      "latitude": 15.7506,
      "longitude": 99.7903,
      "admin_name1": "Nakhon Sawan"
    },
    {
      "place_name": "Huai Khot",
      "postal_code": "61170",
      "country_code": "TH",
      "latitude": 15.1333,
      "longitude": 99.5667,
      "admin_name1": "Uthai Thani"
    },
    {
      "place_name": "Phob Phra",
      "postal_code": "63160",
      "country_code": "TH",
      "latitude": 16.8615,
      "longitude": 98.7174,
      "admin_name1": "Tak"
    },
    {
      "place_name": "Tab Khlo",
      "postal_code": "66150",
      "country_code": "TH",
      "latitude": 16.2722,
      "longitude": 100.35,
      "admin_name1": "Phichit"
    },
    {
      "place_name": "Sai Yok",
      "postal_code": "71150",
      "country_code": "TH",
      "latitude": 14.1169,
      "longitude": 99.1375,
      "admin_name1": "Kanchanaburi"
    },
    {
      "place_name": "Bo Phloi",
      "postal_code": "71160",
      "country_code": "TH",
      "latitude": 14.3236,
      "longitude": 99.5161,
      "admin_name1": "Kanchanaburi"
    },
    {
      "place_name": "Dan Chang",
      "postal_code": "72180",
      "country_code": "TH",
      "latitude": 14.8167,
      "longitude": 99.7,
      "admin_name1": "Suphanburi"
    },
    {
      "place_name": "Nakhon Chaisi",
      "postal_code": "73120",
      "country_code": "TH",
      "latitude": 13.8667,
      "longitude": 100.1917,
      "admin_name1": "Nakhon Pathom"
    },
    {
      "place_name": "Ban Phaeo",
      "postal_code": "74120",
      "country_code": "TH",
      "latitude": 13.5833,
      "longitude": 100.1167,
      "admin_name1": "Samut Sakhon"
    },
    {
      "place_name": "Ban Laem",
      "postal_code": "76110",
      "country_code": "TH",
      "latitude": 13.2167,
      "longitude": 99.9833,
      "admin_name1": "Phetchaburi"
    },
    {
      "place_name": "Muang Trang",
      "postal_code": "92000",
      "country_code": "TH",
      "latitude": 7.5611,
      "longitude": 99.5417,
      "admin_name1": "Trang"
    },
    {
      "place_name": "Sungai Kolok",
      "postal_code": "96120",
      "country_code": "TH",
      "latitude": 6.0267,
      "longitude": 101.9678,
      "admin_name1": "Narathiwat"
    },
    {
      "place_name": "Khon Sawan",
      "postal_code": "36140",
      "country_code": "TH",
      "latitude": 15.9333,
      "longitude": 102.2833,
      "admin_name1": "Chaiyaphum"
    },
    {
      "place_name": "Waeng Noi",
      "postal_code": "40230",
      "country_code": "TH",
      "latitude": 15.8,
      "longitude": 102.4667,
      "admin_name1": "Khon Kaen"
    },
    {
      "place_name": "Tha Li",
      "postal_code": "42140",
      "country_code": "TH",
      "latitude": 17.6167,
      "longitude": 101.4167,
      "admin_name1": "Loei"
    },
    {
      "place_name": "Phu Luang",
      "postal_code": "42230",
      "country_code": "TH",
      "latitude": 17.1667,
      "longitude": 101.7667,
      "admin_name1": "Loei"
    },
    {
      "place_name": "Pha Khao",
      "postal_code": "42240",
      "country_code": "TH",
      "latitude": 17.325,
      "longitude": 101.875,
      "admin_name1": "Loei"
    },
    {
      "place_name": "Moeiyawadi",
      "postal_code": "45250",
      "country_code": "TH",
      "latitude": 15.649,
      "longitude": 103.8556,
      "admin_name1": "Roi Et"
    },
    {
      "place_name": "Kut Bak",
      "postal_code": "47180",
      "country_code": "TH",
      "latitude": 17.0833,
      "longitude": 103.8167,
      "admin_name1": "Sakon Nakhon"
    },
    {
      "place_name": "Charoensin",
      "postal_code": "47290",
      "country_code": "TH",
      "latitude": 17.3458,
      "longitude": 103.9792,
      "admin_name1": "Sakon Nakhon"
    },
    {
      "place_name": "Weang Hang",
      "postal_code": "50350",
      "country_code": "TH",
      "latitude": 18.8583,
      "longitude": 98.825,
      "admin_name1": "Chiang Mai"
    },
    {
      "place_name": "Wiang Nonglong",
      "postal_code": "51120",
      "country_code": "TH",
      "latitude": 18.5244,
      "longitude": 98.9386,
      "admin_name1": "Lamphun"
    },
    {
      "place_name": "Bo Klua",
      "postal_code": "55220",
      "country_code": "TH",
      "latitude": 19.0833,
      "longitude": 101.0833,
      "admin_name1": "Nan"
    },
    {
      "place_name": "Dong Charoen",
      "postal_code": "66210",
      "country_code": "TH",
      "latitude": 16.2952,
      "longitude": 100.3524,
      "admin_name1": "Phichit"
    },
    {
      "place_name": "Don Chedi",
      "postal_code": "72170",
      "country_code": "TH",
      "latitude": 14.6333,
      "longitude": 100.0333,
      "admin_name1": "Suphanburi"
    },
    {
      "place_name": "Amphawa",
      "postal_code": "75110",
      "country_code": "TH",
      "latitude": 13.4167,
      "longitude": 99.95,
      "admin_name1": "Samut Songkhram"
    },
    {
      "place_name": "Wang Pong",
      "postal_code": "67240",
      "country_code": "TH",
      "latitude": 16.3333,
      "longitude": 100.8,
      "admin_name1": "Phetchaburi"
    },
    {
      "place_name": "Muang Pattani",
      "postal_code": "94000",
      "country_code": "TH",
      "latitude": 6.758,
      "longitude": 101.3775,
      "admin_name1": "Pattani"
    },
    {
      "place_name": "Bang Kruai",
      "postal_code": "11130",
      "country_code": "TH",
      "latitude": 13.8,
      "longitude": 100.4833,
      "admin_name1": "Nonthaburi"
    },
    {
      "place_name": "Bang Yai",
      "postal_code": "11140",
      "country_code": "TH",
      "latitude": 13.85,
      "longitude": 100.4333,
      "admin_name1": "Nonthaburi"
    },
    {
      "place_name": "Samko",
      "postal_code": "14160",
      "country_code": "TH",
      "latitude": 14.5958,
      "longitude": 100.4208,
      "admin_name1": "Ang Thong"
    },
    {
      "place_name": "Phan Thong",
      "postal_code": "20160",
      "country_code": "TH",
      "latitude": 13.4667,
      "longitude": 101.1,
      "admin_name1": "Chon Buri"
    },
    {
      "place_name": "Na Yai Am",
      "postal_code": "22160",
      "country_code": "TH",
      "latitude": 12.7833,
      "longitude": 101.8333,
      "admin_name1": "Chanthaburi"
    },
    {
      "place_name": "Kaeng Hang Maew",
      "postal_code": "22160",
      "country_code": "TH",
      "latitude": 12.7833,
      "longitude": 101.8333,
      "admin_name1": "Chanthaburi"
    },
    {
      "place_name": "Non Khun",
      "postal_code": "33250",
      "country_code": "TH",
      "latitude": 14.9167,
      "longitude": 104.7333,
      "admin_name1": "Si Sa Ket"
    },
    {
      "place_name": "Thung Sriudom",
      "postal_code": "34160",
      "country_code": "TH",
      "latitude": 15.6417,
      "longitude": 105.225,
      "admin_name1": "Ubon Ratchathani"
    },
    {
      "place_name": "Warin Chamrabp",
      "postal_code": "34190",
      "country_code": "TH",
      "latitude": 15.6417,
      "longitude": 105.225,
      "admin_name1": "Ubon Ratchathani"
    },
    {
      "place_name": "Phra Nakhon",
      "postal_code": "10200",
      "country_code": "TH",
      "latitude": 13.75,
      "longitude": 100.5167,
      "admin_name1": "Bangkok"
    },
    {
      "place_name": "Dusit",
      "postal_code": "10300",
      "country_code": "TH",
      "latitude": 13.7833,
      "longitude": 100.5167,
      "admin_name1": "Bangkok"
    },
    {
      "place_name": "Wangthong Lang",
      "postal_code": "10310",
      "country_code": "TH",
      "latitude": 13.7833,
      "longitude": 100.5167,
      "admin_name1": "Bangkok"
    },
    {
      "place_name": "Khlong San",
      "postal_code": "10600",
      "country_code": "TH",
      "latitude": 13.7333,
      "longitude": 100.5,
      "admin_name1": "Bangkok"
    },
    {
      "place_name": "Bang Plat",
      "postal_code": "10700",
      "country_code": "TH",
      "latitude": 13.75,
      "longitude": 100.4833,
      "admin_name1": "Bangkok"
    },
    {
      "place_name": "Phra Samut Chedi",
      "postal_code": "10290",
      "country_code": "TH",
      "latitude": 13.8583,
      "longitude": 100.4688,
      "admin_name1": "Samut Prakan"
    },
    {
      "place_name": "Tha Rua",
      "postal_code": "13130",
      "country_code": "TH",
      "latitude": 14.5667,
      "longitude": 100.7333,
      "admin_name1": "Phra Nakhon Si Ayutthaya"
    },
    {
      "place_name": "Phachi",
      "postal_code": "13140",
      "country_code": "TH",
      "latitude": 14.45,
      "longitude": 100.7167,
      "admin_name1": "Phra Nakhon Si Ayutthaya"
    },
    {
      "place_name": "Khai Bang Rachan",
      "postal_code": "16150",
      "country_code": "TH",
      "latitude": 14.8708,
      "longitude": 100.375,
      "admin_name1": "Sing Buri"
    },
    {
      "place_name": "Nong Mamong",
      "postal_code": "17100",
      "country_code": "TH",
      "latitude": 15.2775,
      "longitude": 99.8769,
      "admin_name1": "Chai Nat"
    },
    {
      "place_name": "Ban Mo",
      "postal_code": "18130",
      "country_code": "TH",
      "latitude": 14.6167,
      "longitude": 100.7333,
      "admin_name1": "Saraburi"
    },
    {
      "place_name": "Ko Sichang",
      "postal_code": "20120",
      "country_code": "TH",
      "latitude": 13.1452,
      "longitude": 101.0619,
      "admin_name1": "Chon Buri"
    },
    {
      "place_name": "Ban Sang",
      "postal_code": "25150",
      "country_code": "TH",
      "latitude": 14.0,
      "longitude": 101.2333,
      "admin_name1": "Prachin Buri"
    },
    {
      "place_name": "Nam Kliang",
      "postal_code": "33130",
      "country_code": "TH",
      "latitude": 14.9,
      "longitude": 104.55,
      "admin_name1": "Si Sa Ket"
    },
    {
      "place_name": "Chum Phae",
      "postal_code": "40130",
      "country_code": "TH",
      "latitude": 16.5333,
      "longitude": 102.1,
      "admin_name1": "Khon Kaen"
    },
    {
      "place_name": "Phu Pha Man",
      "postal_code": "40350",
      "country_code": "TH",
      "latitude": 16.0556,
      "longitude": 102.7,
      "admin_name1": "Khon Kaen"
    },
    {
      "place_name": "Phrachuk Siliakram",
      "postal_code": "41110",
      "country_code": "TH",
      "latitude": 17.1336,
      "longitude": 102.9675,
      "admin_name1": "Udon Thani"
    },
    {
      "place_name": "Phaanom Phrai",
      "postal_code": "45140",
      "country_code": "TH",
      "latitude": 15.6167,
      "longitude": 103.9833,
      "admin_name1": "Roi Et"
    },
    {
      "place_name": "Sawang Daen Din",
      "postal_code": "47110",
      "country_code": "TH",
      "latitude": 17.4719,
      "longitude": 103.4583,
      "admin_name1": "Sakon Nakhon"
    },
    {
      "place_name": "Pla Pak",
      "postal_code": "48160",
      "country_code": "TH",
      "latitude": 17.1833,
      "longitude": 104.5333,
      "admin_name1": "Nakhon Phanom"
    },
    {
      "place_name": "Khamcha-I",
      "postal_code": "49110",
      "country_code": "TH",
      "latitude": 16.5833,
      "longitude": 104.4167,
      "admin_name1": "Mukdahan"
    },
    {
      "place_name": "Pa Sang",
      "postal_code": "51120",
      "country_code": "TH",
      "latitude": 18.5244,
      "longitude": 98.9386,
      "admin_name1": "Lamphun"
    },
    {
      "place_name": "Thung Chang",
      "postal_code": "55130",
      "country_code": "TH",
      "latitude": 19.4167,
      "longitude": 100.8833,
      "admin_name1": "Nan"
    },
    {
      "place_name": "Pu Khamyaw",
      "postal_code": "56000",
      "country_code": "TH",
      "latitude": 19.1667,
      "longitude": 99.9167,
      "admin_name1": "Phayao"
    },
    {
      "place_name": "Mae Chai",
      "postal_code": "56130",
      "country_code": "TH",
      "latitude": 19.3302,
      "longitude": 100.2497,
      "admin_name1": "Phayao"
    },
    {
      "place_name": "Chiang Khong",
      "postal_code": "57140",
      "country_code": "TH",
      "latitude": 20.2833,
      "longitude": 100.4,
      "admin_name1": "Chiang Rai"
    },
    {
      "place_name": "Wiang Chiang Rung",
      "postal_code": "57210",
      "country_code": "TH",
      "latitude": 19.8833,
      "longitude": 99.9167,
      "admin_name1": "Chiang Rai"
    },
    {
      "place_name": "Banphot Phisai",
      "postal_code": "60180",
      "country_code": "TH",
      "latitude": 15.9342,
      "longitude": 99.9789,
      "admin_name1": "Nakhon Sawan"
    },
    {
      "place_name": "Kao Lieo",
      "postal_code": "60230",
      "country_code": "TH",
      "latitude": 15.85,
      "longitude": 100.0833,
      "admin_name1": "Nakhon Sawan"
    },
    {
      "place_name": "Wachirabarami",
      "postal_code": "66140",
      "country_code": "TH",
      "latitude": 16.5167,
      "longitude": 100.2167,
      "admin_name1": "Phichit"
    },
    {
      "place_name": "Muang Ratchaburi",
      "postal_code": "70000",
      "country_code": "TH",
      "latitude": 13.5854,
      "longitude": 99.7875,
      "admin_name1": "Ratchaburi"
    },
    {
      "place_name": "Photharam",
      "postal_code": "70120",
      "country_code": "TH",
      "latitude": 13.6833,
      "longitude": 99.85,
      "admin_name1": "Ratchaburi"
    },
    {
      "place_name": "Tha Muang",
      "postal_code": "71110",
      "country_code": "TH",
      "latitude": 13.9667,
      "longitude": 99.6333,
      "admin_name1": "Kanchanaburi"
    },
    {
      "place_name": "Wichian Buri",
      "postal_code": "67130",
      "country_code": "TH",
      "latitude": 15.6589,
      "longitude": 101.1125,
      "admin_name1": "Phetchaburi"
    },
    {
      "place_name": "Muang Nakhon Si Thammarat",
      "postal_code": "80000",
      "country_code": "TH",
      "latitude": 14.65,
      "longitude": 100.6,
      "admin_name1": "Nakhon Si Thammarat"
    },
    {
      "place_name": "Tham Punnara",
      "postal_code": "80260",
      "country_code": "TH",
      "latitude": 8.54,
      "longitude": 99.65,
      "admin_name1": "Nakhon Si Thammarat"
    },
    {
      "place_name": "Takua Thung",
      "postal_code": "82130",
      "country_code": "TH",
      "latitude": 8.4,
      "longitude": 98.45,
      "admin_name1": "Phang Nga"
    },
    {
      "place_name": "Thap Put",
      "postal_code": "82180",
      "country_code": "TH",
      "latitude": 8.5167,
      "longitude": 98.6333,
      "admin_name1": "Phang Nga"
    },
    {
      "place_name": "Chana",
      "postal_code": "90130",
      "country_code": "TH",
      "latitude": 6.9167,
      "longitude": 100.7333,
      "admin_name1": "Songkhla"
    },
    {
      "place_name": "Tha Phae",
      "postal_code": "91150",
      "country_code": "TH",
      "latitude": 6.8667,
      "longitude": 99.9167,
      "admin_name1": "Satun"
    },
    {
      "place_name": "Khao Chaison",
      "postal_code": "93130",
      "country_code": "TH",
      "latitude": 7.4167,
      "longitude": 100.0833,
      "admin_name1": "Phatthalung"
    },
    {
      "place_name": "Yaha",
      "postal_code": "95120",
      "country_code": "TH",
      "latitude": 6.4778,
      "longitude": 101.135,
      "admin_name1": "Yala"
    },
    {
      "place_name": "Bangkok Noi",
      "postal_code": "10700",
      "country_code": "TH",
      "latitude": 13.75,
      "longitude": 100.4833,
      "admin_name1": "Bangkok"
    },
    {
      "place_name": "Pharnakhon Si Ayutthaya",
      "postal_code": "13000",
      "country_code": "TH",
      "latitude": 14.3738,
      "longitude": 100.5631,
      "admin_name1": "Phra Nakhon Si Ayutthaya"
    },
    {
      "place_name": "Nakhon Luang",
      "postal_code": "13260",
      "country_code": "TH",
      "latitude": 14.45,
      "longitude": 100.6167,
      "admin_name1": "Phra Nakhon Si Ayutthaya"
    },
    {
      "place_name": "Bang Nam Prieo",
      "postal_code": "24150",
      "country_code": "TH",
      "latitude": 13.85,
      "longitude": 101.0667,
      "admin_name1": "Chachoengsao"
    },
    {
      "place_name": "Muang Buri Ram",
      "postal_code": "31000",
      "country_code": "TH",
      "latitude": 13.9167,
      "longitude": 102.0167,
      "admin_name1": "Buri Ram"
    },
    {
      "place_name": "Kandong",
      "postal_code": "31150",
      "country_code": "TH",
      "latitude": 15.3,
      "longitude": 103.3,
      "admin_name1": "Buri Ram"
    },
    {
      "place_name": "Muang Chan",
      "postal_code": "33120",
      "country_code": "TH",
      "latitude": 15.1133,
      "longitude": 104.1408,
      "admin_name1": "Si Sa Ket"
    },
    {
      "place_name": "Muang Yasothon",
      "postal_code": "35000",
      "country_code": "TH",
      "latitude": 15.7953,
      "longitude": 104.1494,
      "admin_name1": "Yasothon"
    },
    {
      "place_name": "Thai Chaloen",
      "postal_code": "35120",
      "country_code": "TH",
      "latitude": 15.6633,
      "longitude": 104.3067,
      "admin_name1": "Yasothon"
    },
    {
      "place_name": "Muang Khonkaen",
      "postal_code": "40000",
      "country_code": "TH",
      "latitude": 16.2931,
      "longitude": 102.6157,
      "admin_name1": "Khon Kaen"
    },
    {
      "place_name": "Kumphawapi",
      "postal_code": "41110",
      "country_code": "TH",
      "latitude": 17.1336,
      "longitude": 102.9675,
      "admin_name1": "Udon Thani"
    },
    {
      "place_name": "Kae Dam",
      "postal_code": "44190",
      "country_code": "TH",
      "latitude": 16.0167,
      "longitude": 103.3833,
      "admin_name1": "Maha Sarakham"
    },
    {
      "place_name": "Kaset Wisai",
      "postal_code": "45150",
      "country_code": "TH",
      "latitude": 15.65,
      "longitude": 103.5833,
      "admin_name1": "Roi Et"
    },
    {
      "place_name": "Ban Muang",
      "postal_code": "47140",
      "country_code": "TH",
      "latitude": 17.85,
      "longitude": 103.5833,
      "admin_name1": "Sakon Nakhon"
    },
    {
      "place_name": "Mae Chaem",
      "postal_code": "50270",
      "country_code": "TH",
      "latitude": 18.5014,
      "longitude": 98.3611,
      "admin_name1": "Chiang Mai"
    },
    {
      "place_name": "Tron",
      "postal_code": "53140",
      "country_code": "TH",
      "latitude": 17.4778,
      "longitude": 100.1189,
      "admin_name1": "Uttaradit"
    },
    {
      "place_name": "Mae La Noi",
      "postal_code": "58120",
      "country_code": "TH",
      "latitude": 18.3814,
      "longitude": 97.9356,
      "admin_name1": "Mae Hong Son"
    },
    {
      "place_name": "Lan Sak",
      "postal_code": "61160",
      "country_code": "TH",
      "latitude": 15.4167,
      "longitude": 99.6833,
      "admin_name1": "Uthai Thani"
    },
    {
      "place_name": "Muang Kamphaeng Phet",
      "postal_code": "62000",
      "country_code": "TH",
      "latitude": 16.31,
      "longitude": 99.68,
      "admin_name1": "Kamphaeng Phet"
    },
    {
      "place_name": "Phran Kratai",
      "postal_code": "62110",
      "country_code": "TH",
      "latitude": 16.6667,
      "longitude": 99.6,
      "admin_name1": "Kamphaeng Phet"
    },
    {
      "place_name": "Khanu Woralaksaburi",
      "postal_code": "62130",
      "country_code": "TH",
      "latitude": 16.0667,
      "longitude": 99.8667,
      "admin_name1": "Kamphaeng Phet"
    },
    {
      "place_name": "Bung Samakki",
      "postal_code": "62210",
      "country_code": "TH",
      "latitude": 16.31,
      "longitude": 99.68,
      "admin_name1": "Kamphaeng Phet"
    },
    {
      "place_name": "Khamphaeng Saen",
      "postal_code": "73140",
      "country_code": "TH",
      "latitude": 13.8667,
      "longitude": 100.1917,
      "admin_name1": "Nakhon Pathom"
    },
    {
      "place_name": "La-Un",
      "postal_code": "85130",
      "country_code": "TH",
      "latitude": 10.1167,
      "longitude": 98.7667,
      "admin_name1": "Ranong"
    },
    {
      "place_name": "Na Yong",
      "postal_code": "92170",
      "country_code": "TH",
      "latitude": 7.5667,
      "longitude": 99.6833,
      "admin_name1": "Trang"
    },
    {
      "place_name": "Sri Nakharin",
      "postal_code": "93000",
      "country_code": "TH",
      "latitude": 7.4944,
      "longitude": 100.0583,
      "admin_name1": "Phatthalung"
    },
    {
      "place_name": "Thep Satthit",
      "postal_code": "36230",
      "country_code": "TH",
      "latitude": 15.9167,
      "longitude": 101.7833,
      "admin_name1": "Chaiyaphum"
    },
    {
      "place_name": "Kut Chab",
      "postal_code": "41250",
      "country_code": "TH",
      "latitude": 17.1336,
      "longitude": 102.9675,
      "admin_name1": "Udon Thani"
    },
    {
      "place_name": "Wang Sam Mo",
      "postal_code": "41380",
      "country_code": "TH",
      "latitude": 17.1336,
      "longitude": 102.9675,
      "admin_name1": "Udon Thani"
    },
    {
      "place_name": "Chuan Chum",
      "postal_code": "44160",
      "country_code": "TH",
      "latitude": 16.4167,
      "longitude": 103.1,
      "admin_name1": "Maha Sarakham"
    },
    {
      "place_name": "At Samat",
      "postal_code": "45160",
      "country_code": "TH",
      "latitude": 15.8594,
      "longitude": 103.8597,
      "admin_name1": "Roi Et"
    },
    {
      "place_name": "Si Satchanalai",
      "postal_code": "64130",
      "country_code": "TH",
      "latitude": 17.5167,
      "longitude": 99.7667,
      "admin_name1": "Sukhothai"
    },
    {
      "place_name": "Kong Krailat",
      "postal_code": "64170",
      "country_code": "TH",
      "latitude": 16.9333,
      "longitude": 99.9667,
      "admin_name1": "Sukhothai"
    },
    {
      "place_name": "Ban Ka",
      "postal_code": "70180",
      "country_code": "TH",
      "latitude": 13.5167,
      "longitude": 99.35,
      "admin_name1": "Ratchaburi"
    },
    {
      "place_name": "Muang Kanchanaburi",
      "postal_code": "71000",
      "country_code": "TH",
      "latitude": 14.2617,
      "longitude": 99.4036,
      "admin_name1": "Kanchanaburi"
    },
    {
      "place_name": "Nong Phai",
      "postal_code": "67140",
      "country_code": "TH",
      "latitude": 15.9825,
      "longitude": 101.0622,
      "admin_name1": "Phetchaburi"
    },
    {
      "place_name": "Tha Yang",
      "postal_code": "76130",
      "country_code": "TH",
      "latitude": 12.9667,
      "longitude": 100.9,
      "admin_name1": "Phetchaburi"
    },
    {
      "place_name": "Thai Muang",
      "postal_code": "82120",
      "country_code": "TH",
      "latitude": 8.5333,
      "longitude": 98.3,
      "admin_name1": "Phang Nga"
    },
    {
      "place_name": "Phanom",
      "postal_code": "84250",
      "country_code": "TH",
      "latitude": 8.8167,
      "longitude": 98.8333,
      "admin_name1": "Surat Thani"
    },
    {
      "place_name": "Si Ban Phot",
      "postal_code": "93190",
      "country_code": "TH",
      "latitude": 7.7167,
      "longitude": 99.9333,
      "admin_name1": "Phatthalung"
    },
    {
      "place_name": "Samphanthawong",
      "postal_code": "10100",
      "country_code": "TH",
      "latitude": 13.7333,
      "longitude": 100.5,
      "admin_name1": "Bangkok"
    },
    {
      "place_name": "Sai Noi",
      "postal_code": "11150",
      "country_code": "TH",
      "latitude": 13.9667,
      "longitude": 100.3167,
      "admin_name1": "Nonthaburi"
    },
    {
      "place_name": "Sam Khok",
      "postal_code": "12160",
      "country_code": "TH",
      "latitude": 14.05,
      "longitude": 100.55,
      "admin_name1": "Pathum Thani"
    },
    {
      "place_name": "Nong Yai",
      "postal_code": "20190",
      "country_code": "TH",
      "latitude": 13.15,
      "longitude": 101.3833,
      "admin_name1": "Chon Buri"
    },
    {
      "place_name": "Khao Chamao",
      "postal_code": "21110",
      "country_code": "TH",
      "latitude": 12.7833,
      "longitude": 101.65,
      "admin_name1": "Rayong"
    },
    {
      "place_name": "Pluak Daeng",
      "postal_code": "21140",
      "country_code": "TH",
      "latitude": 12.9667,
      "longitude": 101.2167,
      "admin_name1": "Rayong"
    },
    {
      "place_name": "Soi Dao",
      "postal_code": "22180",
      "country_code": "TH",
      "latitude": 12.6528,
      "longitude": 102.1222,
      "admin_name1": "Chanthaburi"
    },
    {
      "place_name": "Sanam Chai Khet",
      "postal_code": "24160",
      "country_code": "TH",
      "latitude": 13.65,
      "longitude": 101.45,
      "admin_name1": "Chachoengsao"
    },
    {
      "place_name": "Ban Na",
      "postal_code": "26110",
      "country_code": "TH",
      "latitude": 14.2592,
      "longitude": 101.0683,
      "admin_name1": "Nakhon Nayok"
    },
    {
      "place_name": "Bua Lai",
      "postal_code": "30120",
      "country_code": "TH",
      "latitude": 15.5833,
      "longitude": 102.4167,
      "admin_name1": "Nakhon Ratchasima"
    },
    {
      "place_name": "Thung Khru",
      "postal_code": "10140",
      "country_code": "TH",
      "latitude": 13.6833,
      "longitude": 100.5,
      "admin_name1": "Bangkok"
    },
    {
      "place_name": "Bang Khun Thian",
      "postal_code": "10150",
      "country_code": "TH",
      "latitude": 13.7,
      "longitude": 100.4667,
      "admin_name1": "Bangkok"
    },
    {
      "place_name": "Bang Su",
      "postal_code": "10800",
      "country_code": "TH",
      "latitude": 13.8,
      "longitude": 100.5333,
      "admin_name1": "Bangkok"
    },
    {
      "place_name": "Phra Pradaeng",
      "postal_code": "10130",
      "country_code": "TH",
      "latitude": 13.6667,
      "longitude": 100.5333,
      "admin_name1": "Samut Prakan"
    },
    {
      "place_name": "Sa Bot",
      "postal_code": "15240",
      "country_code": "TH",
      "latitude": 15.35,
      "longitude": 100.8167,
      "admin_name1": "Lopburi"
    },
    {
      "place_name": "Si Racha",
      "postal_code": "20110",
      "country_code": "TH",
      "latitude": 13.1667,
      "longitude": 100.9333,
      "admin_name1": "Chon Buri"
    },
    {
      "place_name": "Ko Chan",
      "postal_code": "20240",
      "country_code": "TH",
      "latitude": 13.2667,
      "longitude": 101.4333,
      "admin_name1": "Chon Buri"
    },
    {
      "place_name": "Ban Khai",
      "postal_code": "21120",
      "country_code": "TH",
      "latitude": 12.7833,
      "longitude": 101.3,
      "admin_name1": "Rayong"
    },
    {
      "place_name": "Pong Nam Ron",
      "postal_code": "22140",
      "country_code": "TH",
      "latitude": 12.9167,
      "longitude": 102.3833,
      "admin_name1": "Chanthaburi"
    },
    {
      "place_name": "Khlong Hat",
      "postal_code": "27260",
      "country_code": "TH",
      "latitude": 13.8442,
      "longitude": 102.6536,
      "admin_name1": "Sa Kaeo"
    },
    {
      "place_name": "Non Sung",
      "postal_code": "30160",
      "country_code": "TH",
      "latitude": 15.1833,
      "longitude": 102.2667,
      "admin_name1": "Nakhon Ratchasima"
    },
    {
      "place_name": "Lum Thamenchai",
      "postal_code": "30270",
      "country_code": "TH",
      "latitude": 15.3167,
      "longitude": 102.7667,
      "admin_name1": "Nakhon Ratchasima"
    },
    {
      "place_name": "Ban Dan",
      "postal_code": "31000",
      "country_code": "TH",
      "latitude": 13.9167,
      "longitude": 102.0167,
      "admin_name1": "Buri Ram"
    },
    {
      "place_name": "Cham Ni",
      "postal_code": "31110",
      "country_code": "TH",
      "latitude": 14.6083,
      "longitude": 102.6917,
      "admin_name1": "Buri Ram"
    },
    {
      "place_name": "Samrong",
      "postal_code": "34360",
      "country_code": "TH",
      "latitude": 13.65,
      "longitude": 100.5833,
      "admin_name1": "Ubon Ratchathani"
    },
    {
      "place_name": "Phu Khieo",
      "postal_code": "36110",
      "country_code": "TH",
      "latitude": 16.3667,
      "longitude": 102.1333,
      "admin_name1": "Chaiyaphum"
    },
    {
      "place_name": "Na Klang",
      "postal_code": "39170",
      "country_code": "TH",
      "latitude": 17.2894,
      "longitude": 102.2133,
      "admin_name1": "Nong Bua Lam Phu"
    },
    {
      "place_name": "Nong Han",
      "postal_code": "41130",
      "country_code": "TH",
      "latitude": 17.1336,
      "longitude": 102.9675,
      "admin_name1": "Udon Thani"
    },
    {
      "place_name": "Na Yung",
      "postal_code": "41380",
      "country_code": "TH",
      "latitude": 17.1336,
      "longitude": 102.9675,
      "admin_name1": "Udon Thani"
    },
    {
      "place_name": "Kosum Phisai",
      "postal_code": "44140",
      "country_code": "TH",
      "latitude": 16.2167,
      "longitude": 103.0167,
      "admin_name1": "Maha Sarakham"
    },
    {
      "place_name": "Pathum Rat",
      "postal_code": "45190",
      "country_code": "TH",
      "latitude": 15.6333,
      "longitude": 103.35,
      "admin_name1": "Roi Et"
    },
    {
      "place_name": "Kuchinarai",
      "postal_code": "46110",
      "country_code": "TH",
      "latitude": 16.5333,
      "longitude": 104.0667,
      "admin_name1": "Kalasin"
    },
    {
      "place_name": "Na Ku",
      "postal_code": "46160",
      "country_code": "TH",
      "latitude": 16.7,
      "longitude": 104.1,
      "admin_name1": "Kalasin"
    },
    {
      "place_name": "Pon Nakaew",
      "postal_code": "47230",
      "country_code": "TH",
      "latitude": 17.3458,
      "longitude": 103.9792,
      "admin_name1": "Sakon Nakhon"
    },
    {
      "place_name": "Muang Mukdahan",
      "postal_code": "49000",
      "country_code": "TH",
      "latitude": 16.4792,
      "longitude": 104.6583,
      "admin_name1": "Mukdahan"
    },
    {
      "place_name": "Omkoi",
      "postal_code": "50310",
      "country_code": "TH",
      "latitude": 17.8,
      "longitude": 98.3667,
      "admin_name1": "Chiang Mai"
    },
    {
      "place_name": "Thung Hua Chang",
      "postal_code": "51160",
      "country_code": "TH",
      "latitude": 18.0,
      "longitude": 99.0333,
      "admin_name1": "Lamphun"
    },
    {
      "place_name": "Pong",
      "postal_code": "56140",
      "country_code": "TH",
      "latitude": 19.1667,
      "longitude": 100.2833,
      "admin_name1": "Phayao"
    },
    {
      "place_name": "Phayuha Khiri",
      "postal_code": "60130",
      "country_code": "TH",
      "latitude": 15.45,
      "longitude": 100.1333,
      "admin_name1": "Nakhon Sawan"
    },
    {
      "place_name": "Mae Wong",
      "postal_code": "60150",
      "country_code": "TH",
      "latitude": 15.7506,
      "longitude": 99.7903,
      "admin_name1": "Nakhon Sawan"
    },
    {
      "place_name": "Tha Tako",
      "postal_code": "60160",
      "country_code": "TH",
      "latitude": 15.6333,
      "longitude": 100.4833,
      "admin_name1": "Nakhon Sawan"
    },
    {
      "place_name": "Sawang Arom",
      "postal_code": "61150",
      "country_code": "TH",
      "latitude": 15.6167,
      "longitude": 99.8667,
      "admin_name1": "Uthai Thani"
    },
    {
      "place_name": "Muang Phitsanulok",
      "postal_code": "65000",
      "country_code": "TH",
      "latitude": 16.8333,
      "longitude": 100.25,
      "admin_name1": "Phitsanulok"
    },
    {
      "place_name": "Bang Pla Ma",
      "postal_code": "72150",
      "country_code": "TH",
      "latitude": 14.4228,
      "longitude": 100.1381,
      "admin_name1": "Suphanburi"
    },
    {
      "place_name": "Cha-Am",
      "postal_code": "76120",
      "country_code": "TH",
      "latitude": 12.8,
      "longitude": 99.9667,
      "admin_name1": "Phetchaburi"
    },
    {
      "place_name": "Lan Saka",
      "postal_code": "80230",
      "country_code": "TH",
      "latitude": 8.35,
      "longitude": 99.8,
      "admin_name1": "Nakhon Si Thammarat"
    },
    {
      "place_name": "Bang Khan",
      "postal_code": "80360",
      "country_code": "TH",
      "latitude": 8.0,
      "longitude": 99.5333,
      "admin_name1": "Nakhon Si Thammarat"
    },
    {
      "place_name": "Muang Songkhla",
      "postal_code": "90000",
      "country_code": "TH",
      "latitude": 7.0167,
      "longitude": 100.6619,
      "admin_name1": "Songkhla"
    },
    {
      "place_name": "Khuan Ka Long",
      "postal_code": "91130",
      "country_code": "TH",
      "latitude": 6.8667,
      "longitude": 100.0167,
      "admin_name1": "Satun"
    },
    {
      "place_name": "Jao I Rong",
      "postal_code": "96130",
      "country_code": "TH",
      "latitude": 6.2908,
      "longitude": 101.7119,
      "admin_name1": "Narathiwat"
    },
    {
      "place_name": "Bacho",
      "postal_code": "96170",
      "country_code": "TH",
      "latitude": 6.6167,
      "longitude": 101.65,
      "admin_name1": "Narathiwat"
    },
    {
      "place_name": "Pak Kret",
      "postal_code": "11120",
      "country_code": "TH",
      "latitude": 13.9167,
      "longitude": 100.5,
      "admin_name1": "Nonthaburi"
    },
    {
      "place_name": "Bang Ban",
      "postal_code": "13250",
      "country_code": "TH",
      "latitude": 14.4167,
      "longitude": 100.4667,
      "admin_name1": "Phra Nakhon Si Ayutthaya"
    },
    {
      "place_name": "Ban Bung",
      "postal_code": "20170",
      "country_code": "TH",
      "latitude": 13.0667,
      "longitude": 101.0,
      "admin_name1": "Chon Buri"
    },
    {
      "place_name": "Khao Saming",
      "postal_code": "23130",
      "country_code": "TH",
      "latitude": 12.35,
      "longitude": 102.45,
      "admin_name1": "Trat"
    },
    {
      "place_name": "Dan Khun Thot",
      "postal_code": "30210",
      "country_code": "TH",
      "latitude": 15.2064,
      "longitude": 101.8058,
      "admin_name1": "Nakhon Ratchasima"
    },
    {
      "place_name": "Kham Sakae Saeng",
      "postal_code": "30290",
      "country_code": "TH",
      "latitude": 15.3333,
      "longitude": 102.1833,
      "admin_name1": "Nakhon Ratchasima"
    },
    {
      "place_name": "Non Daeng",
      "postal_code": "30360",
      "country_code": "TH",
      "latitude": 15.0,
      "longitude": 102.3167,
      "admin_name1": "Nakhon Ratchasima"
    },
    {
      "place_name": "Non Suwan",
      "postal_code": "31110",
      "country_code": "TH",
      "latitude": 14.5833,
      "longitude": 102.5833,
      "admin_name1": "Buri Ram"
    },
    {
      "place_name": "Uthumphon Phisai",
      "postal_code": "33120",
      "country_code": "TH",
      "latitude": 15.1133,
      "longitude": 104.1408,
      "admin_name1": "Si Sa Ket"
    },
    {
      "place_name": "Kanthararom",
      "postal_code": "33130",
      "country_code": "TH",
      "latitude": 15.1,
      "longitude": 104.5833,
      "admin_name1": "Si Sa Ket"
    },
    {
      "place_name": "Rasi Salai",
      "postal_code": "33160",
      "country_code": "TH",
      "latitude": 15.3333,
      "longitude": 104.15,
      "admin_name1": "Si Sa Ket"
    },
    {
      "place_name": "Phayu",
      "postal_code": "33230",
      "country_code": "TH",
      "latitude": 14.9809,
      "longitude": 104.3381,
      "admin_name1": "Si Sa Ket"
    },
    {
      "place_name": "Don Moddang",
      "postal_code": "34000",
      "country_code": "TH",
      "latitude": 14.7861,
      "longitude": 103.9111,
      "admin_name1": "Ubon Ratchathani"
    },
    {
      "place_name": "Sai Mun",
      "postal_code": "35170",
      "country_code": "TH",
      "latitude": 15.95,
      "longitude": 104.2167,
      "admin_name1": "Yasothon"
    },
    {
      "place_name": "Nong Nakham",
      "postal_code": "40150",
      "country_code": "TH",
      "latitude": 16.65,
      "longitude": 102.3833,
      "admin_name1": "Khon Kaen"
    },
    {
      "place_name": "Khok Phochai",
      "postal_code": "40160",
      "country_code": "TH",
      "latitude": 16.1167,
      "longitude": 102.55,
      "admin_name1": "Khon Kaen"
    },
    {
      "place_name": "Wang Saphung",
      "postal_code": "42130",
      "country_code": "TH",
      "latitude": 17.3,
      "longitude": 101.7667,
      "admin_name1": "Loei"
    },
    {
      "place_name": "Bung Khong Long",
      "postal_code": "43220",
      "country_code": "TH",
      "latitude": 17.95,
      "longitude": 104.05,
      "admin_name1": "Nong Khai"
    },
    {
      "place_name": "Kantharawichai",
      "postal_code": "44150",
      "country_code": "TH",
      "latitude": 16.3167,
      "longitude": 103.3,
      "admin_name1": "Maha Sarakham"
    },
    {
      "place_name": "Chiang Khaw",
      "postal_code": "45000",
      "country_code": "TH",
      "latitude": 16.3833,
      "longitude": 103.2,
      "admin_name1": "Roi Et"
    },
    {
      "place_name": "Nong Hi",
      "postal_code": "45140",
      "country_code": "TH",
      "latitude": 15.6167,
      "longitude": 103.9833,
      "admin_name1": "Roi Et"
    },
    {
      "place_name": "Huai Phung",
      "postal_code": "46240",
      "country_code": "TH",
      "latitude": 16.65,
      "longitude": 103.9,
      "admin_name1": "Kalasin"
    },
    {
      "place_name": "Phang Khon",
      "postal_code": "47160",
      "country_code": "TH",
      "latitude": 17.3833,
      "longitude": 103.7167,
      "admin_name1": "Sakon Nakhon"
    },
    {
      "place_name": "Song Dao",
      "postal_code": "47190",
      "country_code": "TH",
      "latitude": 17.4167,
      "longitude": 103.5333,
      "admin_name1": "Sakon Nakhon"
    },
    {
      "place_name": "Doi Saket",
      "postal_code": "50220",
      "country_code": "TH",
      "latitude": 18.8744,
      "longitude": 99.1356,
      "admin_name1": "Chiang Mai"
    },
    {
      "place_name": "Mae Tha",
      "postal_code": "51140",
      "country_code": "TH",
      "latitude": 18.4614,
      "longitude": 99.1361,
      "admin_name1": "Lamphun"
    },
    {
      "place_name": "Thoen",
      "postal_code": "52160",
      "country_code": "TH",
      "latitude": 17.6025,
      "longitude": 99.2139,
      "admin_name1": "Lampang"
    },
    {
      "place_name": "Sung Men",
      "postal_code": "54130",
      "country_code": "TH",
      "latitude": 18.05,
      "longitude": 100.1167,
      "admin_name1": "Phrae"
    },
    {
      "place_name": "Na Noi",
      "postal_code": "55150",
      "country_code": "TH",
      "latitude": 18.3167,
      "longitude": 100.7167,
      "admin_name1": "Nan"
    },
    {
      "place_name": "Phaya Mengrai",
      "postal_code": "57290",
      "country_code": "TH",
      "latitude": 19.8833,
      "longitude": 99.9167,
      "admin_name1": "Chiang Rai"
    },
    {
      "place_name": "Khun Tan",
      "postal_code": "57340",
      "country_code": "TH",
      "latitude": 19.9048,
      "longitude": 99.9217,
      "admin_name1": "Chiang Rai"
    },
    {
      "place_name": "Ban Tak",
      "postal_code": "63120",
      "country_code": "TH",
      "latitude": 17.0406,
      "longitude": 99.0631,
      "admin_name1": "Tak"
    },
    {
      "place_name": "Thung Saliam",
      "postal_code": "64150",
      "country_code": "TH",
      "latitude": 17.3136,
      "longitude": 99.5589,
      "admin_name1": "Sukhothai"
    },
    {
      "place_name": "Noen Maprang",
      "postal_code": "65190",
      "country_code": "TH",
      "latitude": 16.5667,
      "longitude": 100.6333,
      "admin_name1": "Phitsanulok"
    },
    {
      "place_name": "Bung Norong",
      "postal_code": "66130",
      "country_code": "TH",
      "latitude": 16.0833,
      "longitude": 100.2667,
      "admin_name1": "Phichit"
    },
    {
      "place_name": "Ron Phibun",
      "postal_code": "80130",
      "country_code": "TH",
      "latitude": 8.15,
      "longitude": 99.85,
      "admin_name1": "Nakhon Si Thammarat"
    },
    {
      "place_name": "Muang Phang Nga",
      "postal_code": "82000",
      "country_code": "TH",
      "latitude": 8.6944,
      "longitude": 98.4389,
      "admin_name1": "Phang Nga"
    },
    {
      "place_name": "Muang Phuket",
      "postal_code": "83000",
      "country_code": "TH",
      "latitude": 7.95,
      "longitude": 98.3583,
      "admin_name1": "Phuket"
    },
    {
      "place_name": "Hat Yai",
      "postal_code": "90110",
      "country_code": "TH",
      "latitude": 7.0167,
      "longitude": 100.4667,
      "admin_name1": "Songkhla"
    },
    {
      "place_name": "Mae Lan",
      "postal_code": "94180",
      "country_code": "TH",
      "latitude": 6.6819,
      "longitude": 101.2714,
      "admin_name1": "Pattani"
    },
    {
      "place_name": "Muang Narathiwat",
      "postal_code": "96000",
      "country_code": "TH",
      "latitude": 6.25,
      "longitude": 102.0333,
      "admin_name1": "Narathiwat"
    },
    {
      "place_name": "Yi-Ngo",
      "postal_code": "96180",
      "country_code": "TH",
      "latitude": 6.2014,
      "longitude": 101.8103,
      "admin_name1": "Narathiwat"
    },
    {
      "place_name": "Bang Kholame",
      "postal_code": "10120",
      "country_code": "TH",
      "latitude": 13.7083,
      "longitude": 100.4562,
      "admin_name1": "Bangkok"
    },
    {
      "place_name": "Bang Rak",
      "postal_code": "10500",
      "country_code": "TH",
      "latitude": 13.7333,
      "longitude": 100.5333,
      "admin_name1": "Bangkok"
    },
    {
      "place_name": "Maha Rat",
      "postal_code": "13150",
      "country_code": "TH",
      "latitude": 14.5333,
      "longitude": 100.5333,
      "admin_name1": "Phra Nakhon Si Ayutthaya"
    },
    {
      "place_name": "Khok Samrong",
      "postal_code": "15120",
      "country_code": "TH",
      "latitude": 15.0644,
      "longitude": 100.7228,
      "admin_name1": "Lopburi"
    },
    {
      "place_name": "Khlung",
      "postal_code": "22110",
      "country_code": "TH",
      "latitude": 12.45,
      "longitude": 102.2333,
      "admin_name1": "Chanthaburi"
    },
    {
      "place_name": "Muang Trat",
      "postal_code": "23000",
      "country_code": "TH",
      "latitude": 12.2131,
      "longitude": 102.5776,
      "admin_name1": "Trat"
    },
    {
      "place_name": "Bang Pakong",
      "postal_code": "24130",
      "country_code": "TH",
      "latitude": 13.55,
      "longitude": 101.0,
      "admin_name1": "Chachoengsao"
    },
    {
      "place_name": "Kham Thale So",
      "postal_code": "30280",
      "country_code": "TH",
      "latitude": 14.9747,
      "longitude": 101.985,
      "admin_name1": "Nakhon Ratchasima"
    },
    {
      "place_name": "Krasang",
      "postal_code": "31160",
      "country_code": "TH",
      "latitude": 14.9167,
      "longitude": 103.3,
      "admin_name1": "Buri Ram"
    },
    {
      "place_name": "Po Sri Suwan",
      "postal_code": "33120",
      "country_code": "TH",
      "latitude": 15.1133,
      "longitude": 104.1408,
      "admin_name1": "Si Sa Ket"
    },
    {
      "place_name": "Na Year",
      "postal_code": "34160",
      "country_code": "TH",
      "latitude": 15.6417,
      "longitude": 105.225,
      "admin_name1": "Ubon Ratchathani"
    },
    {
      "place_name": "Na Chaluai",
      "postal_code": "34280",
      "country_code": "TH",
      "latitude": 14.2,
      "longitude": 103.6583,
      "admin_name1": "Ubon Ratchathani"
    },
    {
      "place_name": "Ban Khwao",
      "postal_code": "36170",
      "country_code": "TH",
      "latitude": 15.7633,
      "longitude": 101.9131,
      "admin_name1": "Chaiyaphum"
    },
    {
      "place_name": "Nong Bua Rawe",
      "postal_code": "36250",
      "country_code": "TH",
      "latitude": 15.75,
      "longitude": 101.7667,
      "admin_name1": "Chaiyaphum"
    },
    {
      "place_name": "Phakdi Chumpon",
      "postal_code": "36260",
      "country_code": "TH",
      "latitude": 15.9167,
      "longitude": 101.7833,
      "admin_name1": "Chaiyaphum"
    },
    {
      "place_name": "Pak Khat",
      "postal_code": "43190",
      "country_code": "TH",
      "latitude": 18.3,
      "longitude": 103.3,
      "admin_name1": "Nong Khai"
    },
    {
      "place_name": "Phon Thong",
      "postal_code": "45110",
      "country_code": "TH",
      "latitude": 16.1167,
      "longitude": 103.8333,
      "admin_name1": "Roi Et"
    },
    {
      "place_name": "Thawatchaburi",
      "postal_code": "45170",
      "country_code": "TH",
      "latitude": 16.1167,
      "longitude": 103.8333,
      "admin_name1": "Roi Et"
    },
    {
      "place_name": "Phon Sai",
      "postal_code": "45240",
      "country_code": "TH",
      "latitude": 15.4814,
      "longitude": 103.9944,
      "admin_name1": "Roi Et"
    },
    {
      "place_name": "Khao Wong",
      "postal_code": "46160",
      "country_code": "TH",
      "latitude": 16.7,
      "longitude": 104.1,
      "admin_name1": "Kalasin"
    },
    {
      "place_name": "Huai Mek",
      "postal_code": "46170",
      "country_code": "TH",
      "latitude": 16.6,
      "longitude": 103.2167,
      "admin_name1": "Kalasin"
    },
    {
      "place_name": "Na Kae",
      "postal_code": "48130",
      "country_code": "TH",
      "latitude": 16.9667,
      "longitude": 104.5,
      "admin_name1": "Nakhon Phanom"
    },
    {
      "place_name": "Si Songkhram",
      "postal_code": "48150",
      "country_code": "TH",
      "latitude": 17.6333,
      "longitude": 104.25,
      "admin_name1": "Nakhon Phanom"
    },
    {
      "place_name": "Soem Ngam",
      "postal_code": "52210",
      "country_code": "TH",
      "latitude": 18.0333,
      "longitude": 99.2667,
      "admin_name1": "Lampang"
    },
    {
      "place_name": "Rong Kwang",
      "postal_code": "54140",
      "country_code": "TH",
      "latitude": 18.35,
      "longitude": 100.3167,
      "admin_name1": "Phrae"
    },
    {
      "place_name": "Phu Piang",
      "postal_code": "55000",
      "country_code": "TH",
      "latitude": 18.7833,
      "longitude": 100.7833,
      "admin_name1": "Nan"
    },
    {
      "place_name": "Wiang Kaen",
      "postal_code": "57310",
      "country_code": "TH",
      "latitude": 19.9048,
      "longitude": 99.9217,
      "admin_name1": "Chiang Rai"
    },
    {
      "place_name": "Sam Ngao",
      "postal_code": "63130",
      "country_code": "TH",
      "latitude": 17.2119,
      "longitude": 99.0578,
      "admin_name1": "Tak"
    },
    {
      "place_name": "Khanom",
      "postal_code": "80210",
      "country_code": "TH",
      "latitude": 9.2,
      "longitude": 99.8667,
      "admin_name1": "Nakhon Si Thammarat"
    },
    {
      "place_name": "Lamai Beach",
      "postal_code": "84310",
      "country_code": "TH",
      "latitude": 9.4659,
      "longitude": 100.045,
      "admin_name1": "Nakhon Si Thammarat"
    },
    {
      "place_name": "Plai Phraya",
      "postal_code": "81160",
      "country_code": "TH",
      "latitude": 8.5833,
      "longitude": 98.8667,
      "admin_name1": "Krabi"
    },
    {
      "place_name": "Muang Ranong",
      "postal_code": "85000",
      "country_code": "TH",
      "latitude": 9.9667,
      "longitude": 98.6333,
      "admin_name1": "Ranong"
    },
    {
      "place_name": "Lang Suan",
      "postal_code": "86110",
      "country_code": "TH",
      "latitude": 9.95,
      "longitude": 99.0667,
      "admin_name1": "Chumphon"
    },
    {
      "place_name": "Rattapum",
      "postal_code": "90180",
      "country_code": "TH",
      "latitude": 7.0694,
      "longitude": 100.6,
      "admin_name1": "Songkhla"
    },
    {
      "place_name": "Kuan Niang",
      "postal_code": "90220",
      "country_code": "TH",
      "latitude": 6.7,
      "longitude": 101.0333,
      "admin_name1": "Songkhla"
    },
    {
      "place_name": "Manung",
      "postal_code": "91130",
      "country_code": "TH",
      "latitude": 6.8667,
      "longitude": 100.0167,
      "admin_name1": "Satun"
    },
    {
      "place_name": "Yaring",
      "postal_code": "94150",
      "country_code": "TH",
      "latitude": 6.8617,
      "longitude": 101.365,
      "admin_name1": "Pattani"
    },
    {
      "place_name": "Khanna Yao",
      "postal_code": "10230",
      "country_code": "TH",
      "latitude": 14.3333,
      "longitude": 99.9167,
      "admin_name1": "Bangkok"
    },
    {
      "place_name": "Bang Rachan",
      "postal_code": "16130",
      "country_code": "TH",
      "latitude": 14.8833,
      "longitude": 100.3167,
      "admin_name1": "Sing Buri"
    },
    {
      "place_name": "Muang Chainat",
      "postal_code": "17000",
      "country_code": "TH",
      "latitude": 15.1833,
      "longitude": 100.1333,
      "admin_name1": "Chai Nat"
    },
    {
      "place_name": "Wihan Daeng",
      "postal_code": "18150",
      "country_code": "TH",
      "latitude": 14.35,
      "longitude": 101.0,
      "admin_name1": "Saraburi"
    },
    {
      "place_name": "Muang Chanthaburi",
      "postal_code": "22000",
      "country_code": "TH",
      "latitude": 12.6528,
      "longitude": 102.1222,
      "admin_name1": "Chanthaburi"
    },
    {
      "place_name": "Makham",
      "postal_code": "22150",
      "country_code": "TH",
      "latitude": 12.6667,
      "longitude": 102.2,
      "admin_name1": "Chanthaburi"
    },
    {
      "place_name": "Laem Ngob",
      "postal_code": "23120",
      "country_code": "TH",
      "latitude": 12.1667,
      "longitude": 102.4333,
      "admin_name1": "Trat"
    },
    {
      "place_name": "Ko Chang",
      "postal_code": "23120",
      "country_code": "TH",
      "latitude": 12.1667,
      "longitude": 102.4333,
      "admin_name1": "Trat"
    },
    {
      "place_name": "Muang Chachoengsao",
      "postal_code": "24000",
      "country_code": "TH",
      "latitude": 13.6861,
      "longitude": 101.1944,
      "admin_name1": "Chachoengsao"
    },
    {
      "place_name": "Ongkarak",
      "postal_code": "26120",
      "country_code": "TH",
      "latitude": 14.2114,
      "longitude": 101.1653,
      "admin_name1": "Nakhon Nayok"
    },
    {
      "place_name": "Khon Buri",
      "postal_code": "30250",
      "country_code": "TH",
      "latitude": 14.5167,
      "longitude": 102.25,
      "admin_name1": "Nakhon Ratchasima"
    },
    {
      "place_name": "Soeng Sang",
      "postal_code": "30330",
      "country_code": "TH",
      "latitude": 14.4167,
      "longitude": 102.4833,
      "admin_name1": "Nakhon Ratchasima"
    },
    {
      "place_name": "Det Udom",
      "postal_code": "34160",
      "country_code": "TH",
      "latitude": 15.6417,
      "longitude": 105.225,
      "admin_name1": "Ubon Ratchathani"
    },
    {
      "place_name": "Buntharik",
      "postal_code": "34230",
      "country_code": "TH",
      "latitude": 14.2,
      "longitude": 103.6583,
      "admin_name1": "Ubon Ratchathani"
    },
    {
      "place_name": "Nam Yuen",
      "postal_code": "34260",
      "country_code": "TH",
      "latitude": 12.9167,
      "longitude": 102.0333,
      "admin_name1": "Ubon Ratchathani"
    },
    {
      "place_name": "Kaset Sombun",
      "postal_code": "36120",
      "country_code": "TH",
      "latitude": 16.2833,
      "longitude": 101.95,
      "admin_name1": "Chaiyaphum"
    },
    {
      "place_name": "Pibun Rak",
      "postal_code": "41130",
      "country_code": "TH",
      "latitude": 17.1336,
      "longitude": 102.9675,
      "admin_name1": "Udon Thani"
    },
    {
      "place_name": "Phen",
      "postal_code": "41150",
      "country_code": "TH",
      "latitude": 17.1336,
      "longitude": 102.9675,
      "admin_name1": "Udon Thani"
    },
    {
      "place_name": "Si Wilai",
      "postal_code": "43210",
      "country_code": "TH",
      "latitude": 17.95,
      "longitude": 104.05,
      "admin_name1": "Nong Khai"
    },
    {
      "place_name": "Nong Phok",
      "postal_code": "45210",
      "country_code": "TH",
      "latitude": 15.649,
      "longitude": 103.8556,
      "admin_name1": "Roi Et"
    },
    {
      "place_name": "Pho Chai",
      "postal_code": "45230",
      "country_code": "TH",
      "latitude": 15.649,
      "longitude": 103.8556,
      "admin_name1": "Roi Et"
    },
    {
      "place_name": "Muang Kalasin",
      "postal_code": "46000",
      "country_code": "TH",
      "latitude": 16.4333,
      "longitude": 103.5,
      "admin_name1": "Kalasin"
    },
    {
      "place_name": "Tha Songkhram",
      "postal_code": "48120",
      "country_code": "TH",
      "latitude": 17.65,
      "longitude": 104.2167,
      "admin_name1": "Nakhon Phanom"
    },
    {
      "place_name": "Chae Hom",
      "postal_code": "52120",
      "country_code": "TH",
      "latitude": 18.7022,
      "longitude": 99.5664,
      "admin_name1": "Lampang"
    },
    {
      "place_name": "Mae Phrik",
      "postal_code": "52180",
      "country_code": "TH",
      "latitude": 17.4453,
      "longitude": 99.1222,
      "admin_name1": "Lampang"
    },
    {
      "place_name": "Mae Charim",
      "postal_code": "55170",
      "country_code": "TH",
      "latitude": 18.7167,
      "longitude": 101.0333,
      "admin_name1": "Nan"
    },
    {
      "place_name": "Nong Bua",
      "postal_code": "60110",
      "country_code": "TH",
      "latitude": 15.8667,
      "longitude": 100.5833,
      "admin_name1": "Nakhon Sawan"
    },
    {
      "place_name": "Tha Song Yang",
      "postal_code": "63150",
      "country_code": "TH",
      "latitude": 17.2167,
      "longitude": 98.2333,
      "admin_name1": "Tak"
    },
    {
      "place_name": "Si Nakhon",
      "postal_code": "64180",
      "country_code": "TH",
      "latitude": 17.3333,
      "longitude": 99.95,
      "admin_name1": "Sukhothai"
    },
    {
      "place_name": "Taphan Hin",
      "postal_code": "66110",
      "country_code": "TH",
      "latitude": 16.2167,
      "longitude": 100.4333,
      "admin_name1": "Phichit"
    },
    {
      "place_name": "Lao Khwan",
      "postal_code": "71210",
      "country_code": "TH",
      "latitude": 14.65,
      "longitude": 99.8,
      "admin_name1": "Kanchanaburi"
    },
    {
      "place_name": "Chon Daen",
      "postal_code": "67150",
      "country_code": "TH",
      "latitude": 16.1833,
      "longitude": 100.85,
      "admin_name1": "Phetchaburi"
    },
    {
      "place_name": "Hua Hin",
      "postal_code": "77110",
      "country_code": "TH",
      "latitude": 12.5667,
      "longitude": 99.9667,
      "admin_name1": "Prachuap Khiri Khan"
    },
    {
      "place_name": "Thung Tako",
      "postal_code": "86220",
      "country_code": "TH",
      "latitude": 10.1333,
      "longitude": 99.1167,
      "admin_name1": "Chumphon"
    },
    {
      "place_name": "Yarang",
      "postal_code": "94160",
      "country_code": "TH",
      "latitude": 6.7728,
      "longitude": 101.3133,
      "admin_name1": "Pattani"
    },
    {
      "place_name": "Khlong Samwa",
      "postal_code": "10510",
      "country_code": "TH",
      "latitude": 13.8167,
      "longitude": 100.75,
      "admin_name1": "Bangkok"
    },
    {
      "place_name": "Bangkok Yai",
      "postal_code": "10600",
      "country_code": "TH",
      "latitude": 13.7333,
      "longitude": 100.4833,
      "admin_name1": "Bangkok"
    },
    {
      "place_name": "Muang Nonthaburi",
      "postal_code": "11000",
      "country_code": "TH",
      "latitude": 13.89,
      "longitude": 100.4333,
      "admin_name1": "Nonthaburi"
    },
    {
      "place_name": "Wiset Chai Chan",
      "postal_code": "14110",
      "country_code": "TH",
      "latitude": 14.5833,
      "longitude": 100.35,
      "admin_name1": "Ang Thong"
    },
    {
      "place_name": "Sawaengha",
      "postal_code": "14150",
      "country_code": "TH",
      "latitude": 14.5958,
      "longitude": 100.4208,
      "admin_name1": "Ang Thong"
    },
    {
      "place_name": "Muang Sing Buri",
      "postal_code": "16000",
      "country_code": "TH",
      "latitude": 14.8708,
      "longitude": 100.375,
      "admin_name1": "Sing Buri"
    },
    {
      "place_name": "Manorom",
      "postal_code": "17110",
      "country_code": "TH",
      "latitude": 15.3167,
      "longitude": 100.0833,
      "admin_name1": "Chai Nat"
    },
    {
      "place_name": "Sankhaburi",
      "postal_code": "17140",
      "country_code": "TH",
      "latitude": 15.05,
      "longitude": 100.1667,
      "admin_name1": "Chai Nat"
    },
    {
      "place_name": "Nong Doan",
      "postal_code": "18190",
      "country_code": "TH",
      "latitude": 14.5277,
      "longitude": 100.9066,
      "admin_name1": "Saraburi"
    },
    {
      "place_name": "Ko Kud",
      "postal_code": "23000",
      "country_code": "TH",
      "latitude": 12.2131,
      "longitude": 102.5776,
      "admin_name1": "Trat"
    },
    {
      "place_name": "Ta Takiab",
      "postal_code": "24160",
      "country_code": "TH",
      "latitude": 13.65,
      "longitude": 101.45,
      "admin_name1": "Chachoengsao"
    },
    {
      "place_name": "Benchalak",
      "postal_code": "33110",
      "country_code": "TH",
      "latitude": 14.65,
      "longitude": 104.65,
      "admin_name1": "Si Sa Ket"
    },
    {
      "place_name": "Pa Tiu",
      "postal_code": "35150",
      "country_code": "TH",
      "latitude": 15.8333,
      "longitude": 104.3833,
      "admin_name1": "Yasothon"
    },
    {
      "place_name": "Lua Amnart",
      "postal_code": "37000",
      "country_code": "TH",
      "latitude": 15.7075,
      "longitude": 104.6797,
      "admin_name1": "Amnat Charoen"
    },
    {
      "place_name": "Na Haeo",
      "postal_code": "42170",
      "country_code": "TH",
      "latitude": 17.4833,
      "longitude": 101.0667,
      "admin_name1": "Loei"
    },
    {
      "place_name": "Muang Nong Khai",
      "postal_code": "43000",
      "country_code": "TH",
      "latitude": 18.0501,
      "longitude": 103.3054,
      "admin_name1": "Nong Khai"
    },
    {
      "place_name": "Wapi Pathum",
      "postal_code": "44120",
      "country_code": "TH",
      "latitude": 15.85,
      "longitude": 103.3833,
      "admin_name1": "Maha Sarakham"
    },
    {
      "place_name": "Chaturaphak Phiman",
      "postal_code": "45180",
      "country_code": "TH",
      "latitude": 15.85,
      "longitude": 103.55,
      "admin_name1": "Roi Et"
    },
    {
      "place_name": "Phu Phan",
      "postal_code": "47180",
      "country_code": "TH",
      "latitude": 17.0833,
      "longitude": 103.8167,
      "admin_name1": "Sakon Nakhon"
    },
    {
      "place_name": "Phon Sawan",
      "postal_code": "48190",
      "country_code": "TH",
      "latitude": 17.45,
      "longitude": 104.45,
      "admin_name1": "Nakhon Phanom"
    },
    {
      "place_name": "San Pa Tong",
      "postal_code": "50120",
      "country_code": "TH",
      "latitude": 18.6247,
      "longitude": 98.8944,
      "admin_name1": "Chiang Mai"
    },
    {
      "place_name": "Muang Lampang",
      "postal_code": "52000",
      "country_code": "TH",
      "latitude": 18.2983,
      "longitude": 99.5072,
      "admin_name1": "Lampang"
    },
    {
      "place_name": "Hang Chat",
      "postal_code": "52190",
      "country_code": "TH",
      "latitude": 18.3264,
      "longitude": 99.3478,
      "admin_name1": "Lampang"
    },
    {
      "place_name": "Laplae",
      "postal_code": "53130",
      "country_code": "TH",
      "latitude": 17.7168,
      "longitude": 100.5445,
      "admin_name1": "Uttaradit"
    },
    {
      "place_name": "Mae Sai",
      "postal_code": "57130",
      "country_code": "TH",
      "latitude": 20.43,
      "longitude": 99.8858,
      "admin_name1": "Chiang Rai"
    },
    {
      "place_name": "Pang Mapha",
      "postal_code": "58150",
      "country_code": "TH",
      "latitude": 18.6712,
      "longitude": 98.0633,
      "admin_name1": "Mae Hong Son"
    },
    {
      "place_name": "Tak Fa",
      "postal_code": "60190",
      "country_code": "TH",
      "latitude": 15.3333,
      "longitude": 100.5,
      "admin_name1": "Nakhon Sawan"
    },
    {
      "place_name": "Khosamphi Nakhon",
      "postal_code": "62170",
      "country_code": "TH",
      "latitude": 16.31,
      "longitude": 99.68,
      "admin_name1": "Kamphaeng Phet"
    },
    {
      "place_name": "Khiri Mat",
      "postal_code": "64160",
      "country_code": "TH",
      "latitude": 16.8333,
      "longitude": 99.8,
      "admin_name1": "Sukhothai"
    },
    {
      "place_name": "Sak Lek",
      "postal_code": "66160",
      "country_code": "TH",
      "latitude": 16.4833,
      "longitude": 100.4833,
      "admin_name1": "Phichit"
    },
    {
      "place_name": "Krathum Baen",
      "postal_code": "74110",
      "country_code": "TH",
      "latitude": 13.65,
      "longitude": 100.2667,
      "admin_name1": "Samut Sakhon"
    },
    {
      "place_name": "Nob Pitam",
      "postal_code": "80160",
      "country_code": "TH",
      "latitude": 8.6667,
      "longitude": 99.9333,
      "admin_name1": "Nakhon Si Thammarat"
    },
    {
      "place_name": "Ko Lanta",
      "postal_code": "81150",
      "country_code": "TH",
      "latitude": 7.55,
      "longitude": 99.0833,
      "admin_name1": "Krabi"
    },
    {
      "place_name": "Chaiya",
      "postal_code": "84110",
      "country_code": "TH",
      "latitude": 9.3833,
      "longitude": 99.2333,
      "admin_name1": "Surat Thani"
    },
    {
      "place_name": "Phrasaeng",
      "postal_code": "84210",
      "country_code": "TH",
      "latitude": 9.1133,
      "longitude": 99.4133,
      "admin_name1": "Surat Thani"
    },
    {
      "place_name": "Khian Sa",
      "postal_code": "84260",
      "country_code": "TH",
      "latitude": 8.85,
      "longitude": 99.2333,
      "admin_name1": "Surat Thani"
    },
    {
      "place_name": "Sabayoi",
      "postal_code": "90210",
      "country_code": "TH",
      "latitude": 6.7,
      "longitude": 101.0333,
      "admin_name1": "Songkhla"
    },
    {
      "place_name": "Na Mom",
      "postal_code": "90310",
      "country_code": "TH",
      "latitude": 7.0167,
      "longitude": 100.6619,
      "admin_name1": "Songkhla"
    },
    {
      "place_name": "Pak Phayun",
      "postal_code": "93120",
      "country_code": "TH",
      "latitude": 7.35,
      "longitude": 100.3167,
      "admin_name1": "Phatthalung"
    },
    {
      "place_name": "Bang Khen",
      "postal_code": "10220",
      "country_code": "TH",
      "latitude": 13.8667,
      "longitude": 100.6,
      "admin_name1": "Bangkok"
    },
    {
      "place_name": "Bang Pahan",
      "postal_code": "13220",
      "country_code": "TH",
      "latitude": 14.45,
      "longitude": 100.55,
      "admin_name1": "Phra Nakhon Si Ayutthaya"
    },
    {
      "place_name": "Muang Lopburi",
      "postal_code": "15000",
      "country_code": "TH",
      "latitude": 14.8,
      "longitude": 100.6167,
      "admin_name1": "Lopburi"
    },
    {
      "place_name": "Khao Chakhun",
      "postal_code": "27000",
      "country_code": "TH",
      "latitude": 13.8442,
      "longitude": 102.6536,
      "admin_name1": "Sa Kaeo"
    },
    {
      "place_name": "Aranyaprathet",
      "postal_code": "27120",
      "country_code": "TH",
      "latitude": 13.6833,
      "longitude": 102.5,
      "admin_name1": "Sa Kaeo"
    },
    {
      "place_name": "Prang Ku",
      "postal_code": "33170",
      "country_code": "TH",
      "latitude": 14.85,
      "longitude": 104.0333,
      "admin_name1": "Si Sa Ket"
    },
    {
      "place_name": "Sirinhon",
      "postal_code": "34350",
      "country_code": "TH",
      "latitude": 14.5167,
      "longitude": 102.85,
      "admin_name1": "Ubon Ratchathani"
    },
    {
      "place_name": "Ban Had",
      "postal_code": "40110",
      "country_code": "TH",
      "latitude": 16.0667,
      "longitude": 102.7333,
      "admin_name1": "Khon Kaen"
    },
    {
      "place_name": "Non Sa-at",
      "postal_code": "41240",
      "country_code": "TH",
      "latitude": 17.1336,
      "longitude": 102.9675,
      "admin_name1": "Udon Thani"
    },
    {
      "place_name": "Phu Kradung",
      "postal_code": "42180",
      "country_code": "TH",
      "latitude": 16.8833,
      "longitude": 101.8833,
      "admin_name1": "Loei"
    },
    {
      "place_name": "Sra Khai",
      "postal_code": "43100",
      "country_code": "TH",
      "latitude": 18.0613,
      "longitude": 103.2227,
      "admin_name1": "Nong Khai"
    },
    {
      "place_name": "Nikhom Nam Un",
      "postal_code": "47270",
      "country_code": "TH",
      "latitude": 17.2167,
      "longitude": 103.7,
      "admin_name1": "Sakon Nakhon"
    },
    {
      "place_name": "Chiacg Muan",
      "postal_code": "56160",
      "country_code": "TH",
      "latitude": 19.3302,
      "longitude": 100.2497,
      "admin_name1": "Phayao"
    },
    {
      "place_name": "Muang Chiang Rai",
      "postal_code": "57000",
      "country_code": "TH",
      "latitude": 19.9,
      "longitude": 99.8333,
      "admin_name1": "Chiang Rai"
    },
    {
      "place_name": "Muang Mae Hong Son",
      "postal_code": "58000",
      "country_code": "TH",
      "latitude": 18.6712,
      "longitude": 98.0633,
      "admin_name1": "Mae Hong Son"
    },
    {
      "place_name": "Bang Phae",
      "postal_code": "70160",
      "country_code": "TH",
      "latitude": 13.7,
      "longitude": 99.9333,
      "admin_name1": "Ratchaburi"
    },
    {
      "place_name": "Sangkhla Buri",
      "postal_code": "71240",
      "country_code": "TH",
      "latitude": 14.7333,
      "longitude": 98.6333,
      "admin_name1": "Kanchanaburi"
    },
    {
      "place_name": "Si Sawat",
      "postal_code": "71250",
      "country_code": "TH",
      "latitude": 14.6892,
      "longitude": 99.0275,
      "admin_name1": "Kanchanaburi"
    },
    {
      "place_name": "Bang Saphan Noi",
      "postal_code": "77170",
      "country_code": "TH",
      "latitude": 11.0833,
      "longitude": 99.4833,
      "admin_name1": "Prachuap Khiri Khan"
    },
    {
      "place_name": "Chian Yai",
      "postal_code": "80190",
      "country_code": "TH",
      "latitude": 8.1667,
      "longitude": 100.15,
      "admin_name1": "Nakhon Si Thammarat"
    },
    {
      "place_name": "Lam Thap",
      "postal_code": "81120",
      "country_code": "TH",
      "latitude": 8.0667,
      "longitude": 99.3,
      "admin_name1": "Krabi"
    },
    {
      "place_name": "Ko Phangan",
      "postal_code": "84280",
      "country_code": "TH",
      "latitude": 9.7167,
      "longitude": 100.0,
      "admin_name1": "Surat Thani"
    },
    {
      "place_name": "Tha Sae",
      "postal_code": "86140",
      "country_code": "TH",
      "latitude": 10.6667,
      "longitude": 99.1667,
      "admin_name1": "Chumphon"
    },
    {
      "place_name": "Nong Khaem",
      "postal_code": "10160",
      "country_code": "TH",
      "latitude": 13.6833,
      "longitude": 100.35,
      "admin_name1": "Bangkok"
    },
    {
      "place_name": "Phaya Thai",
      "postal_code": "10400",
      "country_code": "TH",
      "latitude": 13.7625,
      "longitude": 100.531,
      "admin_name1": "Bangkok"
    },
    {
      "place_name": "Thon Buri",
      "postal_code": "10600",
      "country_code": "TH",
      "latitude": 13.7167,
      "longitude": 100.4833,
      "admin_name1": "Bangkok"
    },
    {
      "place_name": "Muang Samut Prakan",
      "postal_code": "10270",
      "country_code": "TH",
      "latitude": 13.6,
      "longitude": 100.6,
      "admin_name1": "Samut Prakan"
    },
    {
      "place_name": "Pak Phli",
      "postal_code": "26130",
      "country_code": "TH",
      "latitude": 14.1636,
      "longitude": 101.2622,
      "admin_name1": "Nakhon Nayok"
    },
    {
      "place_name": "Wang Nam Yen",
      "postal_code": "27120",
      "country_code": "TH",
      "latitude": 13.6833,
      "longitude": 102.5,
      "admin_name1": "Sa Kaeo"
    },
    {
      "place_name": "Sikhiu",
      "postal_code": "30140",
      "country_code": "TH",
      "latitude": 14.8994,
      "longitude": 101.7083,
      "admin_name1": "Nakhon Ratchasima"
    },
    {
      "place_name": "Chum Phuang",
      "postal_code": "30270",
      "country_code": "TH",
      "latitude": 15.3167,
      "longitude": 102.7667,
      "admin_name1": "Nakhon Ratchasima"
    },
    {
      "place_name": "Banmai Chaiphot",
      "postal_code": "31120",
      "country_code": "TH",
      "latitude": 15.4167,
      "longitude": 102.9,
      "admin_name1": "Buri Ram"
    },
    {
      "place_name": "Nong Ki",
      "postal_code": "31210",
      "country_code": "TH",
      "latitude": 14.6667,
      "longitude": 102.5333,
      "admin_name1": "Buri Ram"
    },
    {
      "place_name": "Muang Amnat Charoen",
      "postal_code": "37000",
      "country_code": "TH",
      "latitude": 15.7075,
      "longitude": 104.6797,
      "admin_name1": "Amnat Charoen"
    },
    {
      "place_name": "Ban Fang",
      "postal_code": "40270",
      "country_code": "TH",
      "latitude": 16.45,
      "longitude": 102.6333,
      "admin_name1": "Khon Kaen"
    },
    {
      "place_name": "Pak Chom",
      "postal_code": "42150",
      "country_code": "TH",
      "latitude": 18.0333,
      "longitude": 101.8833,
      "admin_name1": "Loei"
    },
    {
      "place_name": "Donchan",
      "postal_code": "46000",
      "country_code": "TH",
      "latitude": 16.4333,
      "longitude": 103.5,
      "admin_name1": "Kalasin"
    },
    {
      "place_name": "Somdet",
      "postal_code": "46150",
      "country_code": "TH",
      "latitude": 16.7,
      "longitude": 103.7667,
      "admin_name1": "Kalasin"
    },
    {
      "place_name": "Khok Si Supan",
      "postal_code": "47280",
      "country_code": "TH",
      "latitude": 17.3458,
      "longitude": 103.9792,
      "admin_name1": "Sakon Nakhon"
    },
    {
      "place_name": "Phrao",
      "postal_code": "50190",
      "country_code": "TH",
      "latitude": 19.3667,
      "longitude": 99.2167,
      "admin_name1": "Chiang Mai"
    },
    {
      "place_name": "Khun Yuam",
      "postal_code": "58140",
      "country_code": "TH",
      "latitude": 18.8289,
      "longitude": 97.9342,
      "admin_name1": "Mae Hong Son"
    },
    {
      "place_name": "Phaisali",
      "postal_code": "60220",
      "country_code": "TH",
      "latitude": 15.6,
      "longitude": 100.65,
      "admin_name1": "Nakhon Sawan"
    },
    {
      "place_name": "Muang Phichit",
      "postal_code": "66000",
      "country_code": "TH",
      "latitude": 16.4333,
      "longitude": 100.3667,
      "admin_name1": "Phichit"
    },
    {
      "place_name": "Wat Phleng",
      "postal_code": "70170",
      "country_code": "TH",
      "latitude": 13.45,
      "longitude": 99.9,
      "admin_name1": "Ratchaburi"
    },
    {
      "place_name": "Phanom Thuan",
      "postal_code": "71140",
      "country_code": "TH",
      "latitude": 14.1258,
      "longitude": 99.7011,
      "admin_name1": "Kanchanaburi"
    },
    {
      "place_name": "Sam Phran",
      "postal_code": "73110",
      "country_code": "TH",
      "latitude": 13.7167,
      "longitude": 100.2167,
      "admin_name1": "Nakhon Pathom"
    },
    {
      "place_name": "Thap Sakae",
      "postal_code": "77130",
      "country_code": "TH",
      "latitude": 11.5,
      "longitude": 99.6167,
      "admin_name1": "Prachuap Khiri Khan"
    },
    {
      "place_name": "Samaroiyod",
      "postal_code": "77180",
      "country_code": "TH",
      "latitude": 11.7972,
      "longitude": 99.7278,
      "admin_name1": "Prachuap Khiri Khan"
    },
    {
      "place_name": "Pak Phanang",
      "postal_code": "80140",
      "country_code": "TH",
      "latitude": 8.35,
      "longitude": 100.2,
      "admin_name1": "Nakhon Si Thammarat"
    },
    {
      "place_name": "Kapong",
      "postal_code": "82170",
      "country_code": "TH",
      "latitude": 8.6833,
      "longitude": 98.45,
      "admin_name1": "Phang Nga"
    },
    {
      "place_name": "Kra Buri",
      "postal_code": "85110",
      "country_code": "TH",
      "latitude": 10.4,
      "longitude": 98.7833,
      "admin_name1": "Ranong"
    },
    {
      "place_name": "Muang Satun",
      "postal_code": "91000",
      "country_code": "TH",
      "latitude": 6.9292,
      "longitude": 99.8708,
      "admin_name1": "Satun"
    },
    {
      "place_name": "Khuan Khanun",
      "postal_code": "93110",
      "country_code": "TH",
      "latitude": 7.7333,
      "longitude": 100.0167,
      "admin_name1": "Phatthalung"
    },
    {
      "place_name": "Waeng",
      "postal_code": "96160",
      "country_code": "TH",
      "latitude": 5.9333,
      "longitude": 101.9,
      "admin_name1": "Narathiwat"
    }
  ]
]