[
  [
    {
      "place_name": "Pretoria",
      "postal_code": "0011",
      "country_code": "ZA",
      "latitude": -25.7069,
      "longitude": 28.2294,
      "admin_name1": null
    },
    {
      "place_name": "Karenpark",
      "postal_code": "0118",
      "country_code": "ZA",
      "latitude": -25.7069,
      "longitude": 28.2294,
      "admin_name1": null
    },
    {
      "place_name": "Denneboom",
      "postal_code": "0160",
      "country_code": "ZA",
      "latitude": -25.7181,
      "longitude": 28.3342,
      "admin_name1": null
    },
    {
      "place_name": "Ga-Rankuwa",
      "postal_code": "0208",
      "country_code": "ZA",
      "latitude": -25.5883,
      "longitude": 28.0078,
      "admin_name1": null
    },
    {
      "place_name": "Brits",
      "postal_code": "0210",
      "country_code": "ZA",
      "latitude": -25.6333,
      "longitude": 27.7833,
      "admin_name1": null
    },
    {
      "place_name": "Rustenburg",
      "postal_code": "0306",
      "country_code": "ZA",
      "latitude": -25.6667,
      "longitude": 27.25,
      "admin_name1": null
    },
    {
      "place_name": "Thabazimbi",
      "postal_code": "0362",
      "country_code": "ZA",
      "latitude": -24.6,
      "longitude": 27.4,
      "admin_name1": null
    },
    {
      "place_name": "Bamokgoko",
      "postal_code": "0432",
      "country_code": "ZA",
      "latitude": -25.1039,
      "longitude": 28.5219,
      "admin_name1": null
    },
    {
      "place_name": "Nylstroom",
      "postal_code": "0512",
      "country_code": "ZA",
      "latitude": -24.7,
      "longitude": 28.4,
      "admin_name1": null
    },
    {
      "place_name": "Naboomspruit",
      "postal_code": "0580",
      "country_code": "ZA",
      "latitude": -24.5167,
      "longitude": 28.7167,
      "admin_name1": null
    },
    {
      "place_name": "Neandertal",
      "postal_code": "0714",
      "country_code": "ZA",
      "latitude": -23.4833,
      "longitude": 29.1833,
      "admin_name1": null
    },
    {
      "place_name": "Pietersburg",
      "postal_code": "0721",
      "country_code": "ZA",
      "latitude": -23.7333,
      "longitude": 29.7833,
      "admin_name1": null
    },
    {
      "place_name": "Thohoyandou",
      "postal_code": "0929",
      "country_code": "ZA",
      "latitude": -22.95,
      "longitude": 30.4833,
      "admin_name1": null
    },
    {
      "place_name": "Louis Trichardt",
      "postal_code": "0954",
      "country_code": "ZA",
      "latitude": -23.05,
      "longitude": 29.9,
      "admin_name1": null
    },
    {
      "place_name": "Giyani",
      "postal_code": "0983",
      "country_code": "ZA",
      "latitude": -23.3167,
      "longitude": 30.7167,
      "admin_name1": null
    },
    {
      "place_name": "Witbank",
      "postal_code": "1097",
      "country_code": "ZA",
      "latitude": -25.8667,
      "longitude": 29.2333,
      "admin_name1": null
    },
    {
      "place_name": "Driekop",
      "postal_code": "1128",
      "country_code": "ZA",
      "latitude": -24.5833,
      "longitude": 30.1667,
      "admin_name1": null
    },
    {
      "place_name": "Nelspruit",
      "postal_code": "1203",
      "country_code": "ZA",
      "latitude": -25.4667,
      "longitude": 30.9667,
      "admin_name1": null
    },
    {
      "place_name": "Phalaborwa",
      "postal_code": "1393",
      "country_code": "ZA",
      "latitude": -23.95,
      "longitude": 31.1167,
      "admin_name1": null
    },
    {
      "place_name": "Germiston",
      "postal_code": "1404",
      "country_code": "ZA",
      "latitude": -26.2167,
      "longitude": 28.1833,
      "admin_name1": null
    },
    {
      "place_name": "Katlehong",
      "postal_code": "1421",
      "country_code": "ZA",
      "latitude": -26.3333,
      "longitude": 28.15,
      "admin_name1": null
    },
    {
      "place_name": "Alberton",
      "postal_code": "1457",
      "country_code": "ZA",
      "latitude": -26.2333,
      "longitude": 28.1333,
      "admin_name1": null
    },
    {
      "place_name": "Benoni",
      "postal_code": "1506",
      "country_code": "ZA",
      "latitude": -26.1833,
      "longitude": 28.3167,
      "admin_name1": null
    },
    {
      "place_name": "Brakpan",
      "postal_code": "1550",
      "country_code": "ZA",
      "latitude": -26.2333,
      "longitude": 28.3667,
      "admin_name1": null
    },
    {
      "place_name": "Kempton Park",
      "postal_code": "1622",
      "country_code": "ZA",
      "latitude": -26.1,
      "longitude": 28.25,
      "admin_name1": null
    },
    {
      "place_name": "Mohlakeng",
      "postal_code": "1759",
      "country_code": "ZA",
      "latitude": -26.2333,
      "longitude": 27.7,
      "admin_name1": null
    },
    {
      "place_name": "Westonaria",
      "postal_code": "1780",
      "country_code": "ZA",
      "latitude": -26.3167,
      "longitude": 27.65,
      "admin_name1": null
    },
    {
      "place_name": "Ennerdale",
      "postal_code": "1830",
      "country_code": "ZA",
      "latitude": -26.3167,
      "longitude": 27.8333,
      "admin_name1": null
    },
    {
      "place_name": "Meyerton",
      "postal_code": "1873",
      "country_code": "ZA",
      "latitude": -26.5667,
      "longitude": 28.0167,
      "admin_name1": null
    },
    {
      "place_name": "Oranjeville",
      "postal_code": "1995",
      "country_code": "ZA",
      "latitude": -26.9833,
      "longitude": 28.2,
      "admin_name1": null
    },
    {
      "place_name": "Johannesburg",
      "postal_code": "2047",
      "country_code": "ZA",
      "latitude": -26.2,
      "longitude": 28.0833,
      "admin_name1": null
    },
    {
      "place_name": "Bramley",
      "postal_code": "2054",
      "country_code": "ZA",
      "latitude": -26.2,
      "longitude": 28.0833,
      "admin_name1": null
    },
    {
      "place_name": "Four Ways",
      "postal_code": "2055",
      "country_code": "ZA",
      "latitude": -26.0333,
      "longitude": 27.9833,
      "admin_name1": null
    },
    {
      "place_name": "Van Dyksdrif",
      "postal_code": "2245",
      "country_code": "ZA",
      "latitude": -26.2311,
      "longitude": 29.0356,
      "admin_name1": null
    },
    {
      "place_name": "Bethal",
      "postal_code": "2309",
      "country_code": "ZA",
      "latitude": -26.45,
      "longitude": 29.4667,
      "admin_name1": null
    },
    {
      "place_name": "Piet Retief",
      "postal_code": "2385",
      "country_code": "ZA",
      "latitude": -27.0,
      "longitude": 30.8,
      "admin_name1": null
    },
    {
      "place_name": "Standerton",
      "postal_code": "2432",
      "country_code": "ZA",
      "latitude": -26.95,
      "longitude": 29.25,
      "admin_name1": null
    },
    {
      "place_name": "Volksrust",
      "postal_code": "2491",
      "country_code": "ZA",
      "latitude": -27.3667,
      "longitude": 29.8833,
      "admin_name1": null
    },
    {
      "place_name": "Potchefstroom",
      "postal_code": "2529",
      "country_code": "ZA",
      "latitude": -26.7167,
      "longitude": 27.1,
      "admin_name1": null
    },
    {
      "place_name": "Carltonville",
      "postal_code": "2534",
      "country_code": "ZA",
      "latitude": -26.7167,
      "longitude": 27.1,
      "admin_name1": null
    },
    {
      "place_name": "Itsoseng",
      "postal_code": "2717",
      "country_code": "ZA",
      "latitude": -26.0667,
      "longitude": 25.8833,
      "admin_name1": null
    },
    {
      "place_name": "Lichtenburg",
      "postal_code": "2743",
      "country_code": "ZA",
      "latitude": -26.15,
      "longitude": 26.1667,
      "admin_name1": null
    },
    {
      "place_name": "Delareyville",
      "postal_code": "2772",
      "country_code": "ZA",
      "latitude": -26.6833,
      "longitude": 25.4667,
      "admin_name1": null
    },
    {
      "place_name": "Schweizer-Reneke",
      "postal_code": "2786",
      "country_code": "ZA",
      "latitude": -27.1833,
      "longitude": 25.3333,
      "admin_name1": null
    },
    {
      "place_name": "Mafikeng",
      "postal_code": "2866",
      "country_code": "ZA",
      "latitude": -25.8667,
      "longitude": 25.65,
      "admin_name1": null
    },
    {
      "place_name": "Zeerust",
      "postal_code": "2881",
      "country_code": "ZA",
      "latitude": -25.5333,
      "longitude": 26.0833,
      "admin_name1": null
    },
    {
      "place_name": "Newcastle",
      "postal_code": "3082",
      "country_code": "ZA",
      "latitude": -27.75,
      "longitude": 29.9333,
      "admin_name1": null
    },
    {
      "place_name": "Vryheid",
      "postal_code": "3183",
      "country_code": "ZA",
      "latitude": -27.7667,
      "longitude": 30.8,
      "admin_name1": null
    },
    {
      "place_name": "Wartburg",
      "postal_code": "3233",
      "country_code": "ZA",
      "latitude": -29.4333,
      "longitude": 30.5833,
      "admin_name1": null
    },
    {
      "place_name": "Greytown",
      "postal_code": "3233",
      "country_code": "ZA",
      "latitude": -29.4333,
      "longitude": 30.5833,
      "admin_name1": null
    },
    {
      "place_name": "Creighton",
      "postal_code": "3263",
      "country_code": "ZA",
      "latitude": -30.0333,
      "longitude": 29.8333,
      "admin_name1": null
    },
    {
      "place_name": "Pinetown",
      "postal_code": "3602",
      "country_code": "ZA",
      "latitude": -29.8167,
      "longitude": 30.85,
      "admin_name1": null
    },
    {
      "place_name": "Gillitts",
      "postal_code": "3610",
      "country_code": "ZA",
      "latitude": -29.8,
      "longitude": 30.8,
      "admin_name1": null
    },
    {
      "place_name": "Hillcrest",
      "postal_code": "3626",
      "country_code": "ZA",
      "latitude": -29.7667,
      "longitude": 30.7667,
      "admin_name1": null
    },
    {
      "place_name": "Westville",
      "postal_code": "3629",
      "country_code": "ZA",
      "latitude": -29.8333,
      "longitude": 30.9333,
      "admin_name1": null
    },
    {
      "place_name": "Hammarsdale",
      "postal_code": "3710",
      "country_code": "ZA",
      "latitude": -29.8,
      "longitude": 30.65,
      "admin_name1": null
    },
    {
      "place_name": "Scottsville",
      "postal_code": "3770",
      "country_code": "ZA",
      "latitude": -29.3333,
      "longitude": 30.0472,
      "admin_name1": null
    },
    {
      "place_name": "Mtunzini",
      "postal_code": "3867",
      "country_code": "ZA",
      "latitude": -28.95,
      "longitude": 31.75,
      "admin_name1": null
    },
    {
      "place_name": "Empangeni",
      "postal_code": "3900",
      "country_code": "ZA",
      "latitude": -28.7901,
      "longitude": 32.0971,
      "admin_name1": null
    },
    {
      "place_name": "Mkuze",
      "postal_code": "3976",
      "country_code": "ZA",
      "latitude": -27.6167,
      "longitude": 32.0333,
      "admin_name1": null
    },
    {
      "place_name": "Durban",
      "postal_code": "4017",
      "country_code": "ZA",
      "latitude": -29.85,
      "longitude": 31.0167,
      "admin_name1": null
    },
    {
      "place_name": "Mayville",
      "postal_code": "4091",
      "country_code": "ZA",
      "latitude": -29.85,
      "longitude": 30.9833,
      "admin_name1": null
    },
    {
      "place_name": "Umbogintwini",
      "postal_code": "4126",
      "country_code": "ZA",
      "latitude": -30.0333,
      "longitude": 30.9167,
      "admin_name1": null
    },
    {
      "place_name": "Amanzimtoti",
      "postal_code": "4160",
      "country_code": "ZA",
      "latitude": -30.05,
      "longitude": 30.8833,
      "admin_name1": null
    },
    {
      "place_name": "Izingolweni",
      "postal_code": "4261",
      "country_code": "ZA",
      "latitude": -30.7833,
      "longitude": 30.1333,
      "admin_name1": null
    },
    {
      "place_name": "Margate",
      "postal_code": "4275",
      "country_code": "ZA",
      "latitude": -30.85,
      "longitude": 30.3667,
      "admin_name1": null
    },
    {
      "place_name": "Phoenix",
      "postal_code": "4302",
      "country_code": "ZA",
      "latitude": -26.0667,
      "longitude": 29.2,
      "admin_name1": null
    },
    {
      "place_name": "Ndwedwe",
      "postal_code": "4342",
      "country_code": "ZA",
      "latitude": -29.5,
      "longitude": 30.9333,
      "admin_name1": null
    },
    {
      "place_name": "Stanger",
      "postal_code": "4452",
      "country_code": "ZA",
      "latitude": -29.3333,
      "longitude": 31.3,
      "admin_name1": null
    },
    {
      "place_name": "Kokstad",
      "postal_code": "4700",
      "country_code": "ZA",
      "latitude": -30.55,
      "longitude": 29.4167,
      "admin_name1": null
    },
    {
      "place_name": "Maluti",
      "postal_code": "4740",
      "country_code": "ZA",
      "latitude": -30.25,
      "longitude": 28.5333,
      "admin_name1": null
    },
    {
      "place_name": "Mount Fletcher",
      "postal_code": "4780",
      "country_code": "ZA",
      "latitude": -30.6833,
      "longitude": 28.5167,
      "admin_name1": null
    },
    {
      "place_name": "Lusikisiki",
      "postal_code": "4824",
      "country_code": "ZA",
      "latitude": -31.35,
      "longitude": 29.5833,
      "admin_name1": null
    },
    {
      "place_name": "Umtata",
      "postal_code": "5101",
      "country_code": "ZA",
      "latitude": -31.5833,
      "longitude": 28.7833,
      "admin_name1": null
    },
    {
      "place_name": "Libode",
      "postal_code": "5161",
      "country_code": "ZA",
      "latitude": -31.5333,
      "longitude": 29.0167,
      "admin_name1": null
    },
    {
      "place_name": "East London",
      "postal_code": "5247",
      "country_code": "ZA",
      "latitude": -33.0333,
      "longitude": 27.9167,
      "admin_name1": null
    },
    {
      "place_name": "Bisho",
      "postal_code": "5608",
      "country_code": "ZA",
      "latitude": -32.8667,
      "longitude": 27.4333,
      "admin_name1": null
    },
    {
      "place_name": "Peddie",
      "postal_code": "5612",
      "country_code": "ZA",
      "latitude": -33.2,
      "longitude": 27.1167,
      "admin_name1": null
    },
    {
      "place_name": "Port Elizabeth",
      "postal_code": "6011",
      "country_code": "ZA",
      "latitude": -33.9667,
      "longitude": 25.5833,
      "admin_name1": null
    },
    {
      "place_name": "Estadeal",
      "postal_code": "6012",
      "country_code": "ZA",
      "latitude": -33.9667,
      "longitude": 25.5833,
      "admin_name1": null
    },
    {
      "place_name": "Gelvandale",
      "postal_code": "6020",
      "country_code": "ZA",
      "latitude": -33.9167,
      "longitude": 25.55,
      "admin_name1": null
    },
    {
      "place_name": "Grahamstown",
      "postal_code": "6139",
      "country_code": "ZA",
      "latitude": -33.3,
      "longitude": 26.5333,
      "admin_name1": null
    },
    {
      "place_name": "Kwanobuhle",
      "postal_code": "6242",
      "country_code": "ZA",
      "latitude": -33.8025,
      "longitude": 25.3925,
      "admin_name1": null
    },
    {
      "place_name": "Jansenville",
      "postal_code": "6265",
      "country_code": "ZA",
      "latitude": -32.9333,
      "longitude": 24.6667,
      "admin_name1": null
    },
    {
      "place_name": "Willowmore",
      "postal_code": "6454",
      "country_code": "ZA",
      "latitude": -33.2833,
      "longitude": 23.4833,
      "admin_name1": null
    },
    {
      "place_name": "Western Cape",
      "postal_code": "6655",
      "country_code": "ZA",
      "latitude": -33.55,
      "longitude": 21.8889,
      "admin_name1": null
    },
    {
      "place_name": "Heidelberg Wc",
      "postal_code": "6665",
      "country_code": "ZA",
      "latitude": -33.5333,
      "longitude": 21.6833,
      "admin_name1": null
    },
    {
      "place_name": "Riversdale",
      "postal_code": "6671",
      "country_code": "ZA",
      "latitude": -34.1,
      "longitude": 21.2667,
      "admin_name1": null
    },
    {
      "place_name": "Worcester",
      "postal_code": "6852",
      "country_code": "ZA",
      "latitude": -33.65,
      "longitude": 19.4333,
      "admin_name1": null
    },
    {
      "place_name": "Atlantis",
      "postal_code": "7353",
      "country_code": "ZA",
      "latitude": -33.5667,
      "longitude": 18.4833,
      "admin_name1": null
    },
    {
      "place_name": "Hopefield",
      "postal_code": "7355",
      "country_code": "ZA",
      "latitude": -33.0667,
      "longitude": 18.35,
      "admin_name1": null
    },
    {
      "place_name": "Cape Town",
      "postal_code": "7430",
      "country_code": "ZA",
      "latitude": -33.9167,
      "longitude": 18.4167,
      "admin_name1": null
    },
    {
      "place_name": "Kimberley",
      "postal_code": "8335",
      "country_code": "ZA",
      "latitude": -28.7333,
      "longitude": 24.7667,
      "admin_name1": null
    },
    {
      "place_name": "Taung Sta",
      "postal_code": "8594",
      "country_code": "ZA",
      "latitude": -27.9762,
      "longitude": 24.8238,
      "admin_name1": null
    },
    {
      "place_name": "Hopetown",
      "postal_code": "8750",
      "country_code": "ZA",
      "latitude": -29.6167,
      "longitude": 24.0833,
      "admin_name1": null
    },
    {
      "place_name": "Upington",
      "postal_code": "8807",
      "country_code": "ZA",
      "latitude": -28.45,
      "longitude": 21.25,
      "admin_name1": null
    },
    {
      "place_name": "Dealesville",
      "postal_code": "9348",
      "country_code": "ZA",
      "latitude": -28.6667,
      "longitude": 25.7667,
      "admin_name1": null
    },
    {
      "place_name": "Free State",
      "postal_code": "9431",
      "country_code": "ZA",
      "latitude": -28.1167,
      "longitude": 26.9,
      "admin_name1": null
    },
    {
      "place_name": "Welkom",
      "postal_code": "9469",
      "country_code": "ZA",
      "latitude": -24.4167,
      "longitude": 29.1667,
      "admin_name1": null
    },
    {
      "place_name": "Lindley",
      "postal_code": "9630",
      "country_code": "ZA",
      "latitude": -27.8667,
      "longitude": 27.9167,
      "admin_name1": null
    },
    {
      "place_name": "Fouriesburg",
      "postal_code": "9725",
      "country_code": "ZA",
      "latitude": -28.5833,
      "longitude": 28.1333,
      "admin_name1": null
    },
    {
      "place_name": "Aliwal-Noord",
      "postal_code": "9750",
      "country_code": "ZA",
      "latitude": -30.7,
      "longitude": 26.7,
      "admin_name1": null
    },
    {
      "place_name": "Eersterus",
      "postal_code": "0022",
      "country_code": "ZA",
      "latitude": -25.7236,
      "longitude": 28.3194,
      "admin_name1": null
    },
    {
      "place_name": "Wierdapark",
      "postal_code": "0149",
      "country_code": "ZA",
      "latitude": -25.7069,
      "longitude": 28.2294,
      "admin_name1": null
    },
    {
      "place_name": "Montanapark",
      "postal_code": "0159",
      "country_code": "ZA",
      "latitude": -25.7069,
      "longitude": 28.2294,
      "admin_name1": null
    },
    {
      "place_name": "Rosslyn",
      "postal_code": "0200",
      "country_code": "ZA",
      "latitude": -25.6242,
      "longitude": 28.0942,
      "admin_name1": null
    },
    {
      "place_name": "Mabopane",
      "postal_code": "0215",
      "country_code": "ZA",
      "latitude": -25.5072,
      "longitude": 28.1075,
      "admin_name1": null
    },
    {
      "place_name": "Hammanskraal",
      "postal_code": "0426",
      "country_code": "ZA",
      "latitude": -25.4075,
      "longitude": 28.2856,
      "admin_name1": null
    },
    {
      "place_name": "Empumalanga",
      "postal_code": "0458",
      "country_code": "ZA",
      "latitude": -25.3167,
      "longitude": 31.1,
      "admin_name1": null
    },
    {
      "place_name": "Ellisras",
      "postal_code": "0556",
      "country_code": "ZA",
      "latitude": -23.6667,
      "longitude": 27.7333,
      "admin_name1": null
    },
    {
      "place_name": "Potgietersrus",
      "postal_code": "0619",
      "country_code": "ZA",
      "latitude": -24.1833,
      "longitude": 29.0167,
      "admin_name1": null
    },
    {
      "place_name": "Atok",
      "postal_code": "0749",
      "country_code": "ZA",
      "latitude": -23.95,
      "longitude": 29.1333,
      "admin_name1": null
    },
    {
      "place_name": "Malamulele",
      "postal_code": "0816",
      "country_code": "ZA",
      "latitude": -23.5444,
      "longitude": 29.9389,
      "admin_name1": null
    },
    {
      "place_name": "Bronkhorstspruit",
      "postal_code": "1026",
      "country_code": "ZA",
      "latitude": -25.8083,
      "longitude": 28.7406,
      "admin_name1": null
    },
    {
      "place_name": "Tokoza",
      "postal_code": "1427",
      "country_code": "ZA",
      "latitude": -26.3667,
      "longitude": 28.0667,
      "admin_name1": null
    },
    {
      "place_name": "Alrode",
      "postal_code": "1451",
      "country_code": "ZA",
      "latitude": -26.2333,
      "longitude": 28.1333,
      "admin_name1": null
    },
    {
      "place_name": "Minnebron",
      "postal_code": "1541",
      "country_code": "ZA",
      "latitude": -26.2333,
      "longitude": 28.3667,
      "admin_name1": null
    },
    {
      "place_name": "Sasolburg",
      "postal_code": "1949",
      "country_code": "ZA",
      "latitude": -26.8167,
      "longitude": 27.8167,
      "admin_name1": null
    },
    {
      "place_name": "Mafatsana",
      "postal_code": "1981",
      "country_code": "ZA",
      "latitude": -26.5833,
      "longitude": 27.8333,
      "admin_name1": null
    },
    {
      "place_name": "Jukskeipark",
      "postal_code": "2153",
      "country_code": "ZA",
      "latitude": -26.2,
      "longitude": 28.0833,
      "admin_name1": null
    },
    {
      "place_name": "Randburg",
      "postal_code": "2167",
      "country_code": "ZA",
      "latitude": -26.1,
      "longitude": 27.9833,
      "admin_name1": null
    },
    {
      "place_name": "Roosevelt Park",
      "postal_code": "2195",
      "country_code": "ZA",
      "latitude": -26.15,
      "longitude": 27.9833,
      "admin_name1": null
    },
    {
      "place_name": "Hurlingham View",
      "postal_code": "2196",
      "country_code": "ZA",
      "latitude": -26.1125,
      "longitude": 28.0625,
      "admin_name1": null
    },
    {
      "place_name": "Delmas",
      "postal_code": "2210",
      "country_code": "ZA",
      "latitude": -26.15,
      "longitude": 28.6833,
      "admin_name1": null
    },
    {
      "place_name": "Kriel",
      "postal_code": "2231",
      "country_code": "ZA",
      "latitude": -26.2667,
      "longitude": 29.2333,
      "admin_name1": null
    },
    {
      "place_name": "Evander",
      "postal_code": "2284",
      "country_code": "ZA",
      "latitude": -26.45,
      "longitude": 29.1167,
      "admin_name1": null
    },
    {
      "place_name": "Dundonald",
      "postal_code": "2336",
      "country_code": "ZA",
      "latitude": -26.5333,
      "longitude": 29.9833,
      "admin_name1": null
    },
    {
      "place_name": "Carletonville",
      "postal_code": "2502",
      "country_code": "ZA",
      "latitude": -26.3667,
      "longitude": 27.4,
      "admin_name1": null
    },
    {
      "place_name": "Stilfontein",
      "postal_code": "2562",
      "country_code": "ZA",
      "latitude": -26.85,
      "longitude": 26.7833,
      "admin_name1": null
    },
    {
      "place_name": "Bloemhof",
      "postal_code": "2660",
      "country_code": "ZA",
      "latitude": -27.65,
      "longitude": 25.6,
      "admin_name1": null
    },
    {
      "place_name": "Dannhauser",
      "postal_code": "3080",
      "country_code": "ZA",
      "latitude": -28.0,
      "longitude": 30.05,
      "admin_name1": null
    },
    {
      "place_name": "Pietermaritzburg",
      "postal_code": "3215",
      "country_code": "ZA",
      "latitude": -29.6167,
      "longitude": 30.3833,
      "admin_name1": null
    },
    {
      "place_name": "Kranskop",
      "postal_code": "3272",
      "country_code": "ZA",
      "latitude": -30.5667,
      "longitude": 26.9,
      "admin_name1": null
    },
    {
      "place_name": "Kwadlangezwa",
      "postal_code": "3886",
      "country_code": "ZA",
      "latitude": -28.7767,
      "longitude": 31.9,
      "admin_name1": null
    },
    {
      "place_name": "Richards Bay",
      "postal_code": "3902",
      "country_code": "ZA",
      "latitude": -28.8,
      "longitude": 32.1,
      "admin_name1": null
    },
    {
      "place_name": "Nongoma",
      "postal_code": "3938",
      "country_code": "ZA",
      "latitude": -27.9,
      "longitude": 31.65,
      "admin_name1": null
    },
    {
      "place_name": "Umhlanga Rocks",
      "postal_code": "4021",
      "country_code": "ZA",
      "latitude": -29.7167,
      "longitude": 31.0667,
      "admin_name1": null
    },
    {
      "place_name": "Kwa-Mashu",
      "postal_code": "4032",
      "country_code": "ZA",
      "latitude": -29.85,
      "longitude": 31.0167,
      "admin_name1": null
    },
    {
      "place_name": "Rossburgh",
      "postal_code": "4094",
      "country_code": "ZA",
      "latitude": -29.9,
      "longitude": 30.9667,
      "admin_name1": null
    },
    {
      "place_name": "Tongaat",
      "postal_code": "4402",
      "country_code": "ZA",
      "latitude": -29.5833,
      "longitude": 31.1333,
      "admin_name1": null
    },
    {
      "place_name": "Bizana",
      "postal_code": "4803",
      "country_code": "ZA",
      "latitude": -30.85,
      "longitude": 29.85,
      "admin_name1": null
    },
    {
      "place_name": "Flagstaff",
      "postal_code": "4811",
      "country_code": "ZA",
      "latitude": -31.0833,
      "longitude": 29.4833,
      "admin_name1": null
    },
    {
      "place_name": "Butterworth",
      "postal_code": "4960",
      "country_code": "ZA",
      "latitude": -32.3333,
      "longitude": 28.15,
      "admin_name1": null
    },
    {
      "place_name": "Idutywa",
      "postal_code": "5015",
      "country_code": "ZA",
      "latitude": -32.1,
      "longitude": 28.3,
      "admin_name1": null
    },
    {
      "place_name": "Elliotdale",
      "postal_code": "5070",
      "country_code": "ZA",
      "latitude": -31.9667,
      "longitude": 28.6833,
      "admin_name1": null
    },
    {
      "place_name": "Nahoon",
      "postal_code": "5241",
      "country_code": "ZA",
      "latitude": -33.0333,
      "longitude": 27.9167,
      "admin_name1": null
    },
    {
      "place_name": "Queenstown",
      "postal_code": "5320",
      "country_code": "ZA",
      "latitude": -31.9,
      "longitude": 26.8833,
      "admin_name1": null
    },
    {
      "place_name": "Cofimvaba",
      "postal_code": "5380",
      "country_code": "ZA",
      "latitude": -32.0167,
      "longitude": 27.5833,
      "admin_name1": null
    },
    {
      "place_name": "Lady Frere",
      "postal_code": "5418",
      "country_code": "ZA",
      "latitude": -31.7,
      "longitude": 27.2333,
      "admin_name1": null
    },
    {
      "place_name": "King William'S Town",
      "postal_code": "5600",
      "country_code": "ZA",
      "latitude": -32.8833,
      "longitude": 27.4,
      "admin_name1": null
    },
    {
      "place_name": "Adelaide",
      "postal_code": "5760",
      "country_code": "ZA",
      "latitude": -32.7,
      "longitude": 26.3,
      "admin_name1": null
    },
    {
      "place_name": "Cookhouse",
      "postal_code": "5820",
      "country_code": "ZA",
      "latitude": -32.75,
      "longitude": 25.8167,
      "admin_name1": null
    },
    {
      "place_name": "Somerset East",
      "postal_code": "5850",
      "country_code": "ZA",
      "latitude": -32.7167,
      "longitude": 25.5833,
      "admin_name1": null
    },
    {
      "place_name": "Pearston",
      "postal_code": "5860",
      "country_code": "ZA",
      "latitude": -32.5833,
      "longitude": 25.1333,
      "admin_name1": null
    },
    {
      "place_name": "Cradock",
      "postal_code": "5884",
      "country_code": "ZA",
      "latitude": -32.1833,
      "longitude": 25.6167,
      "admin_name1": null
    },
    {
      "place_name": "Adendorp",
      "postal_code": "6282",
      "country_code": "ZA",
      "latitude": -32.3,
      "longitude": 24.55,
      "admin_name1": null
    },
    {
      "place_name": "Humansdorp",
      "postal_code": "6306",
      "country_code": "ZA",
      "latitude": -34.0333,
      "longitude": 24.7667,
      "admin_name1": null
    },
    {
      "place_name": "Mossel Bay",
      "postal_code": "6511",
      "country_code": "ZA",
      "latitude": -34.1833,
      "longitude": 22.1333,
      "admin_name1": null
    },
    {
      "place_name": "Firgrove",
      "postal_code": "7130",
      "country_code": "ZA",
      "latitude": -34.075,
      "longitude": 18.8083,
      "admin_name1": null
    },
    {
      "place_name": "Somerset West",
      "postal_code": "7134",
      "country_code": "ZA",
      "latitude": -34.0833,
      "longitude": 18.85,
      "admin_name1": null
    },
    {
      "place_name": "Vredenburg",
      "postal_code": "7381",
      "country_code": "ZA",
      "latitude": -32.9,
      "longitude": 17.9833,
      "admin_name1": null
    },
    {
      "place_name": "Parow",
      "postal_code": "7503",
      "country_code": "ZA",
      "latitude": -33.9,
      "longitude": 18.6,
      "admin_name1": null
    },
    {
      "place_name": "Stellenbosch",
      "postal_code": "7607",
      "country_code": "ZA",
      "latitude": -33.9333,
      "longitude": 18.85,
      "admin_name1": null
    },
    {
      "place_name": "Elspark",
      "postal_code": "7764",
      "country_code": "ZA",
      "latitude": -33.9778,
      "longitude": 18.5167,
      "admin_name1": null
    },
    {
      "place_name": "Diep River",
      "postal_code": "7800",
      "country_code": "ZA",
      "latitude": -34.0345,
      "longitude": 18.4651,
      "admin_name1": null
    },
    {
      "place_name": "Kaapstad",
      "postal_code": "7925",
      "country_code": "ZA",
      "latitude": -33.9167,
      "longitude": 18.4167,
      "admin_name1": null
    },
    {
      "place_name": "Muizenberg",
      "postal_code": "7946",
      "country_code": "ZA",
      "latitude": -34.1167,
      "longitude": 18.4667,
      "admin_name1": null
    },
    {
      "place_name": "Fish Hoek",
      "postal_code": "7990",
      "country_code": "ZA",
      "latitude": -34.1333,
      "longitude": 18.4333,
      "admin_name1": null
    },
    {
      "place_name": "Vredendal",
      "postal_code": "8146",
      "country_code": "ZA",
      "latitude": -31.6667,
      "longitude": 18.5,
      "admin_name1": null
    },
    {
      "place_name": "Springbok",
      "postal_code": "8251",
      "country_code": "ZA",
      "latitude": -29.6667,
      "longitude": 17.8833,
      "admin_name1": null
    },
    {
      "place_name": "Kamieskroon",
      "postal_code": "8253",
      "country_code": "ZA",
      "latitude": -30.2,
      "longitude": 17.9333,
      "admin_name1": null
    },
    {
      "place_name": "Philipstown",
      "postal_code": "8795",
      "country_code": "ZA",
      "latitude": -30.4333,
      "longitude": 24.4667,
      "admin_name1": null
    },
    {
      "place_name": "Carnarvon",
      "postal_code": "8922",
      "country_code": "ZA",
      "latitude": -30.95,
      "longitude": 22.1333,
      "admin_name1": null
    },
    {
      "place_name": "Bloemfontein",
      "postal_code": "9317",
      "country_code": "ZA",
      "latitude": -29.1333,
      "longitude": 26.2,
      "admin_name1": null
    },
    {
      "place_name": "Bothaville",
      "postal_code": "9663",
      "country_code": "ZA",
      "latitude": -27.3667,
      "longitude": 26.6167,
      "admin_name1": null
    },
    {
      "place_name": "Aliwal North",
      "postal_code": "9754",
      "country_code": "ZA",
      "latitude": -30.7,
      "longitude": 26.7,
      "admin_name1": null
    },
    {
      "place_name": "Sterkspruit",
      "postal_code": "9762",
      "country_code": "ZA",
      "latitude": -25.3667,
      "longitude": 30.5333,
      "admin_name1": null
    },
    {
      "place_name": "Colesberg",
      "postal_code": "9922",
      "country_code": "ZA",
      "latitude": -30.7333,
      "longitude": 25.1,
      "admin_name1": null
    },
    {
      "place_name": "Zastron",
      "postal_code": "9945",
      "country_code": "ZA",
      "latitude": -30.3,
      "longitude": 27.0833,
      "admin_name1": null
    },
    {
      "place_name": "Menlo Park",
      "postal_code": "0081",
      "country_code": "ZA",
      "latitude": -25.7069,
      "longitude": 28.2294,
      "admin_name1": null
    },
    {
      "place_name": "Medunsa",
      "postal_code": "0190",
      "country_code": "ZA",
      "latitude": -25.6189,
      "longitude": 28.0228,
      "admin_name1": null
    },
    {
      "place_name": "Boitekong",
      "postal_code": "0308",
      "country_code": "ZA",
      "latitude": -25.6667,
      "longitude": 27.25,
      "admin_name1": null
    },
    {
      "place_name": "Mogwase",
      "postal_code": "0371",
      "country_code": "ZA",
      "latitude": -25.2667,
      "longitude": 27.2333,
      "admin_name1": null
    },
    {
      "place_name": "Warmbaths",
      "postal_code": "0430",
      "country_code": "ZA",
      "latitude": -24.95,
      "longitude": 28.5333,
      "admin_name1": null
    },
    {
      "place_name": "Marble Hall",
      "postal_code": "0451",
      "country_code": "ZA",
      "latitude": -24.9667,
      "longitude": 29.3,
      "admin_name1": null
    },
    {
      "place_name": "Seshego",
      "postal_code": "0699",
      "country_code": "ZA",
      "latitude": -23.85,
      "longitude": 29.3833,
      "admin_name1": null
    },
    {
      "place_name": "Letsitele",
      "postal_code": "0885",
      "country_code": "ZA",
      "latitude": -23.8833,
      "longitude": 30.4,
      "admin_name1": null
    },
    {
      "place_name": "Sibasa",
      "postal_code": "0906",
      "country_code": "ZA",
      "latitude": -22.95,
      "longitude": 30.4667,
      "admin_name1": null
    },
    {
      "place_name": "Dzanani",
      "postal_code": "0955",
      "country_code": "ZA",
      "latitude": -22.8833,
      "longitude": 30.1667,
      "admin_name1": null
    },
    {
      "place_name": "Mungomani",
      "postal_code": "0992",
      "country_code": "ZA",
      "latitude": -22.95,
      "longitude": 30.4667,
      "admin_name1": null
    },
    {
      "place_name": "Kwaguqa",
      "postal_code": "1073",
      "country_code": "ZA",
      "latitude": -25.8667,
      "longitude": 29.2333,
      "admin_name1": null
    },
    {
      "place_name": "Bushbuckridge",
      "postal_code": "1284",
      "country_code": "ZA",
      "latitude": -24.8333,
      "longitude": 31.0667,
      "admin_name1": null
    },
    {
      "place_name": "Kwalugedlane",
      "postal_code": "1347",
      "country_code": "ZA",
      "latitude": -25.7333,
      "longitude": 31.8167,
      "admin_name1": null
    },
    {
      "place_name": "Katlehong Ext",
      "postal_code": "1434",
      "country_code": "ZA",
      "latitude": -26.3583,
      "longitude": 28.2667,
      "admin_name1": null
    },
    {
      "place_name": "Kwenzekile",
      "postal_code": "1434",
      "country_code": "ZA",
      "latitude": -26.3583,
      "longitude": 28.2667,
      "admin_name1": null
    },
    {
      "place_name": "Nigel",
      "postal_code": "1491",
      "country_code": "ZA",
      "latitude": -26.4167,
      "longitude": 28.4667,
      "admin_name1": null
    },
    {
      "place_name": "Daveyton",
      "postal_code": "1519",
      "country_code": "ZA",
      "latitude": -26.15,
      "longitude": 28.4167,
      "admin_name1": null
    },
    {
      "place_name": "Springs",
      "postal_code": "1571",
      "country_code": "ZA",
      "latitude": -26.25,
      "longitude": 28.4,
      "admin_name1": null
    },
    {
      "place_name": "Krugersdorp",
      "postal_code": "1751",
      "country_code": "ZA",
      "latitude": -26.1,
      "longitude": 27.7667,
      "admin_name1": null
    },
    {
      "place_name": "Meadowlands",
      "postal_code": "1803",
      "country_code": "ZA",
      "latitude": -26.2,
      "longitude": 27.8833,
      "admin_name1": null
    },
    {
      "place_name": "Gauteng",
      "postal_code": "1820",
      "country_code": "ZA",
      "latitude": -26.3567,
      "longitude": 27.8333,
      "admin_name1": null
    },
    {
      "place_name": "Lenasia",
      "postal_code": "1829",
      "country_code": "ZA",
      "latitude": -26.3167,
      "longitude": 27.8333,
      "admin_name1": null
    },
    {
      "place_name": "Vanderbijlpark",
      "postal_code": "1906",
      "country_code": "ZA",
      "latitude": -26.7,
      "longitude": 27.8167,
      "admin_name1": null
    },
    {
      "place_name": "Bromhof",
      "postal_code": "2154",
      "country_code": "ZA",
      "latitude": -26.2,
      "longitude": 28.0833,
      "admin_name1": null
    },
    {
      "place_name": "Mpumalanga",
      "postal_code": "2410",
      "country_code": "ZA",
      "latitude": -26.65,
      "longitude": 28.5833,
      "admin_name1": null
    },
    {
      "place_name": "Klerksdorp",
      "postal_code": "2573",
      "country_code": "ZA",
      "latitude": -26.8667,
      "longitude": 26.6667,
      "admin_name1": null
    },
    {
      "place_name": "Ottosdal",
      "postal_code": "2610",
      "country_code": "ZA",
      "latitude": -26.8167,
      "longitude": 26.0167,
      "admin_name1": null
    },
    {
      "place_name": "Mmabatho",
      "postal_code": "2777",
      "country_code": "ZA",
      "latitude": -25.85,
      "longitude": 25.6333,
      "admin_name1": null
    },
    {
      "place_name": "Impendle",
      "postal_code": "3228",
      "country_code": "ZA",
      "latitude": -29.6,
      "longitude": 29.8667,
      "admin_name1": null
    },
    {
      "place_name": "Howick",
      "postal_code": "3275",
      "country_code": "ZA",
      "latitude": -29.4667,
      "longitude": 30.2333,
      "admin_name1": null
    },
    {
      "place_name": "Estcourt",
      "postal_code": "3325",
      "country_code": "ZA",
      "latitude": -29.0,
      "longitude": 29.8833,
      "admin_name1": null
    },
    {
      "place_name": "Gingindlovu",
      "postal_code": "3818",
      "country_code": "ZA",
      "latitude": -29.0167,
      "longitude": 31.5833,
      "admin_name1": null
    },
    {
      "place_name": "Mahlabatini",
      "postal_code": "3856",
      "country_code": "ZA",
      "latitude": -28.25,
      "longitude": 31.4333,
      "admin_name1": null
    },
    {
      "place_name": "St Lucia Estuary",
      "postal_code": "3936",
      "country_code": "ZA",
      "latitude": -28.4167,
      "longitude": 32.1833,
      "admin_name1": null
    },
    {
      "place_name": "Hlabisa",
      "postal_code": "3937",
      "country_code": "ZA",
      "latitude": -28.1333,
      "longitude": 31.8667,
      "admin_name1": null
    },
    {
      "place_name": "Jozini",
      "postal_code": "3983",
      "country_code": "ZA",
      "latitude": -27.4333,
      "longitude": 32.0667,
      "admin_name1": null
    },
    {
      "place_name": "Umlazi",
      "postal_code": "4148",
      "country_code": "ZA",
      "latitude": -29.9667,
      "longitude": 30.8833,
      "admin_name1": null
    },
    {
      "place_name": "Umkomaas",
      "postal_code": "4171",
      "country_code": "ZA",
      "latitude": -30.2,
      "longitude": 30.8,
      "admin_name1": null
    },
    {
      "place_name": "Kwamashu",
      "postal_code": "4359",
      "country_code": "ZA",
      "latitude": -29.75,
      "longitude": 30.9833,
      "admin_name1": null
    },
    {
      "place_name": "Shakaskraal",
      "postal_code": "4430",
      "country_code": "ZA",
      "latitude": -29.45,
      "longitude": 31.2167,
      "admin_name1": null
    },
    {
      "place_name": "Stutterheim",
      "postal_code": "4934",
      "country_code": "ZA",
      "latitude": -32.5667,
      "longitude": 27.4167,
      "admin_name1": null
    },
    {
      "place_name": "Clarkebury",
      "postal_code": "5026",
      "country_code": "ZA",
      "latitude": -31.7833,
      "longitude": 28.3,
      "admin_name1": null
    },
    {
      "place_name": "Willowvale",
      "postal_code": "5041",
      "country_code": "ZA",
      "latitude": -32.2667,
      "longitude": 28.5167,
      "admin_name1": null
    },
    {
      "place_name": "Mqanduli",
      "postal_code": "5085",
      "country_code": "ZA",
      "latitude": -31.8167,
      "longitude": 28.75,
      "admin_name1": null
    },
    {
      "place_name": "Whittlesea",
      "postal_code": "5364",
      "country_code": "ZA",
      "latitude": -32.1667,
      "longitude": 26.8167,
      "admin_name1": null
    },
    {
      "place_name": "Tsomo",
      "postal_code": "5400",
      "country_code": "ZA",
      "latitude": -32.0333,
      "longitude": 27.8,
      "admin_name1": null
    },
    {
      "place_name": "Hackney",
      "postal_code": "6351",
      "country_code": "ZA",
      "latitude": -32.3167,
      "longitude": 26.6333,
      "admin_name1": null
    },
    {
      "place_name": "Oudtshoorn",
      "postal_code": "6651",
      "country_code": "ZA",
      "latitude": -33.5833,
      "longitude": 22.2,
      "admin_name1": null
    },
    {
      "place_name": "Touwsrivier",
      "postal_code": "6880",
      "country_code": "ZA",
      "latitude": -33.3333,
      "longitude": 20.0333,
      "admin_name1": null
    },
    {
      "place_name": "Beaufort-Wes",
      "postal_code": "6970",
      "country_code": "ZA",
      "latitude": -32.35,
      "longitude": 22.5833,
      "admin_name1": null
    },
    {
      "place_name": "Caledon",
      "postal_code": "7230",
      "country_code": "ZA",
      "latitude": -34.2167,
      "longitude": 19.4167,
      "admin_name1": null
    },
    {
      "place_name": "Piketberg",
      "postal_code": "7321",
      "country_code": "ZA",
      "latitude": -32.9,
      "longitude": 18.7667,
      "admin_name1": null
    },
    {
      "place_name": "Goodwood",
      "postal_code": "7463",
      "country_code": "ZA",
      "latitude": -26.45,
      "longitude": 24.1833,
      "admin_name1": null
    },
    {
      "place_name": "Matroosfontein",
      "postal_code": "7490",
      "country_code": "ZA",
      "latitude": -33.9333,
      "longitude": 18.5833,
      "admin_name1": null
    },
    {
      "place_name": "Lavistown",
      "postal_code": "7490",
      "country_code": "ZA",
      "latitude": -33.9222,
      "longitude": 18.5222,
      "admin_name1": null
    },
    {
      "place_name": "Huguenot",
      "postal_code": "7627",
      "country_code": "ZA",
      "latitude": -31.0833,
      "longitude": 26.6,
      "admin_name1": null
    },
    {
      "place_name": "Steenberg",
      "postal_code": "7945",
      "country_code": "ZA",
      "latitude": -34.0667,
      "longitude": 18.4667,
      "admin_name1": null
    },
    {
      "place_name": "Clanwilliam",
      "postal_code": "8120",
      "country_code": "ZA",
      "latitude": -32.1833,
      "longitude": 18.9,
      "admin_name1": null
    },
    {
      "place_name": "Bitterfontein",
      "postal_code": "8204",
      "country_code": "ZA",
      "latitude": -31.0333,
      "longitude": 18.2667,
      "admin_name1": null
    },
    {
      "place_name": "Kleinsee",
      "postal_code": "8249",
      "country_code": "ZA",
      "latitude": -29.6667,
      "longitude": 17.0833,
      "admin_name1": null
    },
    {
      "place_name": "Danielskuil",
      "postal_code": "8405",
      "country_code": "ZA",
      "latitude": -28.1833,
      "longitude": 23.5333,
      "admin_name1": null
    },
    {
      "place_name": "Prieska",
      "postal_code": "8940",
      "country_code": "ZA",
      "latitude": -29.6667,
      "longitude": 22.75,
      "admin_name1": null
    },
    {
      "place_name": "Kroonstad",
      "postal_code": "9505",
      "country_code": "ZA",
      "latitude": -27.65,
      "longitude": 27.2333,
      "admin_name1": null
    },
    {
      "place_name": "Burgersdorp",
      "postal_code": "9744",
      "country_code": "ZA",
      "latitude": -30.9833,
      "longitude": 26.3167,
      "admin_name1": null
    },
    {
      "place_name": "Garapulana",
      "postal_code": "9775",
      "country_code": "ZA",
      "latitude": -29.3154,
      "longitude": 27.4386,
      "admin_name1": null
    },
    {
      "place_name": "Philippolis",
      "postal_code": "9970",
      "country_code": "ZA",
      "latitude": -30.2667,
      "longitude": 25.2833,
      "admin_name1": null
    },
    {
      "place_name": "Derdepoortpark",
      "postal_code": "0035",
      "country_code": "ZA",
      "latitude": -25.7069,
      "longitude": 28.2294,
      "admin_name1": null
    },
    {
      "place_name": "Centurion",
      "postal_code": "0163",
      "country_code": "ZA",
      "latitude": -25.7069,
      "longitude": 28.2294,
      "admin_name1": null
    },
    {
      "place_name": "Waterkloof",
      "postal_code": "0181",
      "country_code": "ZA",
      "latitude": -25.7781,
      "longitude": 28.2358,
      "admin_name1": null
    },
    {
      "place_name": "Boordfontein West",
      "postal_code": "0182",
      "country_code": "ZA",
      "latitude": -25.6771,
      "longitude": 28.1867,
      "admin_name1": null
    },
    {
      "place_name": "Saulspoort",
      "postal_code": "0318",
      "country_code": "ZA",
      "latitude": -24.9333,
      "longitude": 27.15,
      "admin_name1": null
    },
    {
      "place_name": "Temba",
      "postal_code": "0409",
      "country_code": "ZA",
      "latitude": -25.365,
      "longitude": 28.2189,
      "admin_name1": null
    },
    {
      "place_name": "Boleu",
      "postal_code": "0474",
      "country_code": "ZA",
      "latitude": -25.15,
      "longitude": 29.3833,
      "admin_name1": null
    },
    {
      "place_name": "Warmbad",
      "postal_code": "0482",
      "country_code": "ZA",
      "latitude": -24.8833,
      "longitude": 28.2833,
      "admin_name1": null
    },
    {
      "place_name": "Mokamole",
      "postal_code": "0633",
      "country_code": "ZA",
      "latitude": -24.1833,
      "longitude": 29.0167,
      "admin_name1": null
    },
    {
      "place_name": "Mphahlele",
      "postal_code": "0762",
      "country_code": "ZA",
      "latitude": -23.9333,
      "longitude": 29.8167,
      "admin_name1": null
    },
    {
      "place_name": "Trichardtsdal",
      "postal_code": "0891",
      "country_code": "ZA",
      "latitude": -24.1667,
      "longitude": 30.4,
      "admin_name1": null
    },
    {
      "place_name": "Cullinan",
      "postal_code": "1005",
      "country_code": "ZA",
      "latitude": -25.6756,
      "longitude": 28.5222,
      "admin_name1": null
    },
    {
      "place_name": "Sekhukhune",
      "postal_code": "1064",
      "country_code": "ZA",
      "latitude": -25.625,
      "longitude": 29.4458,
      "admin_name1": null
    },
    {
      "place_name": "White River",
      "postal_code": "1240",
      "country_code": "ZA",
      "latitude": -25.3167,
      "longitude": 31.0167,
      "admin_name1": null
    },
    {
      "place_name": "Shongwe Mission",
      "postal_code": "1331",
      "country_code": "ZA",
      "latitude": -25.4667,
      "longitude": 31.9,
      "admin_name1": null
    },
    {
      "place_name": "Malelane",
      "postal_code": "1331",
      "country_code": "ZA",
      "latitude": -25.4833,
      "longitude": 31.5167,
      "admin_name1": null
    },
    {
      "place_name": "Skukuza",
      "postal_code": "1353",
      "country_code": "ZA",
      "latitude": -24.9833,
      "longitude": 31.6,
      "admin_name1": null
    },
    {
      "place_name": "Hoedspruit",
      "postal_code": "1371",
      "country_code": "ZA",
      "latitude": -24.35,
      "longitude": 30.9667,
      "admin_name1": null
    },
    {
      "place_name": "Rabie Ridge",
      "postal_code": "1632",
      "country_code": "ZA",
      "latitude": -26.1,
      "longitude": 28.25,
      "admin_name1": null
    },
    {
      "place_name": "De Deur",
      "postal_code": "1884",
      "country_code": "ZA",
      "latitude": -26.5333,
      "longitude": 27.9333,
      "admin_name1": null
    },
    {
      "place_name": "Bedworth Park",
      "postal_code": "1940",
      "country_code": "ZA",
      "latitude": -26.7167,
      "longitude": 27.8833,
      "admin_name1": null
    },
    {
      "place_name": "Witkoppen",
      "postal_code": "2191",
      "country_code": "ZA",
      "latitude": -26.1,
      "longitude": 28.0556,
      "admin_name1": null
    },
    {
      "place_name": "Christiana",
      "postal_code": "2680",
      "country_code": "ZA",
      "latitude": -28.2333,
      "longitude": 21.25,
      "admin_name1": null
    },
    {
      "place_name": "Elandskop",
      "postal_code": "3226",
      "country_code": "ZA",
      "latitude": -29.3167,
      "longitude": 29.7,
      "admin_name1": null
    },
    {
      "place_name": "New Germany",
      "postal_code": "3610",
      "country_code": "ZA",
      "latitude": -29.8,
      "longitude": 30.8833,
      "admin_name1": null
    },
    {
      "place_name": "Melmoth",
      "postal_code": "3850",
      "country_code": "ZA",
      "latitude": -28.5833,
      "longitude": 31.3833,
      "admin_name1": null
    },
    {
      "place_name": "Ingwavuma",
      "postal_code": "3977",
      "country_code": "ZA",
      "latitude": -27.1333,
      "longitude": 31.9833,
      "admin_name1": null
    },
    {
      "place_name": "Umbumbulu",
      "postal_code": "4105",
      "country_code": "ZA",
      "latitude": -29.9833,
      "longitude": 30.7,
      "admin_name1": null
    },
    {
      "place_name": "Yellowwood Park",
      "postal_code": "4162",
      "country_code": "ZA",
      "latitude": -29.4379,
      "longitude": 30.4299,
      "admin_name1": null
    },
    {
      "place_name": "Kentani",
      "postal_code": "4980",
      "country_code": "ZA",
      "latitude": -32.5167,
      "longitude": 28.3167,
      "admin_name1": null
    },
    {
      "place_name": "Engcobo",
      "postal_code": "5051",
      "country_code": "ZA",
      "latitude": -31.6667,
      "longitude": 28.0,
      "admin_name1": null
    },
    {
      "place_name": "Mount Frere",
      "postal_code": "5092",
      "country_code": "ZA",
      "latitude": -30.9167,
      "longitude": 28.9833,
      "admin_name1": null
    },
    {
      "place_name": "Port St Johns",
      "postal_code": "5121",
      "country_code": "ZA",
      "latitude": -31.5833,
      "longitude": 28.7833,
      "admin_name1": null
    },
    {
      "place_name": "Tsolo",
      "postal_code": "5171",
      "country_code": "ZA",
      "latitude": -31.3167,
      "longitude": 28.75,
      "admin_name1": null
    },
    {
      "place_name": "Indwe",
      "postal_code": "5445",
      "country_code": "ZA",
      "latitude": -31.4667,
      "longitude": 27.3333,
      "admin_name1": null
    },
    {
      "place_name": "Addo",
      "postal_code": "6105",
      "country_code": "ZA",
      "latitude": -33.5667,
      "longitude": 25.6833,
      "admin_name1": null
    },
    {
      "place_name": "Swellendam",
      "postal_code": "6742",
      "country_code": "ZA",
      "latitude": -34.0333,
      "longitude": 20.4333,
      "admin_name1": null
    },
    {
      "place_name": "Prince Albert",
      "postal_code": "6932",
      "country_code": "ZA",
      "latitude": -33.2167,
      "longitude": 22.0333,
      "admin_name1": null
    },
    {
      "place_name": "Gans Bay",
      "postal_code": "7221",
      "country_code": "ZA",
      "latitude": -34.5833,
      "longitude": 19.35,
      "admin_name1": null
    },
    {
      "place_name": "Bredasdorp",
      "postal_code": "7282",
      "country_code": "ZA",
      "latitude": -34.5333,
      "longitude": 20.0333,
      "admin_name1": null
    },
    {
      "place_name": "Milnerton",
      "postal_code": "7436",
      "country_code": "ZA",
      "latitude": -33.8667,
      "longitude": 18.4833,
      "admin_name1": null
    },
    {
      "place_name": "Melkbosstrand",
      "postal_code": "7440",
      "country_code": "ZA",
      "latitude": -33.7306,
      "longitude": 18.4361,
      "admin_name1": null
    },
    {
      "place_name": "Bloubergrant",
      "postal_code": "7449",
      "country_code": "ZA",
      "latitude": -33.8667,
      "longitude": 18.4833,
      "admin_name1": null
    },
    {
      "place_name": "Bellville",
      "postal_code": "7530",
      "country_code": "ZA",
      "latitude": -33.9,
      "longitude": 18.6333,
      "admin_name1": null
    },
    {
      "place_name": "Gatesville",
      "postal_code": "7780",
      "country_code": "ZA",
      "latitude": -33.9722,
      "longitude": 18.4667,
      "admin_name1": null
    },
    {
      "place_name": "Mitchells Plain",
      "postal_code": "7787",
      "country_code": "ZA",
      "latitude": -34.05,
      "longitude": 18.6167,
      "admin_name1": null
    },
    {
      "place_name": "Tokai",
      "postal_code": "7945",
      "country_code": "ZA",
      "latitude": -34.0667,
      "longitude": 18.4333,
      "admin_name1": null
    },
    {
      "place_name": "Simonstad",
      "postal_code": "7975",
      "country_code": "ZA",
      "latitude": -34.1833,
      "longitude": 18.4333,
      "admin_name1": null
    },
    {
      "place_name": "Barkly West",
      "postal_code": "8376",
      "country_code": "ZA",
      "latitude": -28.5333,
      "longitude": 24.5167,
      "admin_name1": null
    },
    {
      "place_name": "Postmasburg",
      "postal_code": "8423",
      "country_code": "ZA",
      "latitude": -28.3,
      "longitude": 23.0167,
      "admin_name1": null
    },
    {
      "place_name": "Vryburg",
      "postal_code": "8680",
      "country_code": "ZA",
      "latitude": -26.95,
      "longitude": 24.7333,
      "admin_name1": null
    },
    {
      "place_name": "Luckhoff",
      "postal_code": "9982",
      "country_code": "ZA",
      "latitude": -29.75,
      "longitude": 24.7833,
      "admin_name1": null
    },
    {
      "place_name": "Groblersdal",
      "postal_code": "0474",
      "country_code": "ZA",
      "latitude": -25.15,
      "longitude": 29.3833,
      "admin_name1": null
    },
    {
      "place_name": "Siyabuswa",
      "postal_code": "1030",
      "country_code": "ZA",
      "latitude": -25.1167,
      "longitude": 29.05,
      "admin_name1": null
    },
    {
      "place_name": "Whiteriver",
      "postal_code": "1254",
      "country_code": "ZA",
      "latitude": -24.9333,
      "longitude": 31.0917,
      "admin_name1": null
    },
    {
      "place_name": "Sabie",
      "postal_code": "1260",
      "country_code": "ZA",
      "latitude": -25.1,
      "longitude": 30.7833,
      "admin_name1": null
    },
    {
      "place_name": "Graskop",
      "postal_code": "1273",
      "country_code": "ZA",
      "latitude": -24.9333,
      "longitude": 30.8333,
      "admin_name1": null
    },
    {
      "place_name": "Boksburg",
      "postal_code": "1462",
      "country_code": "ZA",
      "latitude": -26.1786,
      "longitude": 28.2459,
      "admin_name1": null
    },
    {
      "place_name": "Tembisa",
      "postal_code": "1637",
      "country_code": "ZA",
      "latitude": -26.0167,
      "longitude": 28.2333,
      "admin_name1": null
    },
    {
      "place_name": "Roodepoort",
      "postal_code": "1731",
      "country_code": "ZA",
      "latitude": -26.1667,
      "longitude": 27.8667,
      "admin_name1": null
    },
    {
      "place_name": "Strubensvallei",
      "postal_code": "1735",
      "country_code": "ZA",
      "latitude": -26.1667,
      "longitude": 27.8667,
      "admin_name1": null
    },
    {
      "place_name": "Residensia",
      "postal_code": "1980",
      "country_code": "ZA",
      "latitude": -26.5833,
      "longitude": 27.8333,
      "admin_name1": null
    },
    {
      "place_name": "Magalies View",
      "postal_code": "2067",
      "country_code": "ZA",
      "latitude": -26.2,
      "longitude": 28.0833,
      "admin_name1": null
    },
    {
      "place_name": "Radithuso",
      "postal_code": "2738",
      "country_code": "ZA",
      "latitude": -26.1811,
      "longitude": 25.8339,
      "admin_name1": null
    },
    {
      "place_name": "Eshowe",
      "postal_code": "3815",
      "country_code": "ZA",
      "latitude": -28.8833,
      "longitude": 31.4667,
      "admin_name1": null
    },
    {
      "place_name": "Mtubatuba",
      "postal_code": "3925",
      "country_code": "ZA",
      "latitude": -28.4167,
      "longitude": 32.1833,
      "admin_name1": null
    },
    {
      "place_name": "Durban North",
      "postal_code": "4098",
      "country_code": "ZA",
      "latitude": -29.8,
      "longitude": 31.0333,
      "admin_name1": null
    },
    {
      "place_name": "Scottburgh",
      "postal_code": "4180",
      "country_code": "ZA",
      "latitude": -30.2833,
      "longitude": 30.75,
      "admin_name1": null
    },
    {
      "place_name": "Hibberdene",
      "postal_code": "4200",
      "country_code": "ZA",
      "latitude": -30.3167,
      "longitude": 30.6667,
      "admin_name1": null
    },
    {
      "place_name": "Port Shepstone",
      "postal_code": "4241",
      "country_code": "ZA",
      "latitude": -30.75,
      "longitude": 30.45,
      "admin_name1": null
    },
    {
      "place_name": "Mehlomnyama",
      "postal_code": "4246",
      "country_code": "ZA",
      "latitude": -30.7571,
      "longitude": 30.4452,
      "admin_name1": null
    },
    {
      "place_name": "Shelly Beach",
      "postal_code": "4265",
      "country_code": "ZA",
      "latitude": -30.8,
      "longitude": 30.4167,
      "admin_name1": null
    },
    {
      "place_name": "Harding",
      "postal_code": "4687",
      "country_code": "ZA",
      "latitude": -30.5833,
      "longitude": 29.8833,
      "admin_name1": null
    },
    {
      "place_name": "Magadla",
      "postal_code": "4752",
      "country_code": "ZA",
      "latitude": -30.6,
      "longitude": 27.3167,
      "admin_name1": null
    },
    {
      "place_name": "Ndabakazi",
      "postal_code": "4964",
      "country_code": "ZA",
      "latitude": -32.3333,
      "longitude": 28.15,
      "admin_name1": null
    },
    {
      "place_name": "Nqamakwe",
      "postal_code": "4991",
      "country_code": "ZA",
      "latitude": -32.2333,
      "longitude": 28.0667,
      "admin_name1": null
    },
    {
      "place_name": "Tabankulu",
      "postal_code": "5134",
      "country_code": "ZA",
      "latitude": -30.9667,
      "longitude": 29.3,
      "admin_name1": null
    },
    {
      "place_name": "Mdantsane",
      "postal_code": "5221",
      "country_code": "ZA",
      "latitude": -32.95,
      "longitude": 27.7667,
      "admin_name1": null
    },
    {
      "place_name": "Fort Beaufort",
      "postal_code": "5720",
      "country_code": "ZA",
      "latitude": -32.7833,
      "longitude": 26.6333,
      "admin_name1": null
    },
    {
      "place_name": "Plettenberg Bay",
      "postal_code": "6605",
      "country_code": "ZA",
      "latitude": -34.05,
      "longitude": 23.3667,
      "admin_name1": null
    },
    {
      "place_name": "Bloubergstrand",
      "postal_code": "7441",
      "country_code": "ZA",
      "latitude": -33.8213,
      "longitude": 18.4454,
      "admin_name1": null
    },
    {
      "place_name": "Mbekweni",
      "postal_code": "7655",
      "country_code": "ZA",
      "latitude": -33.6833,
      "longitude": 18.9833,
      "admin_name1": null
    },
    {
      "place_name": "Nyanga",
      "postal_code": "7750",
      "country_code": "ZA",
      "latitude": -33.9833,
      "longitude": 18.5833,
      "admin_name1": null
    },
    {
      "place_name": "Klawer",
      "postal_code": "8147",
      "country_code": "ZA",
      "latitude": -31.7833,
      "longitude": 18.6167,
      "admin_name1": null
    },
    {
      "place_name": "Calvinia",
      "postal_code": "8190",
      "country_code": "ZA",
      "latitude": -31.4667,
      "longitude": 19.7833,
      "admin_name1": null
    },
    {
      "place_name": "Jan Kempdorp",
      "postal_code": "8553",
      "country_code": "ZA",
      "latitude": -27.9167,
      "longitude": 24.85,
      "admin_name1": null
    },
    {
      "place_name": "Taung",
      "postal_code": "8576",
      "country_code": "ZA",
      "latitude": -24.4833,
      "longitude": 30.4167,
      "admin_name1": null
    },
    {
      "place_name": "Madibogo",
      "postal_code": "8655",
      "country_code": "ZA",
      "latitude": -26.4167,
      "longitude": 25.2,
      "admin_name1": null
    },
    {
      "place_name": "Keimoes",
      "postal_code": "8861",
      "country_code": "ZA",
      "latitude": -28.7,
      "longitude": 20.9667,
      "admin_name1": null
    },
    {
      "place_name": "Vredefort",
      "postal_code": "9595",
      "country_code": "ZA",
      "latitude": -27.0167,
      "longitude": 27.3833,
      "admin_name1": null
    },
    {
      "place_name": "Ficksburg",
      "postal_code": "9732",
      "country_code": "ZA",
      "latitude": -28.8833,
      "longitude": 27.8833,
      "admin_name1": null
    },
    {
      "place_name": "Ladybrand",
      "postal_code": "9748",
      "country_code": "ZA",
      "latitude": -29.2,
      "longitude": 27.45,
      "admin_name1": null
    },
    {
      "place_name": "Reitz",
      "postal_code": "9810",
      "country_code": "ZA",
      "latitude": -27.8,
      "longitude": 28.4333,
      "admin_name1": null
    },
    {
      "place_name": "Witsieshoek",
      "postal_code": "9875",
      "country_code": "ZA",
      "latitude": -28.5333,
      "longitude": 28.8,
      "admin_name1": null
    },
    {
      "place_name": "Petrusburg",
      "postal_code": "9932",
      "country_code": "ZA",
      "latitude": -29.1167,
      "longitude": 25.4167,
      "admin_name1": null
    },
    {
      "place_name": "Bethulie",
      "postal_code": "9992",
      "country_code": "ZA",
      "latitude": -30.5333,
      "longitude": 21.2833,
      "admin_name1": null
    },
    {
      "place_name": "Philip Nel Park",
      "postal_code": "0029",
      "country_code": "ZA",
      "latitude": -25.7069,
      "longitude": 28.2294,
      "admin_name1": null
    },
    {
      "place_name": "Rooihuiskraal",
      "postal_code": "0157",
      "country_code": "ZA",
      "latitude": -25.8049,
      "longitude": 28.2056,
      "admin_name1": null
    },
    {
      "place_name": "Marikana",
      "postal_code": "0285",
      "country_code": "ZA",
      "latitude": -25.613,
      "longitude": 27.8843,
      "admin_name1": null
    },
    {
      "place_name": "Boyne",
      "postal_code": "0728",
      "country_code": "ZA",
      "latitude": -23.9333,
      "longitude": 29.8167,
      "admin_name1": null
    },
    {
      "place_name": "Superbia",
      "postal_code": "0778",
      "country_code": "ZA",
      "latitude": -23.8833,
      "longitude": 30.4,
      "admin_name1": null
    },
    {
      "place_name": "Tzaneen",
      "postal_code": "0850",
      "country_code": "ZA",
      "latitude": -23.8333,
      "longitude": 30.1667,
      "admin_name1": null
    },
    {
      "place_name": "Mutale",
      "postal_code": "0956",
      "country_code": "ZA",
      "latitude": -22.4833,
      "longitude": 30.9167,
      "admin_name1": null
    },
    {
      "place_name": "Strubens Valley",
      "postal_code": "1724",
      "country_code": "ZA",
      "latitude": -26.1767,
      "longitude": 27.8667,
      "admin_name1": null
    },
    {
      "place_name": "Pimville",
      "postal_code": "1809",
      "country_code": "ZA",
      "latitude": -26.2667,
      "longitude": 27.9,
      "admin_name1": null
    },
    {
      "place_name": "Kwaxuma",
      "postal_code": "1866",
      "country_code": "ZA",
      "latitude": -25.4333,
      "longitude": 28.2889,
      "admin_name1": null
    },
    {
      "place_name": "Vereeniging",
      "postal_code": "1935",
      "country_code": "ZA",
      "latitude": -26.6667,
      "longitude": 27.9333,
      "admin_name1": null
    },
    {
      "place_name": "Jeppestown",
      "postal_code": "2094",
      "country_code": "ZA",
      "latitude": -26.2,
      "longitude": 28.0833,
      "admin_name1": null
    },
    {
      "place_name": "North Riding",
      "postal_code": "2162",
      "country_code": "ZA",
      "latitude": -26.2,
      "longitude": 28.0833,
      "admin_name1": null
    },
    {
      "place_name": "Sundra",
      "postal_code": "2200",
      "country_code": "ZA",
      "latitude": -26.2311,
      "longitude": 29.0356,
      "admin_name1": null
    },
    {
      "place_name": "Wolmaransstad",
      "postal_code": "2630",
      "country_code": "ZA",
      "latitude": -27.2,
      "longitude": 25.9667,
      "admin_name1": null
    },
    {
      "place_name": "Vyrburg",
      "postal_code": "2781",
      "country_code": "ZA",
      "latitude": -25.8667,
      "longitude": 25.65,
      "admin_name1": null
    },
    {
      "place_name": "Madikwe",
      "postal_code": "2847",
      "country_code": "ZA",
      "latitude": -25.35,
      "longitude": 26.5333,
      "admin_name1": null
    },
    {
      "place_name": "Paulpietersburg",
      "postal_code": "3180",
      "country_code": "ZA",
      "latitude": -27.4167,
      "longitude": 30.8167,
      "admin_name1": null
    },
    {
      "place_name": "Bergville",
      "postal_code": "3354",
      "country_code": "ZA",
      "latitude": -28.7333,
      "longitude": 29.3667,
      "admin_name1": null
    },
    {
      "place_name": "Nagina",
      "postal_code": "3604",
      "country_code": "ZA",
      "latitude": -29.8167,
      "longitude": 30.85,
      "admin_name1": null
    },
    {
      "place_name": "Clernaville",
      "postal_code": "3610",
      "country_code": "ZA",
      "latitude": -29.8139,
      "longitude": 30.8389,
      "admin_name1": null
    },
    {
      "place_name": "Kwazimele",
      "postal_code": "4032",
      "country_code": "ZA",
      "latitude": -29.85,
      "longitude": 31.0167,
      "admin_name1": null
    },
    {
      "place_name": "Mobeni",
      "postal_code": "4092",
      "country_code": "ZA",
      "latitude": -29.95,
      "longitude": 30.95,
      "admin_name1": null
    },
    {
      "place_name": "Northdene",
      "postal_code": "4093",
      "country_code": "ZA",
      "latitude": -29.8333,
      "longitude": 30.9333,
      "admin_name1": null
    },
    {
      "place_name": "Ifafa Beach",
      "postal_code": "4185",
      "country_code": "ZA",
      "latitude": -30.45,
      "longitude": 30.65,
      "admin_name1": null
    },
    {
      "place_name": "Inanda",
      "postal_code": "4310",
      "country_code": "ZA",
      "latitude": -29.6833,
      "longitude": 30.9333,
      "admin_name1": null
    },
    {
      "place_name": "Ngqeleni",
      "postal_code": "5150",
      "country_code": "ZA",
      "latitude": -31.6667,
      "longitude": 29.0333,
      "admin_name1": null
    },
    {
      "place_name": "Tarkastad",
      "postal_code": "5370",
      "country_code": "ZA",
      "latitude": -32.0167,
      "longitude": 26.2667,
      "admin_name1": null
    },
    {
      "place_name": "Maclear",
      "postal_code": "5483",
      "country_code": "ZA",
      "latitude": -31.0833,
      "longitude": 28.3667,
      "admin_name1": null
    },
    {
      "place_name": "Walmer",
      "postal_code": "6070",
      "country_code": "ZA",
      "latitude": -33.9833,
      "longitude": 25.5833,
      "admin_name1": null
    },
    {
      "place_name": "Graaff-Reinet",
      "postal_code": "6280",
      "country_code": "ZA",
      "latitude": -32.25,
      "longitude": 24.55,
      "admin_name1": null
    },
    {
      "place_name": "Tulbagh",
      "postal_code": "6820",
      "country_code": "ZA",
      "latitude": -33.2833,
      "longitude": 19.15,
      "admin_name1": null
    },
    {
      "place_name": "Eersterivier",
      "postal_code": "7100",
      "country_code": "ZA",
      "latitude": -34.0167,
      "longitude": 18.7,
      "admin_name1": null
    },
    {
      "place_name": "Grabouw",
      "postal_code": "7171",
      "country_code": "ZA",
      "latitude": -34.15,
      "longitude": 19.0167,
      "admin_name1": null
    },
    {
      "place_name": "Malmesbury",
      "postal_code": "7302",
      "country_code": "ZA",
      "latitude": -33.45,
      "longitude": 18.7333,
      "admin_name1": null
    },
    {
      "place_name": "Mitchellsplain",
      "postal_code": "7785",
      "country_code": "ZA",
      "latitude": -33.9611,
      "longitude": 18.4833,
      "admin_name1": null
    },
    {
      "place_name": "Khayelitsha",
      "postal_code": "7794",
      "country_code": "ZA",
      "latitude": -34.05,
      "longitude": 18.6667,
      "admin_name1": null
    },
    {
      "place_name": "Vanrhynsdorp",
      "postal_code": "8170",
      "country_code": "ZA",
      "latitude": -31.6167,
      "longitude": 18.7333,
      "admin_name1": null
    },
    {
      "place_name": "Groblershoop",
      "postal_code": "8943",
      "country_code": "ZA",
      "latitude": -28.8833,
      "longitude": 21.9833,
      "admin_name1": null
    },
    {
      "place_name": "Theunissen",
      "postal_code": "9414",
      "country_code": "ZA",
      "latitude": -28.4,
      "longitude": 26.7167,
      "admin_name1": null
    },
    {
      "place_name": "Merafong",
      "postal_code": "9483",
      "country_code": "ZA",
      "latitude": -28.0778,
      "longitude": 26.3778,
      "admin_name1": null
    },
    {
      "place_name": "Clocolan",
      "postal_code": "9735",
      "country_code": "ZA",
      "latitude": -28.9,
      "longitude": 27.5667,
      "admin_name1": null
    },
    {
      "place_name": "Ga-Rapulana",
      "postal_code": "9775",
      "country_code": "ZA",
      "latitude": -29.3154,
      "longitude": 27.4386,
      "admin_name1": null
    },
    {
      "place_name": "Villiers",
      "postal_code": "9840",
      "country_code": "ZA",
      "latitude": -27.0333,
      "longitude": 28.6,
      "admin_name1": null
    },
    {
      "place_name": "Pretoria West",
      "postal_code": "0070",
      "country_code": "ZA",
      "latitude": -25.75,
      "longitude": 28.1667,
      "admin_name1": null
    },
    {
      "place_name": "Mamelodi",
      "postal_code": "0112",
      "country_code": "ZA",
      "latitude": -25.7072,
      "longitude": 28.3472,
      "admin_name1": null
    },
    {
      "place_name": "Mbibane",
      "postal_code": "0449",
      "country_code": "ZA",
      "latitude": -25.365,
      "longitude": 28.2189,
      "admin_name1": null
    },
    {
      "place_name": "Mahwelereng",
      "postal_code": "0626",
      "country_code": "ZA",
      "latitude": -24.15,
      "longitude": 28.9833,
      "admin_name1": null
    },
    {
      "place_name": "Bakone",
      "postal_code": "0746",
      "country_code": "ZA",
      "latitude": -23.95,
      "longitude": 29.1333,
      "admin_name1": null
    },
    {
      "place_name": "Ekangala",
      "postal_code": "1021",
      "country_code": "ZA",
      "latitude": -25.6944,
      "longitude": 28.7483,
      "admin_name1": null
    },
    {
      "place_name": "Thulamahashe",
      "postal_code": "1365",
      "country_code": "ZA",
      "latitude": -24.6167,
      "longitude": 31.2083,
      "admin_name1": null
    },
    {
      "place_name": "Ximhungwe",
      "postal_code": "1368",
      "country_code": "ZA",
      "latitude": -24.6167,
      "longitude": 31.2083,
      "admin_name1": null
    },
    {
      "place_name": "Delmore",
      "postal_code": "1401",
      "country_code": "ZA",
      "latitude": -26.2,
      "longitude": 28.175,
      "admin_name1": null
    },
    {
      "place_name": "Petit",
      "postal_code": "1512",
      "country_code": "ZA",
      "latitude": -26.1,
      "longitude": 28.3833,
      "admin_name1": null
    },
    {
      "place_name": "Ivory Park",
      "postal_code": "1689",
      "country_code": "ZA",
      "latitude": -25.9911,
      "longitude": 28.1718,
      "admin_name1": null
    },
    {
      "place_name": "Kagiso",
      "postal_code": "1754",
      "country_code": "ZA",
      "latitude": -26.1333,
      "longitude": 27.7833,
      "admin_name1": null
    },
    {
      "place_name": "Zamdela",
      "postal_code": "1949",
      "country_code": "ZA",
      "latitude": -26.8333,
      "longitude": 27.85,
      "admin_name1": null
    },
    {
      "place_name": "Strathavon",
      "postal_code": "2196",
      "country_code": "ZA",
      "latitude": -26.1,
      "longitude": 28.0667,
      "admin_name1": null
    },
    {
      "place_name": "Osizweni",
      "postal_code": "2952",
      "country_code": "ZA",
      "latitude": -27.7833,
      "longitude": 30.15,
      "admin_name1": null
    },
    {
      "place_name": "Umzimkulu",
      "postal_code": "3239",
      "country_code": "ZA",
      "latitude": -30.2667,
      "longitude": 29.9333,
      "admin_name1": null
    },
    {
      "place_name": "Isipingo",
      "postal_code": "4066",
      "country_code": "ZA",
      "latitude": -29.9667,
      "longitude": 30.8833,
      "admin_name1": null
    },
    {
      "place_name": "Isipingo Beach",
      "postal_code": "4115",
      "country_code": "ZA",
      "latitude": -29.9833,
      "longitude": 30.95,
      "admin_name1": null
    },
    {
      "place_name": "Matatiele",
      "postal_code": "4730",
      "country_code": "ZA",
      "latitude": -30.3333,
      "longitude": 28.8,
      "admin_name1": null
    },
    {
      "place_name": "Middledrift",
      "postal_code": "5686",
      "country_code": "ZA",
      "latitude": -32.8167,
      "longitude": 26.9833,
      "admin_name1": null
    },
    {
      "place_name": "Hofmeyr",
      "postal_code": "5930",
      "country_code": "ZA",
      "latitude": -31.65,
      "longitude": 25.8,
      "admin_name1": null
    },
    {
      "place_name": "Linton Grange",
      "postal_code": "6025",
      "country_code": "ZA",
      "latitude": -33.94,
      "longitude": 25.56,
      "admin_name1": null
    },
    {
      "place_name": "Saltville",
      "postal_code": "6059",
      "country_code": "ZA",
      "latitude": -33.9667,
      "longitude": 25.5833,
      "admin_name1": null
    },
    {
      "place_name": "Emerald Hill",
      "postal_code": "6070",
      "country_code": "ZA",
      "latitude": -34.0,
      "longitude": 25.55,
      "admin_name1": null
    },
    {
      "place_name": "Grahamstad",
      "postal_code": "6141",
      "country_code": "ZA",
      "latitude": -33.3,
      "longitude": 26.5333,
      "admin_name1": null
    },
    {
      "place_name": "Calitzdorp",
      "postal_code": "6660",
      "country_code": "ZA",
      "latitude": -33.5333,
      "longitude": 21.6833,
      "admin_name1": null
    },
    {
      "place_name": "Ceres",
      "postal_code": "6835",
      "country_code": "ZA",
      "latitude": -33.3667,
      "longitude": 19.3167,
      "admin_name1": null
    },
    {
      "place_name": "Hermanus",
      "postal_code": "7201",
      "country_code": "ZA",
      "latitude": -34.4167,
      "longitude": 19.2333,
      "admin_name1": null
    },
    {
      "place_name": "Paarl",
      "postal_code": "7624",
      "country_code": "ZA",
      "latitude": -33.7333,
      "longitude": 18.9667,
      "admin_name1": null
    },
    {
      "place_name": "Rondebosch",
      "postal_code": "7707",
      "country_code": "ZA",
      "latitude": -33.3533,
      "longitude": 19.19,
      "admin_name1": null
    },
    {
      "place_name": "Port Nolloth",
      "postal_code": "8284",
      "country_code": "ZA",
      "latitude": -29.25,
      "longitude": 16.8667,
      "admin_name1": null
    },
    {
      "place_name": "Griquatown",
      "postal_code": "8365",
      "country_code": "ZA",
      "latitude": -28.85,
      "longitude": 23.25,
      "admin_name1": null
    },
    {
      "place_name": "Strydenburg",
      "postal_code": "8765",
      "country_code": "ZA",
      "latitude": -29.95,
      "longitude": 23.6833,
      "admin_name1": null
    },
    {
      "place_name": "Bloemspruit",
      "postal_code": "9364",
      "country_code": "ZA",
      "latitude": -29.1333,
      "longitude": 26.25,
      "admin_name1": null
    },
    {
      "place_name": "Motsethabong",
      "postal_code": "9463",
      "country_code": "ZA",
      "latitude": -27.9833,
      "longitude": 26.7333,
      "admin_name1": null
    },
    {
      "place_name": "Motsethabang",
      "postal_code": "9487",
      "country_code": "ZA",
      "latitude": -28.0778,
      "longitude": 26.3778,
      "admin_name1": null
    },
    {
      "place_name": "Selosesha",
      "postal_code": "9783",
      "country_code": "ZA",
      "latitude": -29.2,
      "longitude": 26.8167,
      "admin_name1": null
    },
    {
      "place_name": "Botshabelo",
      "postal_code": "9789",
      "country_code": "ZA",
      "latitude": -29.2333,
      "longitude": 26.7333,
      "admin_name1": null
    },
    {
      "place_name": "Soshanguve",
      "postal_code": "0152",
      "country_code": "ZA",
      "latitude": -25.7069,
      "longitude": 28.2294,
      "admin_name1": null
    },
    {
      "place_name": "Ninapark",
      "postal_code": "0156",
      "country_code": "ZA",
      "latitude": -25.7069,
      "longitude": 28.2294,
      "admin_name1": null
    },
    {
      "place_name": "Pretoria North",
      "postal_code": "0182",
      "country_code": "ZA",
      "latitude": -25.6622,
      "longitude": 28.1653,
      "admin_name1": null
    },
    {
      "place_name": "Doornpoort",
      "postal_code": "0186",
      "country_code": "ZA",
      "latitude": -25.7069,
      "longitude": 28.2294,
      "admin_name1": null
    },
    {
      "place_name": "Hartbeespoort",
      "postal_code": "0216",
      "country_code": "ZA",
      "latitude": -25.7333,
      "longitude": 27.85,
      "admin_name1": null
    },
    {
      "place_name": "Potgieterus",
      "postal_code": "0650",
      "country_code": "ZA",
      "latitude": -24.1833,
      "longitude": 29.0167,
      "admin_name1": null
    },
    {
      "place_name": "Koloti",
      "postal_code": "0709",
      "country_code": "ZA",
      "latitude": -23.7167,
      "longitude": 29.3167,
      "admin_name1": null
    },
    {
      "place_name": "Tshiawelo",
      "postal_code": "1819",
      "country_code": "ZA",
      "latitude": -26.2917,
      "longitude": 27.9,
      "admin_name1": null
    },
    {
      "place_name": "Northwold",
      "postal_code": "2188",
      "country_code": "ZA",
      "latitude": -26.1894,
      "longitude": 28.0779,
      "admin_name1": null
    },
    {
      "place_name": "Dinokana",
      "postal_code": "2868",
      "country_code": "ZA",
      "latitude": -25.45,
      "longitude": 25.8667,
      "admin_name1": null
    },
    {
      "place_name": "Kwazulu/Natal",
      "postal_code": "3250",
      "country_code": "ZA",
      "latitude": -29.0667,
      "longitude": 30.5833,
      "admin_name1": null
    },
    {
      "place_name": "Merrivale",
      "postal_code": "3308",
      "country_code": "ZA",
      "latitude": -29.5167,
      "longitude": 30.2333,
      "admin_name1": null
    },
    {
      "place_name": "Nkandla",
      "postal_code": "3856",
      "country_code": "ZA",
      "latitude": -28.6167,
      "longitude": 31.0833,
      "admin_name1": null
    },
    {
      "place_name": "Richardsbaai",
      "postal_code": "3900",
      "country_code": "ZA",
      "latitude": -28.7901,
      "longitude": 32.0971,
      "admin_name1": null
    },
    {
      "place_name": "Mbazwana",
      "postal_code": "3988",
      "country_code": "ZA",
      "latitude": -27.4833,
      "longitude": 32.5833,
      "admin_name1": null
    },
    {
      "place_name": "Jacobs",
      "postal_code": "4109",
      "country_code": "ZA",
      "latitude": -29.9333,
      "longitude": 30.9833,
      "admin_name1": null
    },
    {
      "place_name": "Doonside",
      "postal_code": "4126",
      "country_code": "ZA",
      "latitude": -30.0667,
      "longitude": 30.8833,
      "admin_name1": null
    },
    {
      "place_name": "Umzumbe",
      "postal_code": "4227",
      "country_code": "ZA",
      "latitude": -30.6167,
      "longitude": 30.55,
      "admin_name1": null
    },
    {
      "place_name": "Cathcart",
      "postal_code": "5310",
      "country_code": "ZA",
      "latitude": -32.3,
      "longitude": 27.1333,
      "admin_name1": null
    },
    {
      "place_name": "Still Bay",
      "postal_code": "6675",
      "country_code": "ZA",
      "latitude": -34.3667,
      "longitude": 21.4,
      "admin_name1": null
    },
    {
      "place_name": "Ladismith",
      "postal_code": "6690",
      "country_code": "ZA",
      "latitude": -33.4833,
      "longitude": 21.2667,
      "admin_name1": null
    },
    {
      "place_name": "Bonnievale",
      "postal_code": "6741",
      "country_code": "ZA",
      "latitude": -33.9333,
      "longitude": 20.1,
      "admin_name1": null
    },
    {
      "place_name": "Guguletu",
      "postal_code": "7752",
      "country_code": "ZA",
      "latitude": -33.9833,
      "longitude": 18.5667,
      "admin_name1": null
    },
    {
      "place_name": "Pescodia",
      "postal_code": "8309",
      "country_code": "ZA",
      "latitude": -28.7333,
      "longitude": 24.7667,
      "admin_name1": null
    },
    {
      "place_name": "Kuruman",
      "postal_code": "8468",
      "country_code": "ZA",
      "latitude": -27.45,
      "longitude": 23.4333,
      "admin_name1": null
    },
    {
      "place_name": "Northern Cape",
      "postal_code": "8530",
      "country_code": "ZA",
      "latitude": -28.1167,
      "longitude": 24.85,
      "admin_name1": null
    },
    {
      "place_name": "Taung Station",
      "postal_code": "8607",
      "country_code": "ZA",
      "latitude": -27.1444,
      "longitude": 24.7556,
      "admin_name1": null
    },
    {
      "place_name": "Kagisanong",
      "postal_code": "9309",
      "country_code": "ZA",
      "latitude": -29.1833,
      "longitude": 26.2333,
      "admin_name1": null
    },
    {
      "place_name": "Winburg",
      "postal_code": "9420",
      "country_code": "ZA",
      "latitude": -28.5333,
      "longitude": 27.0167,
      "admin_name1": null
    },
    {
      "place_name": "Koppies",
      "postal_code": "9540",
      "country_code": "ZA",
      "latitude": -27.2333,
      "longitude": 27.5833,
      "admin_name1": null
    },
    {
      "place_name": "Springfontein",
      "postal_code": "9917",
      "country_code": "ZA",
      "latitude": -30.2667,
      "longitude": 25.7,
      "admin_name1": null
    },
    {
      "place_name": "Dewetsdorp",
      "postal_code": "9940",
      "country_code": "ZA",
      "latitude": -29.5833,
      "longitude": 26.6667,
      "admin_name1": null
    },
    {
      "place_name": "Koffiefontein",
      "postal_code": "9987",
      "country_code": "ZA",
      "latitude": -29.4,
      "longitude": 25.0167,
      "admin_name1": null
    },
    {
      "place_name": "Laudium",
      "postal_code": "0037",
      "country_code": "ZA",
      "latitude": -25.7833,
      "longitude": 28.1,
      "admin_name1": null
    },
    {
      "place_name": "Moreletapark",
      "postal_code": "0044",
      "country_code": "ZA",
      "latitude": -25.7069,
      "longitude": 28.2294,
      "admin_name1": null
    },
    {
      "place_name": "Boordfontein",
      "postal_code": "0182",
      "country_code": "ZA",
      "latitude": -25.6771,
      "longitude": 28.1867,
      "admin_name1": null
    },
    {
      "place_name": "Podiphatshwa",
      "postal_code": "0386",
      "country_code": "ZA",
      "latitude": -24.6,
      "longitude": 27.4,
      "admin_name1": null
    },
    {
      "place_name": "Northern Provice",
      "postal_code": "0480",
      "country_code": "ZA",
      "latitude": -24.8833,
      "longitude": 28.2833,
      "admin_name1": null
    },
    {
      "place_name": "Mpudulle",
      "postal_code": "1078",
      "country_code": "ZA",
      "latitude": -25.0167,
      "longitude": 29.7333,
      "admin_name1": null
    },
    {
      "place_name": "Hendrina",
      "postal_code": "1098",
      "country_code": "ZA",
      "latitude": -26.15,
      "longitude": 29.7167,
      "admin_name1": null
    },
    {
      "place_name": "Primrose",
      "postal_code": "1401",
      "country_code": "ZA",
      "latitude": -26.1833,
      "longitude": 28.1667,
      "admin_name1": null
    },
    {
      "place_name": "Coligny",
      "postal_code": "2726",
      "country_code": "ZA",
      "latitude": -26.3333,
      "longitude": 26.3167,
      "admin_name1": null
    },
    {
      "place_name": "Lerato",
      "postal_code": "2870",
      "country_code": "ZA",
      "latitude": -25.5333,
      "longitude": 26.0833,
      "admin_name1": null
    },
    {
      "place_name": "Ntokozweni",
      "postal_code": "4066",
      "country_code": "ZA",
      "latitude": -29.9667,
      "longitude": 30.8833,
      "admin_name1": null
    },
    {
      "place_name": "Marianhill",
      "postal_code": "4142",
      "country_code": "ZA",
      "latitude": -26.1444,
      "longitude": 28.0944,
      "admin_name1": null
    },
    {
      "place_name": "Munster",
      "postal_code": "4278",
      "country_code": "ZA",
      "latitude": -30.9833,
      "longitude": 30.2333,
      "admin_name1": null
    },
    {
      "place_name": "Mapumulo",
      "postal_code": "4470",
      "country_code": "ZA",
      "latitude": -29.15,
      "longitude": 31.0667,
      "admin_name1": null
    },
    {
      "place_name": "Darnall",
      "postal_code": "4480",
      "country_code": "ZA",
      "latitude": -26.4,
      "longitude": 23.25,
      "admin_name1": null
    },
    {
      "place_name": "Komga",
      "postal_code": "4950",
      "country_code": "ZA",
      "latitude": -32.5833,
      "longitude": 27.9,
      "admin_name1": null
    },
    {
      "place_name": "Oos-Londen",
      "postal_code": "5205",
      "country_code": "ZA",
      "latitude": -33.0333,
      "longitude": 27.9167,
      "admin_name1": null
    },
    {
      "place_name": "Port Alfred",
      "postal_code": "6173",
      "country_code": "ZA",
      "latitude": -33.6,
      "longitude": 26.9,
      "admin_name1": null
    },
    {
      "place_name": "Uitenhage",
      "postal_code": "6234",
      "country_code": "ZA",
      "latitude": -33.7653,
      "longitude": 25.4022,
      "admin_name1": null
    },
    {
      "place_name": "Pacaltsdorp",
      "postal_code": "6529",
      "country_code": "ZA",
      "latitude": -34.0167,
      "longitude": 22.45,
      "admin_name1": null
    },
    {
      "place_name": "Beaufort West",
      "postal_code": "6973",
      "country_code": "ZA",
      "latitude": -32.35,
      "longitude": 22.5833,
      "admin_name1": null
    },
    {
      "place_name": "Eerste River",
      "postal_code": "7105",
      "country_code": "ZA",
      "latitude": -34.0,
      "longitude": 18.7333,
      "admin_name1": null
    },
    {
      "place_name": "Franschhoek",
      "postal_code": "7690",
      "country_code": "ZA",
      "latitude": -33.9166,
      "longitude": 19.1166,
      "admin_name1": null
    },
    {
      "place_name": "Vishoek",
      "postal_code": "7995",
      "country_code": "ZA",
      "latitude": -34.1833,
      "longitude": 18.4333,
      "admin_name1": null
    },
    {
      "place_name": "Garies",
      "postal_code": "8221",
      "country_code": "ZA",
      "latitude": -30.55,
      "longitude": 17.9833,
      "admin_name1": null
    },
    {
      "place_name": "Allanridge",
      "postal_code": "9490",
      "country_code": "ZA",
      "latitude": -27.75,
      "longitude": 26.6667,
      "admin_name1": null
    },
    {
      "place_name": "Viljoenskroon",
      "postal_code": "9520",
      "country_code": "ZA",
      "latitude": -27.2167,
      "longitude": 26.95,
      "admin_name1": null
    },
    {
      "place_name": "Marquard",
      "postal_code": "9610",
      "country_code": "ZA",
      "latitude": -28.6667,
      "longitude": 27.4333,
      "admin_name1": null
    },
    {
      "place_name": "Hobhouse",
      "postal_code": "9740",
      "country_code": "ZA",
      "latitude": -29.5333,
      "longitude": 27.15,
      "admin_name1": null
    },
    {
      "place_name": "Wapadrand",
      "postal_code": "0081",
      "country_code": "ZA",
      "latitude": -25.7069,
      "longitude": 28.2294,
      "admin_name1": null
    },
    {
      "place_name": "Highveld",
      "postal_code": "0169",
      "country_code": "ZA",
      "latitude": -25.7069,
      "longitude": 28.2294,
      "admin_name1": null
    },
    {
      "place_name": "Sovenga",
      "postal_code": "0763",
      "country_code": "ZA",
      "latitude": -23.9333,
      "longitude": 29.8167,
      "admin_name1": null
    },
    {
      "place_name": "Molototsi",
      "postal_code": "0827",
      "country_code": "ZA",
      "latitude": -23.3167,
      "longitude": 30.7167,
      "admin_name1": null
    },
    {
      "place_name": "Burgersfort",
      "postal_code": "1085",
      "country_code": "ZA",
      "latitude": -24.6667,
      "longitude": 30.3333,
      "admin_name1": null
    },
    {
      "place_name": "Lydenburg",
      "postal_code": "1123",
      "country_code": "ZA",
      "latitude": -25.1,
      "longitude": 30.45,
      "admin_name1": null
    },
    {
      "place_name": "Elandsfontein",
      "postal_code": "1429",
      "country_code": "ZA",
      "latitude": -26.3833,
      "longitude": 27.8667,
      "admin_name1": null
    },
    {
      "place_name": "Duduza",
      "postal_code": "1494",
      "country_code": "ZA",
      "latitude": -26.3667,
      "longitude": 28.4167,
      "admin_name1": null
    },
    {
      "place_name": "Halfway House",
      "postal_code": "1685",
      "country_code": "ZA",
      "latitude": -25.9833,
      "longitude": 28.1167,
      "admin_name1": null
    },
    {
      "place_name": "Allen'S Nek",
      "postal_code": "1709",
      "country_code": "ZA",
      "latitude": -31.6667,
      "longitude": 28.0333,
      "admin_name1": null
    },
    {
      "place_name": "Soweto",
      "postal_code": "1808",
      "country_code": "ZA",
      "latitude": -26.2583,
      "longitude": 27.9083,
      "admin_name1": null
    },
    {
      "place_name": "Rosettenville",
      "postal_code": "2190",
      "country_code": "ZA",
      "latitude": -26.25,
      "longitude": 28.05,
      "admin_name1": null
    },
    {
      "place_name": "Blinkpan",
      "postal_code": "2250",
      "country_code": "ZA",
      "latitude": -26.1,
      "longitude": 29.4333,
      "admin_name1": null
    },
    {
      "place_name": "Emondlo",
      "postal_code": "3101",
      "country_code": "ZA",
      "latitude": -28.2533,
      "longitude": 29.9933,
      "admin_name1": null
    },
    {
      "place_name": "Mooi River",
      "postal_code": "3300",
      "country_code": "ZA",
      "latitude": -29.2,
      "longitude": 29.9833,
      "admin_name1": null
    },
    {
      "place_name": "Marble Ray",
      "postal_code": "4039",
      "country_code": "ZA",
      "latitude": -29.85,
      "longitude": 31.0167,
      "admin_name1": null
    },
    {
      "place_name": "Queensburgh",
      "postal_code": "4147",
      "country_code": "ZA",
      "latitude": -26.1167,
      "longitude": 28.0917,
      "admin_name1": null
    },
    {
      "place_name": "Umhlali",
      "postal_code": "4420",
      "country_code": "ZA",
      "latitude": -29.2675,
      "longitude": 30.7982,
      "admin_name1": null
    },
    {
      "place_name": "Mount Ayliff",
      "postal_code": "4738",
      "country_code": "ZA",
      "latitude": -30.8,
      "longitude": 29.3667,
      "admin_name1": null
    },
    {
      "place_name": "Bethelsdorp",
      "postal_code": "6028",
      "country_code": "ZA",
      "latitude": -33.8833,
      "longitude": 25.5,
      "admin_name1": null
    },
    {
      "place_name": "Great Brak River",
      "postal_code": "6526",
      "country_code": "ZA",
      "latitude": -34.0333,
      "longitude": 22.2167,
      "admin_name1": null
    },
    {
      "place_name": "Montagu",
      "postal_code": "6720",
      "country_code": "ZA",
      "latitude": -33.7833,
      "longitude": 20.1167,
      "admin_name1": null
    },
    {
      "place_name": "Kleinmond",
      "postal_code": "7141",
      "country_code": "ZA",
      "latitude": -34.35,
      "longitude": 19.0333,
      "admin_name1": null
    },
    {
      "place_name": "Elsies River",
      "postal_code": "7490",
      "country_code": "ZA",
      "latitude": -33.9222,
      "longitude": 18.5222,
      "admin_name1": null
    },
    {
      "place_name": "Nederburg",
      "postal_code": "7645",
      "country_code": "ZA",
      "latitude": -33.7297,
      "longitude": 19.2536,
      "admin_name1": null
    },
    {
      "place_name": "Hout Bay",
      "postal_code": "7806",
      "country_code": "ZA",
      "latitude": -33.9166,
      "longitude": 18.4166,
      "admin_name1": null
    },
    {
      "place_name": "Mancorp Mine",
      "postal_code": "8423",
      "country_code": "ZA",
      "latitude": -28.3,
      "longitude": 23.0167,
      "admin_name1": null
    },
    {
      "place_name": "Lady Grey",
      "postal_code": "9755",
      "country_code": "ZA",
      "latitude": -30.7,
      "longitude": 27.2333,
      "admin_name1": null
    },
    {
      "place_name": "Barkly East",
      "postal_code": "9786",
      "country_code": "ZA",
      "latitude": -30.9667,
      "longitude": 27.6,
      "admin_name1": null
    },
    {
      "place_name": "Pretoria-Wes",
      "postal_code": "0183",
      "country_code": "ZA",
      "latitude": -25.75,
      "longitude": 28.1667,
      "admin_name1": null
    },
    {
      "place_name": "Mutlestad",
      "postal_code": "0413",
      "country_code": "ZA",
      "latitude": -25.343,
      "longitude": 28.2204,
      "admin_name1": null
    },
    {
      "place_name": "Rantebeng",
      "postal_code": "0415",
      "country_code": "ZA",
      "latitude": -25.365,
      "longitude": 28.2189,
      "admin_name1": null
    },
    {
      "place_name": "Tholongwe",
      "postal_code": "0734",
      "country_code": "ZA",
      "latitude": -23.9667,
      "longitude": 29.7,
      "admin_name1": null
    },
    {
      "place_name": "Chuenespoort",
      "postal_code": "0745",
      "country_code": "ZA",
      "latitude": -23.95,
      "longitude": 29.1333,
      "admin_name1": null
    },
    {
      "place_name": "Soekmekaar",
      "postal_code": "0810",
      "country_code": "ZA",
      "latitude": -23.4833,
      "longitude": 29.9333,
      "admin_name1": null
    },
    {
      "place_name": "Hazyview",
      "postal_code": "1240",
      "country_code": "ZA",
      "latitude": -25.3167,
      "longitude": 31.0167,
      "admin_name1": null
    },
    {
      "place_name": "Mkhuhlu",
      "postal_code": "1246",
      "country_code": "ZA",
      "latitude": -25.3917,
      "longitude": 30.9917,
      "admin_name1": null
    },
    {
      "place_name": "Barberton",
      "postal_code": "1309",
      "country_code": "ZA",
      "latitude": -25.7833,
      "longitude": 31.05,
      "admin_name1": null
    },
    {
      "place_name": "Acornhoek",
      "postal_code": "1361",
      "country_code": "ZA",
      "latitude": -24.5833,
      "longitude": 31.0833,
      "admin_name1": null
    },
    {
      "place_name": "Hluvukani",
      "postal_code": "1363",
      "country_code": "ZA",
      "latitude": -24.65,
      "longitude": 31.3333,
      "admin_name1": null
    },
    {
      "place_name": "Namakgale",
      "postal_code": "1397",
      "country_code": "ZA",
      "latitude": -23.95,
      "longitude": 31.0333,
      "admin_name1": null
    },
    {
      "place_name": "Edenvale",
      "postal_code": "1611",
      "country_code": "ZA",
      "latitude": -26.1333,
      "longitude": 28.1833,
      "admin_name1": null
    },
    {
      "place_name": "Tembisa Ext",
      "postal_code": "1635",
      "country_code": "ZA",
      "latitude": -26.0762,
      "longitude": 28.2452,
      "admin_name1": null
    },
    {
      "place_name": "Muldersdrif",
      "postal_code": "1747",
      "country_code": "ZA",
      "latitude": -26.0333,
      "longitude": 27.85,
      "admin_name1": null
    },
    {
      "place_name": "Randfontein",
      "postal_code": "1764",
      "country_code": "ZA",
      "latitude": -26.1667,
      "longitude": 27.7,
      "admin_name1": null
    },
    {
      "place_name": "Dobsonville",
      "postal_code": "1865",
      "country_code": "ZA",
      "latitude": -26.2167,
      "longitude": 27.8667,
      "admin_name1": null
    },
    {
      "place_name": "Sharpeville",
      "postal_code": "1913",
      "country_code": "ZA",
      "latitude": -26.6833,
      "longitude": 27.8833,
      "admin_name1": null
    },
    {
      "place_name": "Pongola",
      "postal_code": "3171",
      "country_code": "ZA",
      "latitude": -27.3833,
      "longitude": 31.6167,
      "admin_name1": null
    },
    {
      "place_name": "Umzinto",
      "postal_code": "3266",
      "country_code": "ZA",
      "latitude": -30.3167,
      "longitude": 30.6667,
      "admin_name1": null
    },
    {
      "place_name": "Hluhluwe",
      "postal_code": "3950",
      "country_code": "ZA",
      "latitude": -28.0333,
      "longitude": 32.2833,
      "admin_name1": null
    },
    {
      "place_name": "Winklespruit",
      "postal_code": "4145",
      "country_code": "ZA",
      "latitude": -30.1,
      "longitude": 30.85,
      "admin_name1": null
    },
    {
      "place_name": "Nqabeni",
      "postal_code": "4682",
      "country_code": "ZA",
      "latitude": -30.7333,
      "longitude": 30.0333,
      "admin_name1": null
    },
    {
      "place_name": "Swartkops",
      "postal_code": "6210",
      "country_code": "ZA",
      "latitude": -33.8667,
      "longitude": 25.6,
      "admin_name1": null
    },
    {
      "place_name": "Mosselbay",
      "postal_code": "6506",
      "country_code": "ZA",
      "latitude": -34.1833,
      "longitude": 22.1333,
      "admin_name1": null
    },
    {
      "place_name": "Knysna",
      "postal_code": "6570",
      "country_code": "ZA",
      "latitude": -34.034,
      "longitude": 23.0343,
      "admin_name1": null
    },
    {
      "place_name": "Kraaifontein",
      "postal_code": "7571",
      "country_code": "ZA",
      "latitude": -30.0667,
      "longitude": 25.6667,
      "admin_name1": null
    },
    {
      "place_name": "Kuilsriver",
      "postal_code": "7580",
      "country_code": "ZA",
      "latitude": -31.3333,
      "longitude": 21.7667,
      "admin_name1": null
    },
    {
      "place_name": "Galeshewe",
      "postal_code": "8330",
      "country_code": "ZA",
      "latitude": -27.9796,
      "longitude": 25.1093,
      "admin_name1": null
    },
    {
      "place_name": "Windsorton",
      "postal_code": "8510",
      "country_code": "ZA",
      "latitude": -28.3333,
      "longitude": 24.7167,
      "admin_name1": null
    },
    {
      "place_name": "De Aar",
      "postal_code": "8780",
      "country_code": "ZA",
      "latitude": -30.65,
      "longitude": 24.0167,
      "admin_name1": null
    },
    {
      "place_name": "Tweeling",
      "postal_code": "9820",
      "country_code": "ZA",
      "latitude": -27.55,
      "longitude": 28.5167,
      "admin_name1": null
    },
    {
      "place_name": "Magalieskruin",
      "postal_code": "0150",
      "country_code": "ZA",
      "latitude": -25.7069,
      "longitude": 28.2294,
      "admin_name1": null
    },
    {
      "place_name": "Pretoria-Noord",
      "postal_code": "0182",
      "country_code": "ZA",
      "latitude": -25.6622,
      "longitude": 28.1653,
      "admin_name1": null
    },
    {
      "place_name": "Rustenberg",
      "postal_code": "0393",
      "country_code": "ZA",
      "latitude": -25.2,
      "longitude": 27.2167,
      "admin_name1": null
    },
    {
      "place_name": "Thulwe",
      "postal_code": "0419",
      "country_code": "ZA",
      "latitude": -25.2167,
      "longitude": 28.2167,
      "admin_name1": null
    },
    {
      "place_name": "Duiwelskloof",
      "postal_code": "0815",
      "country_code": "ZA",
      "latitude": -23.7,
      "longitude": 30.1333,
      "admin_name1": null
    },
    {
      "place_name": "Shiluvane",
      "postal_code": "0873",
      "country_code": "ZA",
      "latitude": -24.0333,
      "longitude": 30.2667,
      "admin_name1": null
    },
    {
      "place_name": "Sebokeng",
      "postal_code": "1983",
      "country_code": "ZA",
      "latitude": -26.5833,
      "longitude": 27.8333,
      "admin_name1": null
    },
    {
      "place_name": "Ventersdorp",
      "postal_code": "2712",
      "country_code": "ZA",
      "latitude": -26.3167,
      "longitude": 26.8167,
      "admin_name1": null
    },
    {
      "place_name": "Tugela Ferry",
      "postal_code": "3010",
      "country_code": "ZA",
      "latitude": -28.7333,
      "longitude": 30.45,
      "admin_name1": null
    },
    {
      "place_name": "Lamontville",
      "postal_code": "4027",
      "country_code": "ZA",
      "latitude": -29.95,
      "longitude": 30.9333,
      "admin_name1": null
    },
    {
      "place_name": "Qumbu",
      "postal_code": "5181",
      "country_code": "ZA",
      "latitude": -31.15,
      "longitude": 28.8667,
      "admin_name1": null
    },
    {
      "place_name": "Newton Park",
      "postal_code": "6045",
      "country_code": "ZA",
      "latitude": -33.95,
      "longitude": 25.5667,
      "admin_name1": null
    },
    {
      "place_name": "Alicedale",
      "postal_code": "6135",
      "country_code": "ZA",
      "latitude": -33.3167,
      "longitude": 26.0833,
      "admin_name1": null
    },
    {
      "place_name": "Patensie",
      "postal_code": "6335",
      "country_code": "ZA",
      "latitude": -33.7556,
      "longitude": 24.8183,
      "admin_name1": null
    },
    {
      "place_name": "Mosselbaai",
      "postal_code": "6503",
      "country_code": "ZA",
      "latitude": -34.1833,
      "longitude": 22.1333,
      "admin_name1": null
    },
    {
      "place_name": "Groot-Brakrivier",
      "postal_code": "6525",
      "country_code": "ZA",
      "latitude": -34.0333,
      "longitude": 22.2167,
      "admin_name1": null
    },
    {
      "place_name": "Strand",
      "postal_code": "7151",
      "country_code": "ZA",
      "latitude": -34.1167,
      "longitude": 18.8333,
      "admin_name1": null
    },
    {
      "place_name": "Riviersonderend",
      "postal_code": "7252",
      "country_code": "ZA",
      "latitude": -34.15,
      "longitude": 19.9,
      "admin_name1": null
    },
    {
      "place_name": "Citrusdal",
      "postal_code": "7340",
      "country_code": "ZA",
      "latitude": -32.6,
      "longitude": 19.0167,
      "admin_name1": null
    },
    {
      "place_name": "Kuilsrivier",
      "postal_code": "7583",
      "country_code": "ZA",
      "latitude": -25.15,
      "longitude": 29.15,
      "admin_name1": null
    },
    {
      "place_name": "Nuweland",
      "postal_code": "7708",
      "country_code": "ZA",
      "latitude": -33.9667,
      "longitude": 18.4833,
      "admin_name1": null
    },
    {
      "place_name": "Grassy Park",
      "postal_code": "7941",
      "country_code": "ZA",
      "latitude": -34.05,
      "longitude": 18.4833,
      "admin_name1": null
    },
    {
      "place_name": "Alexander Bay",
      "postal_code": "8292",
      "country_code": "ZA",
      "latitude": -28.5833,
      "longitude": 16.4833,
      "admin_name1": null
    },
    {
      "place_name": "Magogong",
      "postal_code": "8575",
      "country_code": "ZA",
      "latitude": -27.6667,
      "longitude": 24.8333,
      "admin_name1": null
    },
    {
      "place_name": "Niekerkshoop",
      "postal_code": "8930",
      "country_code": "ZA",
      "latitude": -29.3167,
      "longitude": 22.8333,
      "admin_name1": null
    },
    {
      "place_name": "Heilbron",
      "postal_code": "9650",
      "country_code": "ZA",
      "latitude": -27.2833,
      "longitude": 27.9667,
      "admin_name1": null
    },
    {
      "place_name": "Thaba Nchu",
      "postal_code": "9783",
      "country_code": "ZA",
      "latitude": -29.2167,
      "longitude": 26.8333,
      "admin_name1": null
    },
    {
      "place_name": "The Reeds",
      "postal_code": "0158",
      "country_code": "ZA",
      "latitude": -25.7069,
      "longitude": 28.2294,
      "admin_name1": null
    },
    {
      "place_name": "Glenstantia",
      "postal_code": "0181",
      "country_code": "ZA",
      "latitude": -25.7425,
      "longitude": 28.2326,
      "admin_name1": null
    },
    {
      "place_name": "Skilpadfontein",
      "postal_code": "0431",
      "country_code": "ZA",
      "latitude": -25.0167,
      "longitude": 28.8,
      "admin_name1": null
    },
    {
      "place_name": "Leeupoort",
      "postal_code": "0486",
      "country_code": "ZA",
      "latitude": -24.9,
      "longitude": 27.7167,
      "admin_name1": null
    },
    {
      "place_name": "Gakgapane",
      "postal_code": "0847",
      "country_code": "ZA",
      "latitude": -23.3167,
      "longitude": 30.7167,
      "admin_name1": null
    },
    {
      "place_name": "Ethwathwa West Uit 2",
      "postal_code": "1519",
      "country_code": "ZA",
      "latitude": -26.15,
      "longitude": 28.4167,
      "admin_name1": null
    },
    {
      "place_name": "Eldoradopark",
      "postal_code": "1813",
      "country_code": "ZA",
      "latitude": -26.3,
      "longitude": 27.9,
      "admin_name1": null
    },
    {
      "place_name": "Protea Glen",
      "postal_code": "1818",
      "country_code": "ZA",
      "latitude": -26.2917,
      "longitude": 27.9,
      "admin_name1": null
    },
    {
      "place_name": "Masoheng",
      "postal_code": "1908",
      "country_code": "ZA",
      "latitude": -26.7,
      "longitude": 27.8167,
      "admin_name1": null
    },
    {
      "place_name": "Roshnee",
      "postal_code": "1936",
      "country_code": "ZA",
      "latitude": -26.5667,
      "longitude": 27.9333,
      "admin_name1": null
    },
    {
      "place_name": "Paulshof",
      "postal_code": "2191",
      "country_code": "ZA",
      "latitude": -26.1,
      "longitude": 28.0556,
      "admin_name1": null
    },
    {
      "place_name": "Kokosi",
      "postal_code": "2515",
      "country_code": "ZA",
      "latitude": -26.5,
      "longitude": 27.4667,
      "admin_name1": null
    },
    {
      "place_name": "Orkney",
      "postal_code": "2627",
      "country_code": "ZA",
      "latitude": -26.9833,
      "longitude": 26.6667,
      "admin_name1": null
    },
    {
      "place_name": "Leeudoringstad",
      "postal_code": "2640",
      "country_code": "ZA",
      "latitude": -27.2333,
      "longitude": 26.2333,
      "admin_name1": null
    },
    {
      "place_name": "Blood River",
      "postal_code": "3024",
      "country_code": "ZA",
      "latitude": -28.1909,
      "longitude": 30.2879,
      "admin_name1": null
    },
    {
      "place_name": "Winterton",
      "postal_code": "3331",
      "country_code": "ZA",
      "latitude": -28.8,
      "longitude": 29.5333,
      "admin_name1": null
    },
    {
      "place_name": "Link Hills",
      "postal_code": "3655",
      "country_code": "ZA",
      "latitude": -29.8167,
      "longitude": 30.85,
      "admin_name1": null
    },
    {
      "place_name": "Mandeni",
      "postal_code": "3802",
      "country_code": "ZA",
      "latitude": -29.0167,
      "longitude": 31.5833,
      "admin_name1": null
    },
    {
      "place_name": "Gambleville",
      "postal_code": "6241",
      "country_code": "ZA",
      "latitude": -33.7839,
      "longitude": 25.3974,
      "admin_name1": null
    },
    {
      "place_name": "Jeffreys Bay",
      "postal_code": "6331",
      "country_code": "ZA",
      "latitude": -33.9028,
      "longitude": 24.8675,
      "admin_name1": null
    },
    {
      "place_name": "Eerste Rivier",
      "postal_code": "7100",
      "country_code": "ZA",
      "latitude": -33.9778,
      "longitude": 18.6167,
      "admin_name1": null
    },
    {
      "place_name": "Saldanha",
      "postal_code": "7282",
      "country_code": "ZA",
      "latitude": -34.5333,
      "longitude": 20.0333,
      "admin_name1": null
    },
    {
      "place_name": "Paarden Island",
      "postal_code": "7405",
      "country_code": "ZA",
      "latitude": -33.9083,
      "longitude": 18.45,
      "admin_name1": null
    },
    {
      "place_name": "Kraaifontein North",
      "postal_code": "7572",
      "country_code": "ZA",
      "latitude": -28.4278,
      "longitude": 26.8278,
      "admin_name1": null
    },
    {
      "place_name": "Ottery",
      "postal_code": "7750",
      "country_code": "ZA",
      "latitude": -33.9833,
      "longitude": 18.575,
      "admin_name1": null
    },
    {
      "place_name": "Manenberg",
      "postal_code": "7764",
      "country_code": "ZA",
      "latitude": -33.9833,
      "longitude": 18.55,
      "admin_name1": null
    },
    {
      "place_name": "Houtbaai",
      "postal_code": "7806",
      "country_code": "ZA",
      "latitude": -33.9166,
      "longitude": 18.4166,
      "admin_name1": null
    },
    {
      "place_name": "Vioolsdrif",
      "postal_code": "8246",
      "country_code": "ZA",
      "latitude": -28.7667,
      "longitude": 17.65,
      "admin_name1": null
    },
    {
      "place_name": "Ga-Sehunelo",
      "postal_code": "9323",
      "country_code": "ZA",
      "latitude": -27.0333,
      "longitude": 23.5833,
      "admin_name1": null
    },
    {
      "place_name": "Senekal",
      "postal_code": "9485",
      "country_code": "ZA",
      "latitude": -28.3167,
      "longitude": 27.6,
      "admin_name1": null
    },
    {
      "place_name": "Vrede",
      "postal_code": "9835",
      "country_code": "ZA",
      "latitude": -27.4167,
      "longitude": 29.1667,
      "admin_name1": null
    },
    {
      "place_name": "Phuthaditjhaba",
      "postal_code": "9869",
      "country_code": "ZA",
      "latitude": -28.5333,
      "longitude": 28.8,
      "admin_name1": null
    },
    {
      "place_name": "Kromdraai",
      "postal_code": "0076",
      "country_code": "ZA",
      "latitude": -25.4833,
      "longitude": 28.2667,
      "admin_name1": null
    },
    {
      "place_name": "Swartbooistad",
      "postal_code": "0418",
      "country_code": "ZA",
      "latitude": -25.2728,
      "longitude": 28.1683,
      "admin_name1": null
    },
    {
      "place_name": "Kanyamazane",
      "postal_code": "1217",
      "country_code": "ZA",
      "latitude": -25.4333,
      "longitude": 31.2,
      "admin_name1": null
    },
    {
      "place_name": "Rusloo",
      "postal_code": "1475",
      "country_code": "ZA",
      "latitude": -26.2167,
      "longitude": 28.25,
      "admin_name1": null
    },
    {
      "place_name": "Dalpark",
      "postal_code": "1541",
      "country_code": "ZA",
      "latitude": -26.2333,
      "longitude": 28.3667,
      "admin_name1": null
    },
    {
      "place_name": "Kocksvlei",
      "postal_code": "1764",
      "country_code": "ZA",
      "latitude": -26.1667,
      "longitude": 27.7,
      "admin_name1": null
    },
    {
      "place_name": "Orange Farm",
      "postal_code": "1841",
      "country_code": "ZA",
      "latitude": -26.2328,
      "longitude": 27.9265,
      "admin_name1": null
    },
    {
      "place_name": "Randvaal",
      "postal_code": "1873",
      "country_code": "ZA",
      "latitude": -26.5667,
      "longitude": 28.0167,
      "admin_name1": null
    },
    {
      "place_name": "Breyten",
      "postal_code": "2330",
      "country_code": "ZA",
      "latitude": -26.3,
      "longitude": 29.9833,
      "admin_name1": null
    },
    {
      "place_name": "Ubombo",
      "postal_code": "3970",
      "country_code": "ZA",
      "latitude": -27.5667,
      "longitude": 32.0833,
      "admin_name1": null
    },
    {
      "place_name": "Kwangkwanase",
      "postal_code": "3978",
      "country_code": "ZA",
      "latitude": -27.5278,
      "longitude": 32.0333,
      "admin_name1": null
    },
    {
      "place_name": "Verulam",
      "postal_code": "4343",
      "country_code": "ZA",
      "latitude": -29.65,
      "longitude": 31.05,
      "admin_name1": null
    },
    {
      "place_name": "Hambanathi Heights",
      "postal_code": "4400",
      "country_code": "ZA",
      "latitude": -29.5833,
      "longitude": 31.1333,
      "admin_name1": null
    },
    {
      "place_name": "Gonubie",
      "postal_code": "5257",
      "country_code": "ZA",
      "latitude": -32.9333,
      "longitude": 28.0167,
      "admin_name1": null
    },
    {
      "place_name": "Kwazakhele",
      "postal_code": "6205",
      "country_code": "ZA",
      "latitude": -33.8667,
      "longitude": 25.5833,
      "admin_name1": null
    },
    {
      "place_name": "Joubertina",
      "postal_code": "6410",
      "country_code": "ZA",
      "latitude": -30.85,
      "longitude": 26.6833,
      "admin_name1": null
    },
    {
      "place_name": "Kuils River",
      "postal_code": "7581",
      "country_code": "ZA",
      "latitude": -33.9333,
      "longitude": 18.6667,
      "admin_name1": null
    },
    {
      "place_name": "Bergvliet",
      "postal_code": "7945",
      "country_code": "ZA",
      "latitude": -34.0475,
      "longitude": 18.4525,
      "admin_name1": null
    },
    {
      "place_name": "Vanderkloof",
      "postal_code": "8771",
      "country_code": "ZA",
      "latitude": -30.0,
      "longitude": 24.7333,
      "admin_name1": null
    },
    {
      "place_name": "Theronville",
      "postal_code": "9701",
      "country_code": "ZA",
      "latitude": -28.2333,
      "longitude": 28.3,
      "admin_name1": null
    },
    {
      "place_name": "Clarens",
      "postal_code": "9707",
      "country_code": "ZA",
      "latitude": -28.5167,
      "longitude": 28.4167,
      "admin_name1": null
    },
    {
      "place_name": "Garsfontein",
      "postal_code": "0081",
      "country_code": "ZA",
      "latitude": -25.7069,
      "longitude": 28.2294,
      "admin_name1": null
    },
    {
      "place_name": "Faerie Glen",
      "postal_code": "0081",
      "country_code": "ZA",
      "latitude": -25.7069,
      "longitude": 28.2294,
      "admin_name1": null
    },
    {
      "place_name": "Theresapark",
      "postal_code": "0155",
      "country_code": "ZA",
      "latitude": -25.7069,
      "longitude": 28.2294,
      "admin_name1": null
    },
    {
      "place_name": "Komatipoort",
      "postal_code": "1344",
      "country_code": "ZA",
      "latitude": -25.4333,
      "longitude": 31.9333,
      "admin_name1": null
    },
    {
      "place_name": "Elsburg",
      "postal_code": "1428",
      "country_code": "ZA",
      "latitude": -26.3,
      "longitude": 28.1333,
      "admin_name1": null
    },
    {
      "place_name": "Deneysville",
      "postal_code": "1932",
      "country_code": "ZA",
      "latitude": -26.8833,
      "longitude": 28.1,
      "admin_name1": null
    },
    {
      "place_name": "Magaliessig",
      "postal_code": "2067",
      "country_code": "ZA",
      "latitude": -26.2,
      "longitude": 28.0833,
      "admin_name1": null
    },
    {
      "place_name": "Highflats",
      "postal_code": "3305",
      "country_code": "ZA",
      "latitude": -30.2667,
      "longitude": 30.2,
      "admin_name1": null
    },
    {
      "place_name": "St Wendolins",
      "postal_code": "3609",
      "country_code": "ZA",
      "latitude": -29.8167,
      "longitude": 30.85,
      "admin_name1": null
    },
    {
      "place_name": "Msobomvu",
      "postal_code": "4961",
      "country_code": "ZA",
      "latitude": -32.3333,
      "longitude": 28.15,
      "admin_name1": null
    },
    {
      "place_name": "Elliot",
      "postal_code": "5460",
      "country_code": "ZA",
      "latitude": -30.9167,
      "longitude": 26.6833,
      "admin_name1": null
    },
    {
      "place_name": "Eastern Cape",
      "postal_code": "5900",
      "country_code": "ZA",
      "latitude": -29.8389,
      "longitude": 26.2444,
      "admin_name1": null
    },
    {
      "place_name": "Stilbaai",
      "postal_code": "6674",
      "country_code": "ZA",
      "latitude": -34.3667,
      "longitude": 21.4167,
      "admin_name1": null
    },
    {
      "place_name": "Touws River",
      "postal_code": "6880",
      "country_code": "ZA",
      "latitude": -33.3333,
      "longitude": 20.0333,
      "admin_name1": null
    },
    {
      "place_name": "Victoria West",
      "postal_code": "7071",
      "country_code": "ZA",
      "latitude": -31.4,
      "longitude": 23.1167,
      "admin_name1": null
    },
    {
      "place_name": "Onrus River",
      "postal_code": "7201",
      "country_code": "ZA",
      "latitude": -34.4167,
      "longitude": 19.2333,
      "admin_name1": null
    },
    {
      "place_name": "Brandfort",
      "postal_code": "9400",
      "country_code": "ZA",
      "latitude": -28.7,
      "longitude": 26.4667,
      "admin_name1": null
    },
    {
      "place_name": "Wesselsbron",
      "postal_code": "9682",
      "country_code": "ZA",
      "latitude": -27.85,
      "longitude": 26.3667,
      "admin_name1": null
    },
    {
      "place_name": "Paul Roux",
      "postal_code": "9800",
      "country_code": "ZA",
      "latitude": -28.3,
      "longitude": 27.95,
      "admin_name1": null
    },
    {
      "place_name": "Swartklip",
      "postal_code": "0351",
      "country_code": "ZA",
      "latitude": -24.9333,
      "longitude": 27.15,
      "admin_name1": null
    },
    {
      "place_name": "Xipame",
      "postal_code": "0452",
      "country_code": "ZA",
      "latitude": -24.9667,
      "longitude": 29.3,
      "admin_name1": null
    },
    {
      "place_name": "Rebone",
      "postal_code": "0639",
      "country_code": "ZA",
      "latitude": -24.1833,
      "longitude": 29.0167,
      "admin_name1": null
    },
    {
      "place_name": "Mphogodiba",
      "postal_code": "0732",
      "country_code": "ZA",
      "latitude": -23.9667,
      "longitude": 29.7,
      "admin_name1": null
    },
    {
      "place_name": "Witrivier",
      "postal_code": "1240",
      "country_code": "ZA",
      "latitude": -25.3167,
      "longitude": 31.0167,
      "admin_name1": null
    },
    {
      "place_name": "Sandton",
      "postal_code": "2196",
      "country_code": "ZA",
      "latitude": -26.1,
      "longitude": 28.0667,
      "admin_name1": null
    },
    {
      "place_name": "Embalenhle",
      "postal_code": "2285",
      "country_code": "ZA",
      "latitude": -26.5333,
      "longitude": 29.0667,
      "admin_name1": null
    },
    {
      "place_name": "Ozwatini",
      "postal_code": "3242",
      "country_code": "ZA",
      "latitude": -29.4,
      "longitude": 30.85,
      "admin_name1": null
    },
    {
      "place_name": "Botha'S Hill",
      "postal_code": "3660",
      "country_code": "ZA",
      "latitude": -29.7167,
      "longitude": 30.7333,
      "admin_name1": null
    },
    {
      "place_name": "Queens Mercy",
      "postal_code": "4743",
      "country_code": "ZA",
      "latitude": -30.25,
      "longitude": 28.5333,
      "admin_name1": null
    },
    {
      "place_name": "Despatch",
      "postal_code": "6220",
      "country_code": "ZA",
      "latitude": -33.8,
      "longitude": 25.4667,
      "admin_name1": null
    },
    {
      "place_name": "George East",
      "postal_code": "6529",
      "country_code": "ZA",
      "latitude": -33.8167,
      "longitude": 25.65,
      "admin_name1": null
    },
    {
      "place_name": "Somerset-Wes",
      "postal_code": "7130",
      "country_code": "ZA",
      "latitude": -34.075,
      "longitude": 18.8083,
      "admin_name1": null
    },
    {
      "place_name": "Dassenberg",
      "postal_code": "7347",
      "country_code": "ZA",
      "latitude": -33.0833,
      "longitude": 18.75,
      "admin_name1": null
    },
    {
      "place_name": "Durbanville",
      "postal_code": "7550",
      "country_code": "ZA",
      "latitude": -33.8333,
      "longitude": 18.65,
      "admin_name1": null
    },
    {
      "place_name": "Strandfontein",
      "postal_code": "7798",
      "country_code": "ZA",
      "latitude": -34.0833,
      "longitude": 18.55,
      "admin_name1": null
    },
    {
      "place_name": "Simon'S Town",
      "postal_code": "7995",
      "country_code": "ZA",
      "latitude": -34.1833,
      "longitude": 18.4333,
      "admin_name1": null
    },
    {
      "place_name": "Loeriesfontein",
      "postal_code": "8185",
      "country_code": "ZA",
      "latitude": -30.9667,
      "longitude": 19.45,
      "admin_name1": null
    },
    {
      "place_name": "Mothibistad",
      "postal_code": "8477",
      "country_code": "ZA",
      "latitude": -27.05,
      "longitude": 24.4733,
      "admin_name1": null
    },
    {
      "place_name": "Ganyesa",
      "postal_code": "8587",
      "country_code": "ZA",
      "latitude": -26.6,
      "longitude": 24.1833,
      "admin_name1": null
    },
    {
      "place_name": "Kakamas",
      "postal_code": "8873",
      "country_code": "ZA",
      "latitude": -28.75,
      "longitude": 20.6333,
      "admin_name1": null
    },
    {
      "place_name": "Wepener",
      "postal_code": "9944",
      "country_code": "ZA",
      "latitude": -29.7333,
      "longitude": 27.0333,
      "admin_name1": null
    },
    {
      "place_name": "Kwamhlanga",
      "postal_code": "1023",
      "country_code": "ZA",
      "latitude": -25.4283,
      "longitude": 28.7083,
      "admin_name1": null
    },
    {
      "place_name": "Kwathema",
      "postal_code": "1576",
      "country_code": "ZA",
      "latitude": -26.3,
      "longitude": 28.4,
      "admin_name1": null
    },
    {
      "place_name": "Diepkloof",
      "postal_code": "1804",
      "country_code": "ZA",
      "latitude": -26.2333,
      "longitude": 27.9333,
      "admin_name1": null
    },
    {
      "place_name": "Secunda",
      "postal_code": "2300",
      "country_code": "ZA",
      "latitude": -26.55,
      "longitude": 29.1667,
      "admin_name1": null
    },
    {
      "place_name": "Sannieshof",
      "postal_code": "2760",
      "country_code": "ZA",
      "latitude": -26.5333,
      "longitude": 25.8,
      "admin_name1": null
    },
    {
      "place_name": "Swartruggens",
      "postal_code": "2835",
      "country_code": "ZA",
      "latitude": -25.65,
      "longitude": 26.7,
      "admin_name1": null
    },
    {
      "place_name": "Madadeni",
      "postal_code": "2951",
      "country_code": "ZA",
      "latitude": -27.75,
      "longitude": 30.0333,
      "admin_name1": null
    },
    {
      "place_name": "Steadville",
      "postal_code": "3373",
      "country_code": "ZA",
      "latitude": -28.55,
      "longitude": 29.7833,
      "admin_name1": null
    },
    {
      "place_name": "Queen'S Mercy",
      "postal_code": "4788",
      "country_code": "ZA",
      "latitude": -30.25,
      "longitude": 28.5333,
      "admin_name1": null
    },
    {
      "place_name": "Khayalitsha",
      "postal_code": "7784",
      "country_code": "ZA",
      "latitude": -33.9167,
      "longitude": 18.4167,
      "admin_name1": null
    },
    {
      "place_name": "Fauresmith",
      "postal_code": "9978",
      "country_code": "ZA",
      "latitude": -29.75,
      "longitude": 25.3167,
      "admin_name1": null
    },
    {
      "place_name": "Wingate Park",
      "postal_code": "0153",
      "country_code": "ZA",
      "latitude": -25.8333,
      "longitude": 28.25,
      "admin_name1": null
    },
    {
      "place_name": "Munzhedzi",
      "postal_code": "0948",
      "country_code": "ZA",
      "latitude": -23.05,
      "longitude": 29.9,
      "admin_name1": null
    },
    {
      "place_name": "Kwazamokuhle",
      "postal_code": "1098",
      "country_code": "ZA",
      "latitude": -26.15,
      "longitude": 29.7167,
      "admin_name1": null
    },
    {
      "place_name": "Bosbokrand",
      "postal_code": "1286",
      "country_code": "ZA",
      "latitude": -24.8333,
      "longitude": 31.0667,
      "admin_name1": null
    },
    {
      "place_name": "Olifantsfontein",
      "postal_code": "1666",
      "country_code": "ZA",
      "latitude": -25.9639,
      "longitude": 28.2394,
      "admin_name1": null
    },
    {
      "place_name": "Ogies",
      "postal_code": "2233",
      "country_code": "ZA",
      "latitude": -26.05,
      "longitude": 29.0667,
      "admin_name1": null
    },
    {
      "place_name": "Nucam",
      "postal_code": "2355",
      "country_code": "ZA",
      "latitude": -26.5333,
      "longitude": 29.9833,
      "admin_name1": null
    },
    {
      "place_name": "Noupoort",
      "postal_code": "5950",
      "country_code": "ZA",
      "latitude": -31.1874,
      "longitude": 24.9499,
      "admin_name1": null
    },
    {
      "place_name": "Petrusville",
      "postal_code": "8770",
      "country_code": "ZA",
      "latitude": -30.0833,
      "longitude": 24.65,
      "admin_name1": null
    },
    {
      "place_name": "Odendaalsrus",
      "postal_code": "9480",
      "country_code": "ZA",
      "latitude": -27.8667,
      "longitude": 26.6833,
      "admin_name1": null
    },
    {
      "place_name": "Kestell",
      "postal_code": "9860",
      "country_code": "ZA",
      "latitude": -28.3167,
      "longitude": 28.7,
      "admin_name1": null
    },
    {
      "place_name": "Letaba",
      "postal_code": "0877",
      "country_code": "ZA",
      "latitude": -23.9,
      "longitude": 30.0667,
      "admin_name1": null
    },
    {
      "place_name": "Putfontein",
      "postal_code": "1513",
      "country_code": "ZA",
      "latitude": -26.1167,
      "longitude": 28.4,
      "admin_name1": null
    },
    {
      "place_name": "Modderfontein",
      "postal_code": "1609",
      "country_code": "ZA",
      "latitude": -26.0833,
      "longitude": 28.1667,
      "admin_name1": null
    },
    {
      "place_name": "Dube",
      "postal_code": "1801",
      "country_code": "ZA",
      "latitude": -26.25,
      "longitude": 27.9167,
      "admin_name1": null
    },
    {
      "place_name": "Hartbeesfontein",
      "postal_code": "2600",
      "country_code": "ZA",
      "latitude": -26.7667,
      "longitude": 26.4167,
      "admin_name1": null
    },
    {
      "place_name": "Dannhause",
      "postal_code": "3080",
      "country_code": "ZA",
      "latitude": -28.0,
      "longitude": 30.05,
      "admin_name1": null
    },
    {
      "place_name": "Durban-Noord",
      "postal_code": "4051",
      "country_code": "ZA",
      "latitude": -29.8,
      "longitude": 31.0333,
      "admin_name1": null
    },
    {
      "place_name": "Shallcross",
      "postal_code": "4093",
      "country_code": "ZA",
      "latitude": -29.8333,
      "longitude": 30.9333,
      "admin_name1": null
    },
    {
      "place_name": "Pefferville",
      "postal_code": "5209",
      "country_code": "ZA",
      "latitude": -33.0333,
      "longitude": 27.9167,
      "admin_name1": null
    },
    {
      "place_name": "Southseas",
      "postal_code": "6172",
      "country_code": "ZA",
      "latitude": -33.6,
      "longitude": 26.9,
      "admin_name1": null
    },
    {
      "place_name": "Kwanonqaba",
      "postal_code": "6506",
      "country_code": "ZA",
      "latitude": -34.1833,
      "longitude": 22.1333,
      "admin_name1": null
    },
    {
      "place_name": "Britstown",
      "postal_code": "8782",
      "country_code": "ZA",
      "latitude": -30.5833,
      "longitude": 23.5,
      "admin_name1": null
    },
    {
      "place_name": "Atteridgeville",
      "postal_code": "0008",
      "country_code": "ZA",
      "latitude": -25.7728,
      "longitude": 28.0678,
      "admin_name1": null
    },
    {
      "place_name": "Mphe-Batho",
      "postal_code": "0412",
      "country_code": "ZA",
      "latitude": -25.343,
      "longitude": 28.2204,
      "admin_name1": null
    },
    {
      "place_name": "Muthathi",
      "postal_code": "0976",
      "country_code": "ZA",
      "latitude": -22.95,
      "longitude": 30.4667,
      "admin_name1": null
    },
    {
      "place_name": "Bedfordview",
      "postal_code": "2007",
      "country_code": "ZA",
      "latitude": -26.1667,
      "longitude": 28.15,
      "admin_name1": null
    },
    {
      "place_name": "Randpark Ridge",
      "postal_code": "2169",
      "country_code": "ZA",
      "latitude": -26.2,
      "longitude": 28.0833,
      "admin_name1": null
    },
    {
      "place_name": "Mount Edgecombe",
      "postal_code": "4068",
      "country_code": "ZA",
      "latitude": -29.7,
      "longitude": 31.0333,
      "admin_name1": null
    },
    {
      "place_name": "Sezela",
      "postal_code": "4215",
      "country_code": "ZA",
      "latitude": -30.4167,
      "longitude": 30.6833,
      "admin_name1": null
    },
    {
      "place_name": "Umtentweni",
      "postal_code": "4235",
      "country_code": "ZA",
      "latitude": -30.7167,
      "longitude": 30.4667,
      "admin_name1": null
    },
    {
      "place_name": "Hankey",
      "postal_code": "6350",
      "country_code": "ZA",
      "latitude": -33.8333,
      "longitude": 24.8833,
      "admin_name1": null
    },
    {
      "place_name": "Oudshoorn",
      "postal_code": "6625",
      "country_code": "ZA",
      "latitude": -33.5833,
      "longitude": 22.2,
      "admin_name1": null
    },
    {
      "place_name": "Macassar",
      "postal_code": "7130",
      "country_code": "ZA",
      "latitude": -34.0667,
      "longitude": 18.7667,
      "admin_name1": null
    },
    {
      "place_name": "Langebaan",
      "postal_code": "7357",
      "country_code": "ZA",
      "latitude": -33.1,
      "longitude": 18.0333,
      "admin_name1": null
    },
    {
      "place_name": "Ysterplaat",
      "postal_code": "7405",
      "country_code": "ZA",
      "latitude": -33.9,
      "longitude": 18.4833,
      "admin_name1": null
    },
    {
      "place_name": "Mankurwane",
      "postal_code": "8345",
      "country_code": "ZA",
      "latitude": -28.55,
      "longitude": 25.2333,
      "admin_name1": null
    },
    {
      "place_name": "Lynn East",
      "postal_code": "0186",
      "country_code": "ZA",
      "latitude": -25.7069,
      "longitude": 28.2294,
      "admin_name1": null
    },
    {
      "place_name": "Koster",
      "postal_code": "0369",
      "country_code": "ZA",
      "latitude": -25.8667,
      "longitude": 26.9,
      "admin_name1": null
    },
    {
      "place_name": "Rivonia",
      "postal_code": "2128",
      "country_code": "ZA",
      "latitude": -26.05,
      "longitude": 28.05,
      "admin_name1": null
    },
    {
      "place_name": "Makwassie",
      "postal_code": "2650",
      "country_code": "ZA",
      "latitude": -27.3167,
      "longitude": 25.9833,
      "admin_name1": null
    },
    {
      "place_name": "Ulundi",
      "postal_code": "3838",
      "country_code": "ZA",
      "latitude": -28.3333,
      "longitude": 31.4167,
      "admin_name1": null
    },
    {
      "place_name": "Steynsburg",
      "postal_code": "5920",
      "country_code": "ZA",
      "latitude": -31.3,
      "longitude": 25.8167,
      "admin_name1": null
    },
    {
      "place_name": "Zwide",
      "postal_code": "6201",
      "country_code": "ZA",
      "latitude": -33.9333,
      "longitude": 25.5917,
      "admin_name1": null
    },
    {
      "place_name": "Steytlerville",
      "postal_code": "6250",
      "country_code": "ZA",
      "latitude": -33.3328,
      "longitude": 24.3447,
      "admin_name1": null
    },
    {
      "place_name": "Beaufort Wes",
      "postal_code": "6970",
      "country_code": "ZA",
      "latitude": -32.35,
      "longitude": 22.5833,
      "admin_name1": null
    },
    {
      "place_name": "Gordon'S Bay",
      "postal_code": "7140",
      "country_code": "ZA",
      "latitude": -34.1667,
      "longitude": 18.8667,
      "admin_name1": null
    },
    {
      "place_name": "Elsiesrivier",
      "postal_code": "7490",
      "country_code": "ZA",
      "latitude": -33.9167,
      "longitude": 18.5667,
      "admin_name1": null
    },
    {
      "place_name": "Ravensmead",
      "postal_code": "7493",
      "country_code": "ZA",
      "latitude": -33.9167,
      "longitude": 18.6,
      "admin_name1": null
    },
    {
      "place_name": "Wynberg",
      "postal_code": "7800",
      "country_code": "ZA",
      "latitude": -34.0,
      "longitude": 18.4667,
      "admin_name1": null
    },
    {
      "place_name": "Geduldpan",
      "postal_code": "9468",
      "country_code": "ZA",
      "latitude": -27.9833,
      "longitude": 26.7333,
      "admin_name1": null
    },
    {
      "place_name": "Bultfontein",
      "postal_code": "9670",
      "country_code": "ZA",
      "latitude": -25.1167,
      "longitude": 28.5667,
      "admin_name1": null
    },
    {
      "place_name": "Herschel",
      "postal_code": "9756",
      "country_code": "ZA",
      "latitude": -30.6167,
      "longitude": 27.1667,
      "admin_name1": null
    },
    {
      "place_name": "Edenburg",
      "postal_code": "9908",
      "country_code": "ZA",
      "latitude": -29.7333,
      "longitude": 25.9333,
      "admin_name1": null
    },
    {
      "place_name": "Boordfontein-Wes",
      "postal_code": "0201",
      "country_code": "ZA",
      "latitude": -25.7069,
      "longitude": 28.2294,
      "admin_name1": null
    },
    {
      "place_name": "Roedtan",
      "postal_code": "0580",
      "country_code": "ZA",
      "latitude": -24.5777,
      "longitude": 28.202,
      "admin_name1": null
    },
    {
      "place_name": "Dwars River",
      "postal_code": "0812",
      "country_code": "ZA",
      "latitude": -23.45,
      "longitude": 29.75,
      "admin_name1": null
    },
    {
      "place_name": "Kabokweni",
      "postal_code": "1251",
      "country_code": "ZA",
      "latitude": -24.9333,
      "longitude": 31.0917,
      "admin_name1": null
    },
    {
      "place_name": "Tokoza Ext",
      "postal_code": "1427",
      "country_code": "ZA",
      "latitude": -26.3667,
      "longitude": 28.0667,
      "admin_name1": null
    },
    {
      "place_name": "Kragbron",
      "postal_code": "1946",
      "country_code": "ZA",
      "latitude": -26.9,
      "longitude": 27.8833,
      "admin_name1": null
    },
    {
      "place_name": "Wakkerstroom",
      "postal_code": "2480",
      "country_code": "ZA",
      "latitude": -27.35,
      "longitude": 30.1333,
      "admin_name1": null
    },
    {
      "place_name": "Nqutu",
      "postal_code": "3135",
      "country_code": "ZA",
      "latitude": -28.2,
      "longitude": 30.6667,
      "admin_name1": null
    },
    {
      "place_name": "Dormerton",
      "postal_code": "4138",
      "country_code": "ZA",
      "latitude": -30.05,
      "longitude": 30.8833,
      "admin_name1": null
    },
    {
      "place_name": "Port Edward",
      "postal_code": "4295",
      "country_code": "ZA",
      "latitude": -31.05,
      "longitude": 30.2167,
      "admin_name1": null
    },
    {
      "place_name": "Desainagar",
      "postal_code": "4399",
      "country_code": "ZA",
      "latitude": -29.114,
      "longitude": 30.6772,
      "admin_name1": null
    },
    {
      "place_name": "King Williams Town",
      "postal_code": "5611",
      "country_code": "ZA",
      "latitude": -32.8833,
      "longitude": 27.4,
      "admin_name1": null
    },
    {
      "place_name": "Keiskammahoek",
      "postal_code": "5680",
      "country_code": "ZA",
      "latitude": -32.6833,
      "longitude": 27.15,
      "admin_name1": null
    },
    {
      "place_name": "Prince Alfred Hamlet",
      "postal_code": "6835",
      "country_code": "ZA",
      "latitude": -33.3,
      "longitude": 19.3167,
      "admin_name1": null
    },
    {
      "place_name": "Fraserburg",
      "postal_code": "6960",
      "country_code": "ZA",
      "latitude": -31.9167,
      "longitude": 21.5167,
      "admin_name1": null
    },
    {
      "place_name": "Table View",
      "postal_code": "7441",
      "country_code": "ZA",
      "latitude": -33.8167,
      "longitude": 18.4833,
      "admin_name1": null
    },
    {
      "place_name": "Olifantshoek",
      "postal_code": "8450",
      "country_code": "ZA",
      "latitude": -27.9333,
      "longitude": 22.7333,
      "admin_name1": null
    },
    {
      "place_name": "Gasehunelo",
      "postal_code": "9323",
      "country_code": "ZA",
      "latitude": -28.0833,
      "longitude": 24.8917,
      "admin_name1": null
    },
    {
      "place_name": "Ventersburg",
      "postal_code": "9450",
      "country_code": "ZA",
      "latitude": -28.0833,
      "longitude": 27.1333,
      "admin_name1": null
    },
    {
      "place_name": "Venterstad",
      "postal_code": "9798",
      "country_code": "ZA",
      "latitude": -30.7833,
      "longitude": 25.8,
      "admin_name1": null
    },
    {
      "place_name": "Settlers",
      "postal_code": "0430",
      "country_code": "ZA",
      "latitude": -24.95,
      "longitude": 28.5333,
      "admin_name1": null
    },
    {
      "place_name": "Mashashane",
      "postal_code": "0743",
      "country_code": "ZA",
      "latitude": -23.95,
      "longitude": 29.1333,
      "admin_name1": null
    },
    {
      "place_name": "Naledi",
      "postal_code": "1861",
      "country_code": "ZA",
      "latitude": -23.8333,
      "longitude": 29.0833,
      "admin_name1": null
    },
    {
      "place_name": "Fochville",
      "postal_code": "2515",
      "country_code": "ZA",
      "latitude": -26.4833,
      "longitude": 27.5,
      "admin_name1": null
    },
    {
      "place_name": "Boskop",
      "postal_code": "2528",
      "country_code": "ZA",
      "latitude": -29.5,
      "longitude": 26.2,
      "admin_name1": null
    },
    {
      "place_name": "Mid Illovo",
      "postal_code": "3750",
      "country_code": "ZA",
      "latitude": -29.9667,
      "longitude": 30.5167,
      "admin_name1": null
    },
    {
      "place_name": "Esikhawini",
      "postal_code": "3887",
      "country_code": "ZA",
      "latitude": -28.8833,
      "longitude": 31.9,
      "admin_name1": null
    },
    {
      "place_name": "Hartenbos",
      "postal_code": "6520",
      "country_code": "ZA",
      "latitude": -34.1167,
      "longitude": 22.1167,
      "admin_name1": null
    },
    {
      "place_name": "Kotzeshoop",
      "postal_code": "8245",
      "country_code": "ZA",
      "latitude": -28.7167,
      "longitude": 17.5833,
      "admin_name1": null
    },
    {
      "place_name": "Delportshoop",
      "postal_code": "8377",
      "country_code": "ZA",
      "latitude": -28.4167,
      "longitude": 24.3,
      "admin_name1": null
    },
    {
      "place_name": "Grootdrink",
      "postal_code": "8822",
      "country_code": "ZA",
      "latitude": -26.4833,
      "longitude": 22.2333,
      "admin_name1": null
    },
    {
      "place_name": "Pofadder",
      "postal_code": "8892",
      "country_code": "ZA",
      "latitude": -29.1333,
      "longitude": 19.3833,
      "admin_name1": null
    },
    {
      "place_name": "Bohlokong",
      "postal_code": "9702",
      "country_code": "ZA",
      "latitude": -28.2333,
      "longitude": 28.3,
      "admin_name1": null
    },
    {
      "place_name": "Pyramid",
      "postal_code": "0120",
      "country_code": "ZA",
      "latitude": -25.5814,
      "longitude": 28.2319,
      "admin_name1": null
    },
    {
      "place_name": "Voortrekkerhoogte",
      "postal_code": "0187",
      "country_code": "ZA",
      "latitude": -25.8,
      "longitude": 28.1167,
      "admin_name1": null
    },
    {
      "place_name": "Dibasabophelo",
      "postal_code": "0457",
      "country_code": "ZA",
      "latitude": -24.9667,
      "longitude": 29.3,
      "admin_name1": null
    },
    {
      "place_name": "Ga-Maraba",
      "postal_code": "0705",
      "country_code": "ZA",
      "latitude": -23.7167,
      "longitude": 29.3167,
      "admin_name1": null
    },
    {
      "place_name": "Dunnottar",
      "postal_code": "1496",
      "country_code": "ZA",
      "latitude": -26.35,
      "longitude": 28.4167,
      "admin_name1": null
    },
    {
      "place_name": "Noordwyk",
      "postal_code": "1687",
      "country_code": "ZA",
      "latitude": -25.9833,
      "longitude": 28.1167,
      "admin_name1": null
    },
    {
      "place_name": "Klerkskdorp",
      "postal_code": "2574",
      "country_code": "ZA",
      "latitude": -26.8833,
      "longitude": 26.6333,
      "admin_name1": null
    },
    {
      "place_name": "Kloof",
      "postal_code": "3640",
      "country_code": "ZA",
      "latitude": -29.7833,
      "longitude": 30.8333,
      "admin_name1": null
    },
    {
      "place_name": "Illovo Beach",
      "postal_code": "4126",
      "country_code": "ZA",
      "latitude": -30.1167,
      "longitude": 30.85,
      "admin_name1": null
    },
    {
      "place_name": "Manaba Beach",
      "postal_code": "4276",
      "country_code": "ZA",
      "latitude": -30.85,
      "longitude": 30.3667,
      "admin_name1": null
    },
    {
      "place_name": "Kenton On Sea",
      "postal_code": "6191",
      "country_code": "ZA",
      "latitude": -33.7,
      "longitude": 26.6833,
      "admin_name1": null
    },
    {
      "place_name": "Klipplaat",
      "postal_code": "6255",
      "country_code": "ZA",
      "latitude": -33.0211,
      "longitude": 24.3369,
      "admin_name1": null
    },
    {
      "place_name": "Plettenbergbaai",
      "postal_code": "6600",
      "country_code": "ZA",
      "latitude": -34.0455,
      "longitude": 23.3727,
      "admin_name1": null
    },
    {
      "place_name": "Velddrif",
      "postal_code": "7365",
      "country_code": "ZA",
      "latitude": -32.7833,
      "longitude": 18.1667,
      "admin_name1": null
    },
    {
      "place_name": "Landsdowne",
      "postal_code": "7780",
      "country_code": "ZA",
      "latitude": -33.9722,
      "longitude": 18.4667,
      "admin_name1": null
    },
    {
      "place_name": "Hotazel",
      "postal_code": "8467",
      "country_code": "ZA",
      "latitude": -27.2,
      "longitude": 22.9667,
      "admin_name1": null
    },
    {
      "place_name": "Petrus Steyn",
      "postal_code": "9640",
      "country_code": "ZA",
      "latitude": -27.65,
      "longitude": 28.1333,
      "admin_name1": null
    },
    {
      "place_name": "Moot",
      "postal_code": "0084",
      "country_code": "ZA",
      "latitude": -25.7069,
      "longitude": 28.2294,
      "admin_name1": null
    },
    {
      "place_name": "Chromite",
      "postal_code": "0362",
      "country_code": "ZA",
      "latitude": -24.6,
      "longitude": 27.4,
      "admin_name1": null
    },
    {
      "place_name": "Brakpan North",
      "postal_code": "1541",
      "country_code": "ZA",
      "latitude": -26.2333,
      "longitude": 28.3667,
      "admin_name1": null
    },
    {
      "place_name": "Rooderpoort",
      "postal_code": "1724",
      "country_code": "ZA",
      "latitude": -26.1767,
      "longitude": 27.8667,
      "admin_name1": null
    },
    {
      "place_name": "Bekkersdal",
      "postal_code": "1779",
      "country_code": "ZA",
      "latitude": -26.2833,
      "longitude": 27.7167,
      "admin_name1": null
    },
    {
      "place_name": "Hlobane",
      "postal_code": "3145",
      "country_code": "ZA",
      "latitude": -27.7167,
      "longitude": 31.0,
      "admin_name1": null
    },
    {
      "place_name": "Colenso",
      "postal_code": "3360",
      "country_code": "ZA",
      "latitude": -28.7333,
      "longitude": 29.8167,
      "admin_name1": null
    },
    {
      "place_name": "Ezakheni",
      "postal_code": "3381",
      "country_code": "ZA",
      "latitude": -28.55,
      "longitude": 29.7833,
      "admin_name1": null
    },
    {
      "place_name": "Ceza",
      "postal_code": "3871",
      "country_code": "ZA",
      "latitude": -27.9833,
      "longitude": 31.3833,
      "admin_name1": null
    },
    {
      "place_name": "Jeffreysbaai",
      "postal_code": "6332",
      "country_code": "ZA",
      "latitude": -34.05,
      "longitude": 24.9167,
      "admin_name1": null
    },
    {
      "place_name": "Moorreesburg",
      "postal_code": "7310",
      "country_code": "ZA",
      "latitude": -33.15,
      "longitude": 18.6667,
      "admin_name1": null
    },
    {
      "place_name": "Boshof",
      "postal_code": "8340",
      "country_code": "ZA",
      "latitude": -28.55,
      "longitude": 25.2333,
      "admin_name1": null
    },
    {
      "place_name": "Raditshaba",
      "postal_code": "0718",
      "country_code": "ZA",
      "latitude": -22.8333,
      "longitude": 28.85,
      "admin_name1": null
    },
    {
      "place_name": "Sakhile",
      "postal_code": "2431",
      "country_code": "ZA",
      "latitude": -26.9667,
      "longitude": 29.2,
      "admin_name1": null
    },
    {
      "place_name": "Cato Ridge",
      "postal_code": "3680",
      "country_code": "ZA",
      "latitude": -29.7333,
      "longitude": 30.5833,
      "admin_name1": null
    },
    {
      "place_name": "Albertinia",
      "postal_code": "6695",
      "country_code": "ZA",
      "latitude": -34.2,
      "longitude": 21.5833,
      "admin_name1": null
    },
    {
      "place_name": "Fishhoek",
      "postal_code": "7975",
      "country_code": "ZA",
      "latitude": -34.0056,
      "longitude": 18.4222,
      "admin_name1": null
    },
    {
      "place_name": "Graafwater",
      "postal_code": "8121",
      "country_code": "ZA",
      "latitude": -32.15,
      "longitude": 18.6,
      "admin_name1": null
    },
    {
      "place_name": "Lambertsbaai",
      "postal_code": "8130",
      "country_code": "ZA",
      "latitude": -32.1,
      "longitude": 18.3,
      "admin_name1": null
    },
    {
      "place_name": "Ritchie",
      "postal_code": "8701",
      "country_code": "ZA",
      "latitude": -29.05,
      "longitude": 24.6,
      "admin_name1": null
    },
    {
      "place_name": "Hertzogville",
      "postal_code": "9482",
      "country_code": "ZA",
      "latitude": -28.1333,
      "longitude": 25.5,
      "admin_name1": null
    },
    {
      "place_name": "Dikgakeng",
      "postal_code": "9873",
      "country_code": "ZA",
      "latitude": -28.5333,
      "longitude": 28.8,
      "admin_name1": null
    },
    {
      "place_name": "Reddersburg",
      "postal_code": "9904",
      "country_code": "ZA",
      "latitude": -29.65,
      "longitude": 26.1667,
      "admin_name1": null
    },
    {
      "place_name": "Trompsburg",
      "postal_code": "9913",
      "country_code": "ZA",
      "latitude": -30.0333,
      "longitude": 25.7833,
      "admin_name1": null
    },
    {
      "place_name": "Rouxville",
      "postal_code": "9958",
      "country_code": "ZA",
      "latitude": -30.4167,
      "longitude": 26.8333,
      "admin_name1": null
    },
    {
      "place_name": "Regorogile",
      "postal_code": "0387",
      "country_code": "ZA",
      "latitude": -24.6,
      "longitude": 27.4,
      "admin_name1": null
    },
    {
      "place_name": "Vaalwater",
      "postal_code": "0537",
      "country_code": "ZA",
      "latitude": -24.1667,
      "longitude": 28.1,
      "admin_name1": null
    },
    {
      "place_name": "Tsakane",
      "postal_code": "1550",
      "country_code": "ZA",
      "latitude": -26.35,
      "longitude": 28.3833,
      "admin_name1": null
    },
    {
      "place_name": "Odin Park",
      "postal_code": "1831",
      "country_code": "ZA",
      "latitude": -26.3167,
      "longitude": 27.8333,
      "admin_name1": null
    },
    {
      "place_name": "Uvongo",
      "postal_code": "4270",
      "country_code": "ZA",
      "latitude": -31.4,
      "longitude": 26.5833,
      "admin_name1": null
    },
    {
      "place_name": "Hunter'S Retreat",
      "postal_code": "6017",
      "country_code": "ZA",
      "latitude": -33.9667,
      "longitude": 25.5833,
      "admin_name1": null
    },
    {
      "place_name": "Kareedouw",
      "postal_code": "6400",
      "country_code": "ZA",
      "latitude": -30.7833,
      "longitude": 25.85,
      "admin_name1": null
    },
    {
      "place_name": "Wolseley",
      "postal_code": "6830",
      "country_code": "ZA",
      "latitude": -33.4167,
      "longitude": 19.2,
      "admin_name1": null
    },
    {
      "place_name": "Gugulethu",
      "postal_code": "7750",
      "country_code": "ZA",
      "latitude": -33.9833,
      "longitude": 18.575,
      "admin_name1": null
    },
    {
      "place_name": "Mithchells Plain",
      "postal_code": "7785",
      "country_code": "ZA",
      "latitude": -33.9611,
      "longitude": 18.4833,
      "admin_name1": null
    },
    {
      "place_name": "Lutzville",
      "postal_code": "8149",
      "country_code": "ZA",
      "latitude": -31.55,
      "longitude": 18.35,
      "admin_name1": null
    },
    {
      "place_name": "Okiep",
      "postal_code": "8271",
      "country_code": "ZA",
      "latitude": -29.6,
      "longitude": 17.9,
      "admin_name1": null
    },
    {
      "place_name": "Jacobsdal",
      "postal_code": "8710",
      "country_code": "ZA",
      "latitude": -25.6333,
      "longitude": 26.0667,
      "admin_name1": null
    },
    {
      "place_name": "Mangaung",
      "postal_code": "9307",
      "country_code": "ZA",
      "latitude": -29.1333,
      "longitude": 26.2,
      "admin_name1": null
    },
    {
      "place_name": "Letlhabile",
      "postal_code": "0264",
      "country_code": "ZA",
      "latitude": -25.6333,
      "longitude": 27.7833,
      "admin_name1": null
    },
    {
      "place_name": "Rust De Winter",
      "postal_code": "0405",
      "country_code": "ZA",
      "latitude": -25.1986,
      "longitude": 28.6092,
      "admin_name1": null
    },
    {
      "place_name": "Nkwe",
      "postal_code": "0616",
      "country_code": "ZA",
      "latitude": -23.4,
      "longitude": 28.75,
      "admin_name1": null
    },
    {
      "place_name": "Dikgale",
      "postal_code": "0721",
      "country_code": "ZA",
      "latitude": -23.7333,
      "longitude": 29.7833,
      "admin_name1": null
    },
    {
      "place_name": "Manyama",
      "postal_code": "0753",
      "country_code": "ZA",
      "latitude": -23.6774,
      "longitude": 29.4869,
      "admin_name1": null
    },
    {
      "place_name": "Jouberton",
      "postal_code": "2574",
      "country_code": "ZA",
      "latitude": -26.9,
      "longitude": 26.6,
      "admin_name1": null
    },
    {
      "place_name": "Wasbank",
      "postal_code": "2920",
      "country_code": "ZA",
      "latitude": -29.7167,
      "longitude": 26.3833,
      "admin_name1": null
    },
    {
      "place_name": "Kwambonambi",
      "postal_code": "3915",
      "country_code": "ZA",
      "latitude": -28.6,
      "longitude": 32.0833,
      "admin_name1": null
    },
    {
      "place_name": "Sterkstroom",
      "postal_code": "5425",
      "country_code": "ZA",
      "latitude": -31.5667,
      "longitude": 26.55,
      "admin_name1": null
    },
    {
      "place_name": "Brackenfell",
      "postal_code": "7560",
      "country_code": "ZA",
      "latitude": -33.8667,
      "longitude": 18.6833,
      "admin_name1": null
    },
    {
      "place_name": "Mitchells Plein",
      "postal_code": "7785",
      "country_code": "ZA",
      "latitude": -33.9611,
      "longitude": 18.4833,
      "admin_name1": null
    },
    {
      "place_name": "Hartswater",
      "postal_code": "8570",
      "country_code": "ZA",
      "latitude": -27.7667,
      "longitude": 24.8167,
      "admin_name1": null
    },
    {
      "place_name": "Mokodumela",
      "postal_code": "9869",
      "country_code": "ZA",
      "latitude": -28.5333,
      "longitude": 28.8,
      "admin_name1": null
    },
    {
      "place_name": "Jagersfontein",
      "postal_code": "9974",
      "country_code": "ZA",
      "latitude": -29.7667,
      "longitude": 25.4167,
      "admin_name1": null
    }
  ]
]